%time,field.name0,field.name1,field.name2,field.pose0.position.x,field.pose0.position.y,field.pose0.position.z,field.pose0.orientation.x,field.pose0.orientation.y,field.pose0.orientation.z,field.pose0.orientation.w,field.pose1.position.x,field.pose1.position.y,field.pose1.position.z,field.pose1.orientation.x,field.pose1.orientation.y,field.pose1.orientation.z,field.pose1.orientation.w,field.pose2.position.x,field.pose2.position.y,field.pose2.position.z,field.pose2.orientation.x,field.pose2.orientation.y,field.pose2.orientation.z,field.pose2.orientation.w,field.twist0.linear.x,field.twist0.linear.y,field.twist0.linear.z,field.twist0.angular.x,field.twist0.angular.y,field.twist0.angular.z,field.twist1.linear.x,field.twist1.linear.y,field.twist1.linear.z,field.twist1.angular.x,field.twist1.angular.y,field.twist1.angular.z,field.twist2.linear.x,field.twist2.linear.y,field.twist2.linear.z,field.twist2.angular.x,field.twist2.angular.y,field.twist2.angular.z
159080000000,ground_plane,lar_ufba_room,husky,0.0,0.0,0.0,0.0,0.0,0.0,1.0,0.0,0.0,0.0,0.0,0.0,0.0,1.0,4.649499030495027,2.9996721942185265,0.19228008382799633,2.0205442330128434e-06,1.7248365006171535e-06,-3.221377208577242e-05,0.9999999994776076,0.0,0.0,0.0,0.0,0.0,0.0,0.0,0.0,0.0,0.0,0.0,0.0,-1.6706275068894655e-06,7.601775226128086e-07,9.174631013140402e-07,-9.315091524432197e-07,-7.35037299255264e-07,2.3793985933837287e-07
159080000000,ground_plane,lar_ufba_room,husky,0.0,0.0,0.0,0.0,0.0,0.0,1.0,0.0,0.0,0.0,0.0,0.0,0.0,1.0,4.649499014710859,2.9996721945568194,0.19228008380543632,2.0205268360989956e-06,1.7247969504383609e-06,-3.2213512833699624e-05,0.9999999994776161,0.0,0.0,0.0,0.0,0.0,0.0,0.0,0.0,0.0,0.0,0.0,0.0,-1.6706681040750072e-06,7.601750505901071e-07,9.174634329903471e-07,-9.315119783223594e-07,-7.350357157550419e-07,2.3794258597135555e-07
159090000000,ground_plane,lar_ufba_room,husky,0.0,0.0,0.0,0.0,0.0,0.0,1.0,0.0,0.0,0.0,0.0,0.0,0.0,1.0,4.6494989989262825,2.9996721948951155,0.1922800837828777,2.0205094402348364e-06,1.7247574025805755e-06,-3.221325358966924e-05,0.9999999994776245,0.0,0.0,0.0,0.0,0.0,0.0,0.0,0.0,0.0,0.0,0.0,0.0,-1.6707087006274769e-06,7.601725805576645e-07,9.174637661340042e-07,-9.315148034310436e-07,-7.350341182435723e-07,2.3794535101337593e-07
159110000000,ground_plane,lar_ufba_room,husky,0.0,0.0,0.0,0.0,0.0,0.0,1.0,0.0,0.0,0.0,0.0,0.0,0.0,1.0,4.649498983141299,2.9996721952334147,0.19228008376032046,2.020492045438422e-06,1.7247178570074027e-06,-3.221299435374912e-05,0.999999999477633,0.0,0.0,0.0,0.0,0.0,0.0,0.0,0.0,0.0,0.0,0.0,0.0,-1.670749296448101e-06,7.601701095068448e-07,9.174640969247583e-07,-9.31517624682391e-07,-7.350325280755833e-07,2.3794810233523095e-07
159120000000,ground_plane,lar_ufba_room,husky,0.0,0.0,0.0,0.0,0.0,0.0,1.0,0.0,0.0,0.0,0.0,0.0,0.0,1.0,4.649498967355908,2.999672195571717,0.19228008373776467,2.0204746516571722e-06,1.7246783136367966e-06,-3.221273512600623e-05,0.9999999994776416,0.0,0.0,0.0,0.0,0.0,0.0,0.0,0.0,0.0,0.0,0.0,0.0,-1.670789901072418e-06,7.60167643844807e-07,9.174644277803559e-07,-9.31520456146099e-07,-7.350309544137327e-07,2.3795084012579936e-07
159120000000,ground_plane,lar_ufba_room,husky,0.0,0.0,0.0,0.0,0.0,0.0,1.0,0.0,0.0,0.0,0.0,0.0,0.0,1.0,4.649498951570109,2.9996721959100228,0.1922800837152102,2.020457258927072e-06,1.7246387725682825e-06,-3.221247590652957e-05,0.9999999994776498,0.0,0.0,0.0,0.0,0.0,0.0,0.0,0.0,0.0,0.0,0.0,0.0,-1.6708305076064828e-06,7.601651772968403e-07,9.174647592797935e-07,-9.315232801490434e-07,-7.350293609216099e-07,2.3795355996204978e-07
159140000000,ground_plane,lar_ufba_room,husky,0.0,0.0,0.0,0.0,0.0,0.0,1.0,0.0,0.0,0.0,0.0,0.0,0.0,1.0,4.649498935783903,2.9996721962483313,0.1922800836926571,2.020439867197818e-06,1.7245992337831523e-06,-3.221221669514116e-05,0.9999999994776585,0.0,0.0,0.0,0.0,0.0,0.0,0.0,0.0,0.0,0.0,0.0,0.0,-1.6708711261776768e-06,7.601627106962052e-07,9.174650891217886e-07,-9.315261140435676e-07,-7.350277712415671e-07,2.3795631526195155e-07
159140000000,ground_plane,lar_ufba_room,husky,0.0,0.0,0.0,0.0,0.0,0.0,1.0,0.0,0.0,0.0,0.0,0.0,0.0,1.0,4.64949891999729,2.999672196586643,0.19228008367010535,2.0204224765116612e-06,1.7245596972437333e-06,-3.2211957491891296e-05,0.9999999994776669,0.0,0.0,0.0,0.0,0.0,0.0,0.0,0.0,0.0,0.0,0.0,0.0,-1.6709117532122213e-06,7.601602386338192e-07,9.174654239461844e-07,-9.315289391755529e-07,-7.350261891679645e-07,2.3795906035426168e-07
159150000000,ground_plane,lar_ufba_room,husky,0.0,0.0,0.0,0.0,0.0,0.0,1.0,0.0,0.0,0.0,0.0,0.0,0.0,1.0,4.649498904210268,2.9996721969249576,0.1922800836475551,2.0204050868668033e-06,1.724520163026159e-06,-3.221169829682186e-05,0.9999999994776754,0.0,0.0,0.0,0.0,0.0,0.0,0.0,0.0,0.0,0.0,0.0,0.0,-1.6709523827562156e-06,7.601577727927926e-07,9.174657569622164e-07,-9.315317644518832e-07,-7.350245919448479e-07,2.3796179691598185e-07
159170000000,ground_plane,lar_ufba_room,husky,0.0,0.0,0.0,0.0,0.0,0.0,1.0,0.0,0.0,0.0,0.0,0.0,0.0,1.0,4.649498888422839,2.999672197263275,0.1922800836250062,2.0203876982560735e-06,1.7244806310250642e-06,-3.221143910989601e-05,0.9999999994776838,0.0,0.0,0.0,0.0,0.0,0.0,0.0,0.0,0.0,0.0,0.0,0.0,-1.6709929986443354e-06,7.601553036533681e-07,9.174660862593867e-07,-9.315345908859714e-07,-7.35023015861918e-07,2.379645407136498e-07
159180000000,ground_plane,lar_ufba_room,husky,0.0,0.0,0.0,0.0,0.0,0.0,1.0,0.0,0.0,0.0,0.0,0.0,0.0,1.0,4.649498872635002,2.999672197601596,0.1922800836024587,2.0203703107224596e-06,1.7244411013504487e-06,-3.221117993107821e-05,0.9999999994776922,0.0,0.0,0.0,0.0,0.0,0.0,0.0,0.0,0.0,0.0,0.0,0.0,-1.6710336253364073e-06,7.60152838796081e-07,9.174664173022084e-07,-9.315374084844396e-07,-7.350214178922553e-07,2.379672914664972e-07
159190000000,ground_plane,lar_ufba_room,husky,0.0,0.0,0.0,0.0,0.0,0.0,1.0,0.0,0.0,0.0,0.0,0.0,0.0,1.0,4.649498856846757,2.99967219793992,0.19228008357991258,2.0203529242226694e-06,1.7244015738918845e-06,-3.2210920760316826e-05,0.9999999994777007,0.0,0.0,0.0,0.0,0.0,0.0,0.0,0.0,0.0,0.0,0.0,0.0,-1.6710742624160562e-06,7.601503713307096e-07,9.174667486927388e-07,-9.31540234457416e-07,-7.350198420702711e-07,2.3797005239935434e-07
159200000000,ground_plane,lar_ufba_room,husky,0.0,0.0,0.0,0.0,0.0,0.0,1.0,0.0,0.0,0.0,0.0,0.0,0.0,1.0,4.649498841058104,2.999672198278247,0.19228008355736784,2.0203355387233927e-06,1.724362048698961e-06,-3.221066159765882e-05,0.9999999994777091,0.0,0.0,0.0,0.0,0.0,0.0,0.0,0.0,0.0,0.0,0.0,0.0,-1.671114894881107e-06,7.601479037212058e-07,9.174670814709452e-07,-9.315430668737391e-07,-7.35018256365093e-07,2.379728038034477e-07
159200000000,ground_plane,lar_ufba_room,husky,0.0,0.0,0.0,0.0,0.0,0.0,1.0,0.0,0.0,0.0,0.0,0.0,0.0,1.0,4.649498825269044,2.9996721986165773,0.19228008353482448,2.0203181543098857e-06,1.7243225257609696e-06,-3.221040244319077e-05,0.9999999994777176,0.0,0.0,0.0,0.0,0.0,0.0,0.0,0.0,0.0,0.0,0.0,0.0,-1.671155538176942e-06,7.601454326436741e-07,9.174674111913156e-07,-9.315458819494598e-07,-7.350166729492583e-07,2.3797553774818423e-07
159220000000,ground_plane,lar_ufba_room,husky,0.0,0.0,0.0,0.0,0.0,0.0,1.0,0.0,0.0,0.0,0.0,0.0,0.0,1.0,4.649498809479575,2.99967219895491,0.19228008351228248,2.020300770878497e-06,1.7242830051470172e-06,-3.2210143296953166e-05,0.999999999477726,0.0,0.0,0.0,0.0,0.0,0.0,0.0,0.0,0.0,0.0,0.0,0.0,-1.6711961765415781e-06,7.601429647093568e-07,9.174677426229404e-07,-9.315487176025178e-07,-7.350150757425901e-07,2.3797826343320536e-07
159220000000,ground_plane,lar_ufba_room,husky,0.0,0.0,0.0,0.0,0.0,0.0,1.0,0.0,0.0,0.0,0.0,0.0,0.0,1.0,4.649498793689699,2.9996721992932462,0.19228008348974193,2.020283388514839e-06,1.7242434867572764e-06,-3.220988415877934e-05,0.9999999994777344,0.0,0.0,0.0,0.0,0.0,0.0,0.0,0.0,0.0,0.0,0.0,0.0,-1.6712368233497366e-06,7.601404982935715e-07,9.174680754691057e-07,-9.315515357819795e-07,-7.350134985907615e-07,2.3798102232591175e-07
159240000000,ground_plane,lar_ufba_room,husky,0.0,0.0,0.0,0.0,0.0,0.0,1.0,0.0,0.0,0.0,0.0,0.0,0.0,1.0,4.649498777899415,2.9996721996315854,0.19228008346720274,2.020266007206592e-06,1.724203970699621e-06,-3.220962502872667e-05,0.9999999994777429,0.0,0.0,0.0,0.0,0.0,0.0,0.0,0.0,0.0,0.0,0.0,0.0,-1.6712774835033563e-06,7.601380320383927e-07,9.174684060125244e-07,-9.315543562528396e-07,-7.350118999588322e-07,2.3798376958772049e-07
159240000000,ground_plane,lar_ufba_room,husky,0.0,0.0,0.0,0.0,0.0,0.0,1.0,0.0,0.0,0.0,0.0,0.0,0.0,1.0,4.649498762108722,2.999672199969928,0.19228008344466493,2.0202486269345295e-06,1.7241644568356585e-06,-3.220936590683993e-05,0.9999999994777513,0.0,0.0,0.0,0.0,0.0,0.0,0.0,0.0,0.0,0.0,0.0,0.0,-1.6713181431440215e-06,7.601355653648271e-07,9.174687364130068e-07,-9.315571802928032e-07,-7.35010329061425e-07,2.379865077541356e-07
159250000000,ground_plane,lar_ufba_room,husky,0.0,0.0,0.0,0.0,0.0,0.0,1.0,0.0,0.0,0.0,0.0,0.0,0.0,1.0,4.649498746317622,2.999672200308274,0.19228008342212852,2.020231247663991e-06,1.7241249452620903e-06,-3.220910679315043e-05,0.9999999994777597,0.0,0.0,0.0,0.0,0.0,0.0,0.0,0.0,0.0,0.0,0.0,0.0,-1.6713587964839491e-06,7.601330990723091e-07,9.174690695362367e-07,-9.315600110533217e-07,-7.350087389086068e-07,2.3798923951337433e-07
159270000000,ground_plane,lar_ufba_room,husky,0.0,0.0,0.0,0.0,0.0,0.0,1.0,0.0,0.0,0.0,0.0,0.0,0.0,1.0,4.649498730526114,2.9996722006466223,0.19228008339959352,2.0202138694472355e-06,1.724085435950625e-06,-3.220884768758036e-05,0.9999999994777682,0.0,0.0,0.0,0.0,0.0,0.0,0.0,0.0,0.0,0.0,0.0,0.0,-1.6713994717269149e-06,7.601306275745152e-07,9.174693989297094e-07,-9.31562831000165e-07,-7.350071544714266e-07,2.3799198668712144e-07
159280000000,ground_plane,lar_ufba_room,husky,0.0,0.0,0.0,0.0,0.0,0.0,1.0,0.0,0.0,0.0,0.0,0.0,0.0,1.0,4.6494987147341975,2.999672200984974,0.19228008337705987,2.0201964922825343e-06,1.7240459289081024e-06,-3.2208588590104546e-05,0.9999999994777768,0.0,0.0,0.0,0.0,0.0,0.0,0.0,0.0,0.0,0.0,0.0,0.0,-1.6714401410610688e-06,7.601281603477691e-07,9.174697314560338e-07,-9.315656511128408e-07,-7.35005568750802e-07,2.379947387512951e-07
159290000000,ground_plane,lar_ufba_room,husky,0.0,0.0,0.0,0.0,0.0,0.0,1.0,0.0,0.0,0.0,0.0,0.0,0.0,1.0,4.649498698941873,2.9996722013233286,0.19228008335452762,2.020179116150965e-06,1.7240064241402781e-06,-3.220832950076921e-05,0.9999999994777853,0.0,0.0,0.0,0.0,0.0,0.0,0.0,0.0,0.0,0.0,0.0,0.0,-1.6714808123413643e-06,7.601256872772847e-07,9.174700632394635e-07,-9.315684747767586e-07,-7.35003981988527e-07,2.3799748142424255e-07
159300000000,ground_plane,lar_ufba_room,husky,0.0,0.0,0.0,0.0,0.0,0.0,1.0,0.0,0.0,0.0,0.0,0.0,0.0,1.0,4.6494986831491385,2.999672201661686,0.19228008333199675,2.0201617410485123e-06,1.7239669216981401e-06,-3.220807041953547e-05,0.9999999994777935,0.0,0.0,0.0,0.0,0.0,0.0,0.0,0.0,0.0,0.0,0.0,0.0,-1.6715214821974866e-06,7.601232260085664e-07,9.174703925571357e-07,-9.315712990104557e-07,-7.350023850713253e-07,2.3800023172768042e-07
159300000000,ground_plane,lar_ufba_room,husky,0.0,0.0,0.0,0.0,0.0,0.0,1.0,0.0,0.0,0.0,0.0,0.0,0.0,1.0,4.649498667355998,2.9996722020000472,0.19228008330946728,2.020144366977135e-06,1.7239274214203661e-06,-3.22078113464322e-05,0.9999999994778022,0.0,0.0,0.0,0.0,0.0,0.0,0.0,0.0,0.0,0.0,0.0,0.0,-1.6715621618726628e-06,7.601207586272877e-07,9.17470723688006e-07,-9.315741225824131e-07,-7.350008205442569e-07,2.3800297612043007e-07
159310000000,ground_plane,lar_ufba_room,husky,0.0,0.0,0.0,0.0,0.0,0.0,1.0,0.0,0.0,0.0,0.0,0.0,0.0,1.0,4.649498651562449,2.999672202338411,0.19228008328693919,2.020126993951855e-06,1.7238879234827212e-06,-3.2207552281452896e-05,0.9999999994778104,0.0,0.0,0.0,0.0,0.0,0.0,0.0,0.0,0.0,0.0,0.0,0.0,-1.6716028467244963e-06,7.601182921644035e-07,9.174710567624978e-07,-9.315769428084784e-07,-7.349992208864869e-07,2.3800572166194668e-07
159330000000,ground_plane,lar_ufba_room,husky,0.0,0.0,0.0,0.0,0.0,0.0,1.0,0.0,0.0,0.0,0.0,0.0,0.0,1.0,4.6494986357684915,2.999672202676778,0.19228008326441245,2.020109621968402e-06,1.723848427764362e-06,-3.220729322454826e-05,0.999999999477819,0.0,0.0,0.0,0.0,0.0,0.0,0.0,0.0,0.0,0.0,0.0,0.0,-1.6716435403408206e-06,7.601158287931e-07,9.174713872906566e-07,-9.315797637415661e-07,-7.349976455304953e-07,2.3800847692722963e-07
159330000000,ground_plane,lar_ufba_room,husky,0.0,0.0,0.0,0.0,0.0,0.0,1.0,0.0,0.0,0.0,0.0,0.0,0.0,1.0,4.649498619974126,2.9996722030151477,0.19228008324188714,2.020092251006833e-06,1.723808934306983e-06,-3.2207034175821554e-05,0.9999999994778275,0.0,0.0,0.0,0.0,0.0,0.0,0.0,0.0,0.0,0.0,0.0,0.0,-1.6716842343053139e-06,7.601133661801027e-07,9.174717193793701e-07,-9.315825883852886e-07,-7.349960618665966e-07,2.3801121138378118e-07
159350000000,ground_plane,lar_ufba_room,husky,0.0,0.0,0.0,0.0,0.0,0.0,1.0,0.0,0.0,0.0,0.0,0.0,0.0,1.0,4.6494986041793505,2.999672203353521,0.19228008321936324,2.0200748811271123e-06,1.7237694431472202e-06,-3.220677513525863e-05,0.9999999994778359,0.0,0.0,0.0,0.0,0.0,0.0,0.0,0.0,0.0,0.0,0.0,0.0,-1.6717249386118725e-06,7.601108974531487e-07,9.174720487607616e-07,-9.315854008057128e-07,-7.34994470952622e-07,2.380139485288972e-07
159360000000,ground_plane,lar_ufba_room,husky,0.0,0.0,0.0,0.0,0.0,0.0,1.0,0.0,0.0,0.0,0.0,0.0,0.0,1.0,4.649498588384167,2.999672203691897,0.19228008319684073,2.020057512263124e-06,1.7237299542608029e-06,-3.2206516102851085e-05,0.9999999994778443,0.0,0.0,0.0,0.0,0.0,0.0,0.0,0.0,0.0,0.0,0.0,0.0,-1.6717656274620442e-06,7.60108429245264e-07,9.174723810649727e-07,-9.315882261578765e-07,-7.349928849943074e-07,2.3801668719638793e-07
159370000000,ground_plane,lar_ufba_room,husky,0.0,0.0,0.0,0.0,0.0,0.0,1.0,0.0,0.0,0.0,0.0,0.0,0.0,1.0,4.649498572588575,2.9996722040302766,0.19228008317431952,2.020040144381354e-06,1.7236904675966904e-06,-3.2206257078554926e-05,0.9999999994778528,0.0,0.0,0.0,0.0,0.0,0.0,0.0,0.0,0.0,0.0,0.0,0.0,-1.671806323263202e-06,7.601059604147887e-07,9.174727088972111e-07,-9.315910580319152e-07,-7.349913093513046e-07,2.3801943453492991e-07
159380000000,ground_plane,lar_ufba_room,husky,0.0,0.0,0.0,0.0,0.0,0.0,1.0,0.0,0.0,0.0,0.0,0.0,0.0,1.0,4.649498556792575,2.999672204368659,0.19228008315179976,2.0200227776192362e-06,1.7236509832443714e-06,-3.2205998062407034e-05,0.9999999994778612,0.0,0.0,0.0,0.0,0.0,0.0,0.0,0.0,0.0,0.0,0.0,0.0,-1.6718470242184309e-06,7.601034939025451e-07,9.174730430190014e-07,-9.315938621112212e-07,-7.349897157945762e-07,2.380221743489773e-07
159390000000,ground_plane,lar_ufba_room,husky,0.0,0.0,0.0,0.0,0.0,0.0,1.0,0.0,0.0,0.0,0.0,0.0,0.0,1.0,4.649498540996166,2.999672204707044,0.19228008312928138,2.020005411876462e-06,1.7236115011175627e-06,-3.220573905439903e-05,0.9999999994778697,0.0,0.0,0.0,0.0,0.0,0.0,0.0,0.0,0.0,0.0,0.0,0.0,-1.6718877270449307e-06,7.601010341406063e-07,9.174733730347092e-07,-9.315966859902624e-07,-7.349881396737068e-07,2.3802491569145314e-07
159400000000,ground_plane,lar_ufba_room,husky,0.0,0.0,0.0,0.0,0.0,0.0,1.0,0.0,0.0,0.0,0.0,0.0,0.0,1.0,4.649498525199349,2.9996722050454325,0.19228008310676437,2.0199880471345136e-06,1.7235720212840177e-06,-3.220548005451398e-05,0.9999999994778781,0.0,0.0,0.0,0.0,0.0,0.0,0.0,0.0,0.0,0.0,0.0,0.0,-1.6719284397342128e-06,7.600985716097192e-07,9.174737050915453e-07,-9.315995133429159e-07,-7.349865500035987e-07,2.3802766028416447e-07
159410000000,ground_plane,lar_ufba_room,husky,0.0,0.0,0.0,0.0,0.0,0.0,1.0,0.0,0.0,0.0,0.0,0.0,0.0,1.0,4.6494985094021235,2.999672205383824,0.19228008308424877,2.019970683477644e-06,1.7235325437351122e-06,-3.220522106268167e-05,0.9999999994778865,0.0,0.0,0.0,0.0,0.0,0.0,0.0,0.0,0.0,0.0,0.0,0.0,-1.671969171674403e-06,7.600961020330377e-07,9.174740350618253e-07,-9.316023236183459e-07,-7.34984962150088e-07,2.3803041876309e-07
159420000000,ground_plane,lar_ufba_room,husky,0.0,0.0,0.0,0.0,0.0,0.0,1.0,0.0,0.0,0.0,0.0,0.0,0.0,1.0,4.649498493604488,2.9996722057222187,0.19228008306173455,2.0199533208092754e-06,1.7234930684073669e-06,-3.220496207901591e-05,0.999999999477895,0.0,0.0,0.0,0.0,0.0,0.0,0.0,0.0,0.0,0.0,0.0,0.0,-1.6720098837007141e-06,7.600936365383958e-07,9.174743676017358e-07,-9.316051529585916e-07,-7.349833870995948e-07,2.3803315433705905e-07
159420000000,ground_plane,lar_ufba_room,husky,0.0,0.0,0.0,0.0,0.0,0.0,1.0,0.0,0.0,0.0,0.0,0.0,0.0,1.0,4.649498477806446,2.9996722060606165,0.19228008303922176,2.019935959218479e-06,1.7234535953429355e-06,-3.220470310352969e-05,0.9999999994779034,0.0,0.0,0.0,0.0,0.0,0.0,0.0,0.0,0.0,0.0,0.0,0.0,-1.672050606809172e-06,7.600911738326686e-07,9.174746970190568e-07,-9.316079642270147e-07,-7.349818036775638e-07,2.3803588717236794e-07
159430000000,ground_plane,lar_ufba_room,husky,0.0,0.0,0.0,0.0,0.0,0.0,1.0,0.0,0.0,0.0,0.0,0.0,0.0,1.0,4.649498462007994,2.9996722063990173,0.1922800830167103,2.0199185986433425e-06,1.7234141245890804e-06,-3.220444413614618e-05,0.9999999994779118,0.0,0.0,0.0,0.0,0.0,0.0,0.0,0.0,0.0,0.0,0.0,0.0,-1.6720913413365593e-06,7.600887050319045e-07,9.174750269548174e-07,-9.316107876608861e-07,-7.349802108558238e-07,2.3803863522679546e-07
159450000000,ground_plane,lar_ufba_room,husky,0.0,0.0,0.0,0.0,0.0,0.0,1.0,0.0,0.0,0.0,0.0,0.0,0.0,1.0,4.649498446209133,2.9996722067374213,0.19228008299420019,2.019901239103455e-06,1.7233746560660381e-06,-3.220418517696828e-05,0.9999999994779203,0.0,0.0,0.0,0.0,0.0,0.0,0.0,0.0,0.0,0.0,0.0,0.0,-1.6721320625957281e-06,7.600862429036301e-07,9.174753589985846e-07,-9.31613606807203e-07,-7.349786341278168e-07,2.3804136256064385e-07
159460000000,ground_plane,lar_ufba_room,husky,0.0,0.0,0.0,0.0,0.0,0.0,1.0,0.0,0.0,0.0,0.0,0.0,0.0,1.0,4.649498430409864,2.9996722070758284,0.19228008297169152,2.0198838806040703e-06,1.7233351898351505e-06,-3.2203926225956924e-05,0.9999999994779287,0.0,0.0,0.0,0.0,0.0,0.0,0.0,0.0,0.0,0.0,0.0,0.0,-1.672172799299583e-06,7.600837757451931e-07,9.174756883578668e-07,-9.316164247547723e-07,-7.349770451763762e-07,2.3804409756330763e-07
159460000000,ground_plane,lar_ufba_room,husky,0.0,0.0,0.0,0.0,0.0,0.0,1.0,0.0,0.0,0.0,0.0,0.0,0.0,1.0,4.649498414610186,2.999672207414238,0.1922800829491842,2.0198665231619855e-06,1.7232957258951081e-06,-3.220366728306104e-05,0.9999999994779372,0.0,0.0,0.0,0.0,0.0,0.0,0.0,0.0,0.0,0.0,0.0,0.0,-1.67221353341231e-06,7.600813036218677e-07,9.174760206544772e-07,-9.316192390761594e-07,-7.349754565217165e-07,2.3804684263384947e-07
159480000000,ground_plane,lar_ufba_room,husky,0.0,0.0,0.0,0.0,0.0,0.0,1.0,0.0,0.0,0.0,0.0,0.0,0.0,1.0,4.649498398810098,2.9996722077526514,0.1922800829266783,2.0198491667473795e-06,1.7232562641373077e-06,-3.2203408348246e-05,0.9999999994779456,0.0,0.0,0.0,0.0,0.0,0.0,0.0,0.0,0.0,0.0,0.0,0.0,-1.6722542803269647e-06,7.60078838820929e-07,9.174763512670071e-07,-9.316220591313684e-07,-7.349738897147103e-07,2.3804959447847086e-07
159490000000,ground_plane,lar_ufba_room,husky,0.0,0.0,0.0,0.0,0.0,0.0,1.0,0.0,0.0,0.0,0.0,0.0,0.0,1.0,4.649498383009603,2.999672208091068,0.19228008290417384,2.0198318113661313e-06,1.7232168047303938e-06,-3.220314942153674e-05,0.999999999477954,0.0,0.0,0.0,0.0,0.0,0.0,0.0,0.0,0.0,0.0,0.0,0.0,-1.6722950164403498e-06,7.600763750467421e-07,9.174766832052689e-07,-9.3162487769414e-07,-7.349722892103728e-07,2.3805234119979603e-07
159500000000,ground_plane,lar_ufba_room,husky,0.0,0.0,0.0,0.0,0.0,0.0,1.0,0.0,0.0,0.0,0.0,0.0,0.0,1.0,4.6494983672086985,2.999672208429487,0.1922800828816707,2.0198144570174116e-06,1.7231773475282266e-06,-3.22028905029226e-05,0.9999999994779625,0.0,0.0,0.0,0.0,0.0,0.0,0.0,0.0,0.0,0.0,0.0,0.0,-1.6723357805529235e-06,7.600739094677826e-07,9.174770126234625e-07,-9.316276962515936e-07,-7.349707180595525e-07,2.3805508990031757e-07
159510000000,ground_plane,lar_ufba_room,husky,0.0,0.0,0.0,0.0,0.0,0.0,1.0,0.0,0.0,0.0,0.0,0.0,0.0,1.0,4.649498351407384,2.999672208767909,0.19228008285916895,2.019797103703192e-06,1.7231378925874939e-06,-3.220263159242002e-05,0.9999999994779709,0.0,0.0,0.0,0.0,0.0,0.0,0.0,0.0,0.0,0.0,0.0,0.0,-1.672376541730988e-06,7.600714423434447e-07,9.174773407735727e-07,-9.316305142067432e-07,-7.349691356498147e-07,2.3805783517621007e-07
159520000000,ground_plane,lar_ufba_room,husky,0.0,0.0,0.0,0.0,0.0,0.0,1.0,0.0,0.0,0.0,0.0,0.0,0.0,1.0,4.649498335605661,2.999672209106335,0.19228008283666856,2.0197797514251136e-06,1.7230984399690277e-06,-3.220237269002923e-05,0.9999999994779794,0.0,0.0,0.0,0.0,0.0,0.0,0.0,0.0,0.0,0.0,0.0,0.0,-1.6724173009497841e-06,7.600689776578047e-07,9.174776749490223e-07,-9.316333314150151e-07,-7.34967541124847e-07,2.3806058025660915e-07
159530000000,ground_plane,lar_ufba_room,husky,0.0,0.0,0.0,0.0,0.0,0.0,1.0,0.0,0.0,0.0,0.0,0.0,0.0,1.0,4.649498319803528,2.999672209444763,0.19228008281416958,2.0197624001695867e-06,1.7230589895272482e-06,-3.220211379574244e-05,0.9999999994779878,0.0,0.0,0.0,0.0,0.0,0.0,0.0,0.0,0.0,0.0,0.0,0.0,-1.6724580584853064e-06,7.600665071904651e-07,9.174780041813e-07,-9.316361512617655e-07,-7.34965975803796e-07,2.3806332674808912e-07
159540000000,ground_plane,lar_ufba_room,husky,0.0,0.0,0.0,0.0,0.0,0.0,1.0,0.0,0.0,0.0,0.0,0.0,0.0,1.0,4.649498304000987,2.9996722097831947,0.19228008279167202,2.0197450499899657e-06,1.7230195414370613e-06,-3.220185490949467e-05,0.9999999994779962,0.0,0.0,0.0,0.0,0.0,0.0,0.0,0.0,0.0,0.0,0.0,0.0,-1.6724988149228818e-06,7.600640399881266e-07,9.17478335408543e-07,-9.316389600970534e-07,-7.349643755881462e-07,2.3806608608989452e-07
159550000000,ground_plane,lar_ufba_room,husky,0.0,0.0,0.0,0.0,0.0,0.0,1.0,0.0,0.0,0.0,0.0,0.0,0.0,1.0,4.649498288198037,2.999672210121629,0.19228008276917574,2.0197277008247374e-06,1.7229800955574489e-06,-3.2201596031481995e-05,0.9999999994780047,0.0,0.0,0.0,0.0,0.0,0.0,0.0,0.0,0.0,0.0,0.0,0.0,-1.6725395846139666e-06,7.600615721176076e-07,9.174786636513937e-07,-9.316417810000967e-07,-7.349628036693299e-07,2.380688060824794e-07
159550000000,ground_plane,lar_ufba_room,husky,0.0,0.0,0.0,0.0,0.0,0.0,1.0,0.0,0.0,0.0,0.0,0.0,0.0,1.0,4.649498272394678,2.9996722104600666,0.19228008274668096,2.0197103526969868e-06,1.722940651935729e-06,-3.220133716146876e-05,0.9999999994780131,0.0,0.0,0.0,0.0,0.0,0.0,0.0,0.0,0.0,0.0,0.0,0.0,-1.6725803626267066e-06,7.600591119616404e-07,9.174789969309944e-07,-9.316445970726121e-07,-7.349612223038758e-07,2.3807157304512224e-07
159570000000,ground_plane,lar_ufba_room,husky,0.0,0.0,0.0,0.0,0.0,0.0,1.0,0.0,0.0,0.0,0.0,0.0,0.0,1.0,4.64949825659091,2.9996722107985074,0.1922800827241875,2.0196930055988123e-06,1.7229012105936773e-06,-3.220107829964493e-05,0.9999999994780215,0.0,0.0,0.0,0.0,0.0,0.0,0.0,0.0,0.0,0.0,0.0,0.0,-1.6726211393106794e-06,7.600566485442911e-07,9.174793259232409e-07,-9.316474144625411e-07,-7.349596367226591e-07,2.3807430188119606e-07
159580000000,ground_plane,lar_ufba_room,husky,0.0,0.0,0.0,0.0,0.0,0.0,1.0,0.0,0.0,0.0,0.0,0.0,0.0,1.0,4.649498240786731,2.999672211136951,0.19228008270169544,2.0196756595227195e-06,1.7228617714962501e-06,-3.220081944594669e-05,0.99999999947803,0.0,0.0,0.0,0.0,0.0,0.0,0.0,0.0,0.0,0.0,0.0,0.0,-1.6726619244593945e-06,7.600541825002426e-07,9.174796551070766e-07,-9.316502330563672e-07,-7.349580581759683e-07,2.380770433287054e-07
159590000000,ground_plane,lar_ufba_room,husky,0.0,0.0,0.0,0.0,0.0,0.0,1.0,0.0,0.0,0.0,0.0,0.0,0.0,1.0,4.649498224982144,2.999672211475398,0.1922800826792048,2.0196583145102007e-06,1.7228223346726096e-06,-3.220056060028416e-05,0.9999999994780384,0.0,0.0,0.0,0.0,0.0,0.0,0.0,0.0,0.0,0.0,0.0,0.0,-1.6727027049711474e-06,7.600517205474945e-07,9.174799885486139e-07,-9.316530431032572e-07,-7.349564739226389e-07,2.3807980260948231e-07
159600000000,ground_plane,lar_ufba_room,husky,0.0,0.0,0.0,0.0,0.0,0.0,1.0,0.0,0.0,0.0,0.0,0.0,0.0,1.0,4.649498209177148,2.999672211813848,0.1922800826567155,2.0196409705472043e-06,1.7227829001465639e-06,-3.220030176280272e-05,0.9999999994780469,0.0,0.0,0.0,0.0,0.0,0.0,0.0,0.0,0.0,0.0,0.0,0.0,-1.6727434947181905e-06,7.600492592355728e-07,9.174803183851167e-07,-9.316558557371238e-07,-7.34954884962375e-07,2.3808253267690143e-07
159610000000,ground_plane,lar_ufba_room,husky,0.0,0.0,0.0,0.0,0.0,0.0,1.0,0.0,0.0,0.0,0.0,0.0,0.0,1.0,4.649498193371741,2.999672212152301,0.19228008263422763,2.0196236275895522e-06,1.7227434678558174e-06,-3.220004293352456e-05,0.9999999994780553,0.0,0.0,0.0,0.0,0.0,0.0,0.0,0.0,0.0,0.0,0.0,0.0,-1.6727842901501002e-06,7.600467896374147e-07,9.174806488321495e-07,-9.316586769904113e-07,-7.349533085302864e-07,2.3808525815305728e-07
159620000000,ground_plane,lar_ufba_room,husky,0.0,0.0,0.0,0.0,0.0,0.0,1.0,0.0,0.0,0.0,0.0,0.0,0.0,1.0,4.649498177565926,2.999672212490757,0.19228008261174118,2.0196062856888084e-06,1.7227040378211647e-06,-3.219978411233748e-05,0.9999999994780637,0.0,0.0,0.0,0.0,0.0,0.0,0.0,0.0,0.0,0.0,0.0,0.0,-1.672825074224587e-06,7.600443253746115e-07,9.174809787470874e-07,-9.316614876435678e-07,-7.349517280329456e-07,2.3808800592545586e-07
159630000000,ground_plane,lar_ufba_room,husky,0.0,0.0,0.0,0.0,0.0,0.0,1.0,0.0,0.0,0.0,0.0,0.0,0.0,1.0,4.649498161759701,2.9996722128292164,0.19228008258925602,2.0195889448213774e-06,1.7226646100963434e-06,-3.2199525299291364e-05,0.9999999994780722,0.0,0.0,0.0,0.0,0.0,0.0,0.0,0.0,0.0,0.0,0.0,0.0,-1.6728658694464159e-06,7.600418612834245e-07,9.174813095860938e-07,-9.31664302802209e-07,-7.349501368615442e-07,2.380907435779503e-07
159640000000,ground_plane,lar_ufba_room,husky,0.0,0.0,0.0,0.0,0.0,0.0,1.0,0.0,0.0,0.0,0.0,0.0,0.0,1.0,4.649498145953067,2.9996722131676785,0.19228008256677226,2.019571604965618e-06,1.7226251845891234e-06,-3.219926649434508e-05,0.9999999994780806,0.0,0.0,0.0,0.0,0.0,0.0,0.0,0.0,0.0,0.0,0.0,0.0,-1.6729066713097935e-06,7.600393949713525e-07,9.174816385971543e-07,-9.316671219689723e-07,-7.349485642157043e-07,2.380934893251076e-07
159640000000,ground_plane,lar_ufba_room,husky,0.0,0.0,0.0,0.0,0.0,0.0,1.0,0.0,0.0,0.0,0.0,0.0,0.0,1.0,4.649498130146023,2.9996722135061438,0.1922800825442899,2.0195542661581898e-06,1.7225857613497883e-06,-3.219900769749897e-05,0.999999999478089,0.0,0.0,0.0,0.0,0.0,0.0,0.0,0.0,0.0,0.0,0.0,0.0,-1.672947476112567e-06,7.600369317846965e-07,9.174819674801157e-07,-9.31669933588311e-07,-7.349469815597249e-07,2.3809623483616736e-07
159650000000,ground_plane,lar_ufba_room,husky,0.0,0.0,0.0,0.0,0.0,0.0,1.0,0.0,0.0,0.0,0.0,0.0,0.0,1.0,4.64949811433857,2.999672213844612,0.19228008252180895,2.0195369284191123e-06,1.722546340422203e-06,-3.219874890877138e-05,0.9999999994780975,0.0,0.0,0.0,0.0,0.0,0.0,0.0,0.0,0.0,0.0,0.0,0.0,-1.6729882829485869e-06,7.600344700038655e-07,9.174822993562816e-07,-9.316727409322723e-07,-7.349453902683318e-07,2.3809897654311473e-07
159670000000,ground_plane,lar_ufba_room,husky,0.0,0.0,0.0,0.0,0.0,0.0,1.0,0.0,0.0,0.0,0.0,0.0,0.0,1.0,4.6494980985307075,2.9996722141830836,0.19228008249932937,2.0195195916810233e-06,1.7225069216867636e-06,-3.21984901281673e-05,0.9999999994781059,0.0,0.0,0.0,0.0,0.0,0.0,0.0,0.0,0.0,0.0,0.0,0.0,-1.6730290956193413e-06,7.600320011729938e-07,9.174826295563543e-07,-9.316755615569451e-07,-7.349438229272656e-07,2.3810171711359003e-07
159680000000,ground_plane,lar_ufba_room,husky,0.0,0.0,0.0,0.0,0.0,0.0,1.0,0.0,0.0,0.0,0.0,0.0,0.0,1.0,4.6494980827224355,2.999672214521558,0.19228008247685113,2.0195022559973276e-06,1.722467505233119e-06,-3.219823135570493e-05,0.9999999994781144,0.0,0.0,0.0,0.0,0.0,0.0,0.0,0.0,0.0,0.0,0.0,0.0,-1.6730699142111073e-06,7.600295339021138e-07,9.174829594972419e-07,-9.316783711850833e-07,-7.349422377369512e-07,2.3810445388778712e-07
159680000000,ground_plane,lar_ufba_room,husky,0.0,0.0,0.0,0.0,0.0,0.0,1.0,0.0,0.0,0.0,0.0,0.0,0.0,1.0,4.649498066913753,2.9996722148600354,0.1922800824543743,2.019484921325006e-06,1.7224280910599038e-06,-3.21979725914673e-05,0.9999999994781228,0.0,0.0,0.0,0.0,0.0,0.0,0.0,0.0,0.0,0.0,0.0,0.0,-1.6731107443560252e-06,7.600270698989742e-07,9.174832903269465e-07,-9.316811892912571e-07,-7.349406528917828e-07,2.3810717392330585e-07
159700000000,ground_plane,lar_ufba_room,husky,0.0,0.0,0.0,0.0,0.0,0.0,1.0,0.0,0.0,0.0,0.0,0.0,0.0,1.0,4.64949805110466,2.999672215198516,0.19228008243189887,2.0194675877098413e-06,1.7223886791439674e-06,-3.2197713835269185e-05,0.9999999994781312,0.0,0.0,0.0,0.0,0.0,0.0,0.0,0.0,0.0,0.0,0.0,0.0,-1.6731515755742762e-06,7.600246064515613e-07,9.174836207997024e-07,-9.316839979254959e-07,-7.349390727672001e-07,2.3810993085143825e-07
159710000000,ground_plane,lar_ufba_room,husky,0.0,0.0,0.0,0.0,0.0,0.0,1.0,0.0,0.0,0.0,0.0,0.0,0.0,1.0,4.649498035295159,2.9996722155369997,0.1922800824094248,2.019450255113884e-06,1.7223492695054221e-06,-3.2197455087196196e-05,0.9999999994781397,0.0,0.0,0.0,0.0,0.0,0.0,0.0,0.0,0.0,0.0,0.0,0.0,-1.6731923975935069e-06,7.600221464206047e-07,9.174839483255076e-07,-9.316868138525886e-07,-7.349374887045362e-07,2.3811267051767973e-07
159720000000,ground_plane,lar_ufba_room,husky,0.0,0.0,0.0,0.0,0.0,0.0,1.0,0.0,0.0,0.0,0.0,0.0,0.0,1.0,4.6494980194852475,2.9996722158754863,0.19228008238695213,2.0194329235557046e-06,1.7223098620911939e-06,-3.219719634723597e-05,0.9999999994781481,0.0,0.0,0.0,0.0,0.0,0.0,0.0,0.0,0.0,0.0,0.0,0.0,-1.6732332306151136e-06,7.600196834978312e-07,9.17484282595857e-07,-9.316896258292971e-07,-7.349359152999579e-07,2.381154125139322e-07
159720000000,ground_plane,lar_ufba_room,husky,0.0,0.0,0.0,0.0,0.0,0.0,1.0,0.0,0.0,0.0,0.0,0.0,0.0,1.0,4.6494980036749265,2.999672216213976,0.19228008236448085,2.0194155930354147e-06,1.7222704569566227e-06,-3.219693761533022e-05,0.9999999994781565,0.0,0.0,0.0,0.0,0.0,0.0,0.0,0.0,0.0,0.0,0.0,0.0,-1.6732740671469666e-06,7.600172207588219e-07,9.174846119116343e-07,-9.316924375364547e-07,-7.349343309482979e-07,2.3811816601729012e-07
159740000000,ground_plane,lar_ufba_room,husky,0.0,0.0,0.0,0.0,0.0,0.0,1.0,0.0,0.0,0.0,0.0,0.0,0.0,1.0,4.649497987864196,2.999672216552469,0.19228008234201097,2.0193982635431974e-06,1.7222310540838067e-06,-3.2196678891492225e-05,0.999999999478165,0.0,0.0,0.0,0.0,0.0,0.0,0.0,0.0,0.0,0.0,0.0,0.0,-1.6733149145387382e-06,7.600147581389528e-07,9.174849408877061e-07,-9.316952510225745e-07,-7.34932750248886e-07,2.3812091673290527e-07
159750000000,ground_plane,lar_ufba_room,husky,0.0,0.0,0.0,0.0,0.0,0.0,1.0,0.0,0.0,0.0,0.0,0.0,0.0,1.0,4.649497972053054,2.9996722168909646,0.19228008231954244,2.019380935071835e-06,1.7221916534619842e-06,-3.219642017579641e-05,0.9999999994781734,0.0,0.0,0.0,0.0,0.0,0.0,0.0,0.0,0.0,0.0,0.0,0.0,-1.6733557589155547e-06,7.600122937702926e-07,9.17485272325628e-07,-9.316980656870246e-07,-7.349311717794855e-07,2.3812365240200938e-07
159760000000,ground_plane,lar_ufba_room,husky,0.0,0.0,0.0,0.0,0.0,0.0,1.0,0.0,0.0,0.0,0.0,0.0,0.0,1.0,4.649497956241503,2.9996722172294636,0.1922800822970753,2.01936360767294e-06,1.7221522550943056e-06,-3.21961614682098e-05,0.9999999994781819,0.0,0.0,0.0,0.0,0.0,0.0,0.0,0.0,0.0,0.0,0.0,0.0,-1.6733965989164648e-06,7.600098303299066e-07,9.174856016030747e-07,-9.317008697273416e-07,-7.349295927122944e-07,2.3812639452869356e-07
159770000000,ground_plane,lar_ufba_room,husky,0.0,0.0,0.0,0.0,0.0,0.0,1.0,0.0,0.0,0.0,0.0,0.0,0.0,1.0,4.649497940429543,2.999672217567966,0.19228008227460955,2.0193462812585652e-06,1.7221128589795255e-06,-3.2195902768733926e-05,0.9999999994781903,0.0,0.0,0.0,0.0,0.0,0.0,0.0,0.0,0.0,0.0,0.0,0.0,-1.6734374486328533e-06,7.60007364125869e-07,9.174859308128812e-07,-9.317036910834453e-07,-7.349280140006955e-07,2.381291361979632e-07
159780000000,ground_plane,lar_ufba_room,husky,0.0,0.0,0.0,0.0,0.0,0.0,1.0,0.0,0.0,0.0,0.0,0.0,0.0,1.0,4.649497924617172,2.999672217906471,0.19228008225214516,2.0193289559233472e-06,1.7220734651693896e-06,-3.2195644077349125e-05,0.9999999994781987,0.0,0.0,0.0,0.0,0.0,0.0,0.0,0.0,0.0,0.0,0.0,0.0,-1.673478305072242e-06,7.600048980424117e-07,9.174862590887873e-07,-9.317064933270987e-07,-7.349264250321315e-07,2.3813188166227867e-07
159790000000,ground_plane,lar_ufba_room,husky,0.0,0.0,0.0,0.0,0.0,0.0,1.0,0.0,0.0,0.0,0.0,0.0,0.0,1.0,4.649497908804392,2.9996722182449793,0.19228008222968215,2.019311631617844e-06,1.7220340736065563e-06,-3.219538539404657e-05,0.9999999994782072,0.0,0.0,0.0,0.0,0.0,0.0,0.0,0.0,0.0,0.0,0.0,0.0,-1.673519166271152e-06,7.600024395903866e-07,9.17486591987224e-07,-9.317093051910447e-07,-7.349248476098299e-07,2.38134628742486e-07
159800000000,ground_plane,lar_ufba_room,husky,0.0,0.0,0.0,0.0,0.0,0.0,1.0,0.0,0.0,0.0,0.0,0.0,0.0,1.0,4.6494978929912,2.9996722185834908,0.19228008220722054,2.0192943083337504e-06,1.7219946842726031e-06,-3.219512671891703e-05,0.9999999994782156,0.0,0.0,0.0,0.0,0.0,0.0,0.0,0.0,0.0,0.0,0.0,0.0,-1.6735600359675197e-06,7.59999974907608e-07,9.174869212809418e-07,-9.317121184904478e-07,-7.349232739163869e-07,2.3813735753079185e-07
159810000000,ground_plane,lar_ufba_room,husky,0.0,0.0,0.0,0.0,0.0,0.0,1.0,0.0,0.0,0.0,0.0,0.0,0.0,1.0,4.649497877177599,2.9996722189220053,0.19228008218476034,2.0192769860935497e-06,1.7219552972408177e-06,-3.2194868051868454e-05,0.999999999478224,0.0,0.0,0.0,0.0,0.0,0.0,0.0,0.0,0.0,0.0,0.0,0.0,-1.6736009077356369e-06,7.599975089381128e-07,9.174872514808799e-07,-9.317149270675317e-07,-7.349216856714433e-07,2.3814010457818789e-07
159820000000,ground_plane,lar_ufba_room,husky,0.0,0.0,0.0,0.0,0.0,0.0,1.0,0.0,0.0,0.0,0.0,0.0,0.0,1.0,4.649497861363589,2.9996722192605225,0.19228008216230152,2.019259664894016e-06,1.7219159124268526e-06,-3.2194609392920386e-05,0.9999999994782325,0.0,0.0,0.0,0.0,0.0,0.0,0.0,0.0,0.0,0.0,0.0,0.0,-1.6736417735978934e-06,7.599950458920845e-07,9.174875807439548e-07,-9.31717735972661e-07,-7.349201143460865e-07,2.3814284758298545e-07
159830000000,ground_plane,lar_ufba_room,husky,0.0,0.0,0.0,0.0,0.0,0.0,1.0,0.0,0.0,0.0,0.0,0.0,0.0,1.0,4.649497845549167,2.999672219599043,0.19228008213984407,2.0192423446913444e-06,1.7218765298935527e-06,-3.219435074221055e-05,0.9999999994782409,0.0,0.0,0.0,0.0,0.0,0.0,0.0,0.0,0.0,0.0,0.0,0.0,-1.6736826518066168e-06,7.599925815231918e-07,9.174879111393219e-07,-9.317205534472373e-07,-7.349185305645388e-07,2.3814556288096865e-07
159840000000,ground_plane,lar_ufba_room,husky,0.0,0.0,0.0,0.0,0.0,0.0,1.0,0.0,0.0,0.0,0.0,0.0,0.0,1.0,4.649497829734336,2.9996722199375663,0.192280082117388,2.019225025577929e-06,1.7218371496277028e-06,-3.219409209956656e-05,0.9999999994782494,0.0,0.0,0.0,0.0,0.0,0.0,0.0,0.0,0.0,0.0,0.0,0.0,-1.673723530959185e-06,7.599901213783913e-07,9.174882392789549e-07,-9.317233521238566e-07,-7.349169494734823e-07,2.3814831252123058e-07
159850000000,ground_plane,lar_ufba_room,husky,0.0,0.0,0.0,0.0,0.0,0.0,1.0,0.0,0.0,0.0,0.0,0.0,0.0,1.0,4.649497813919093,2.9996722202760933,0.1922800820949333,2.0192077074831914e-06,1.7217977716119375e-06,-3.2193833464939394e-05,0.9999999994782578,0.0,0.0,0.0,0.0,0.0,0.0,0.0,0.0,0.0,0.0,0.0,0.0,-1.6737644172614962e-06,7.599876614396127e-07,9.174885705746819e-07,-9.3172616470427e-07,-7.349153719467792e-07,2.3815107181673272e-07
159860000000,ground_plane,lar_ufba_room,husky,0.0,0.0,0.0,0.0,0.0,0.0,1.0,0.0,0.0,0.0,0.0,0.0,0.0,1.0,4.649497798103441,2.9996722206146225,0.19228008207248,2.0191903904099565e-06,1.721758395854773e-06,-3.219357483845553e-05,0.9999999994782662,0.0,0.0,0.0,0.0,0.0,0.0,0.0,0.0,0.0,0.0,0.0,0.0,-1.6738052956581137e-06,7.599851960120073e-07,9.174888998020409e-07,-9.317289764104481e-07,-7.349137928184669e-07,2.3815380568756622e-07
159870000000,ground_plane,lar_ufba_room,husky,0.0,0.0,0.0,0.0,0.0,0.0,1.0,0.0,0.0,0.0,0.0,0.0,0.0,1.0,4.649497782287378,2.999672220953155,0.1922800820500281,2.0191730743574352e-06,1.7217190223878123e-06,-3.219331622011244e-05,0.9999999994782747,0.0,0.0,0.0,0.0,0.0,0.0,0.0,0.0,0.0,0.0,0.0,0.0,-1.6738461831740527e-06,7.599827351604084e-07,9.174892295356541e-07,-9.317317881449115e-07,-7.349122074145144e-07,2.3815653989803063e-07
159880000000,ground_plane,lar_ufba_room,husky,0.0,0.0,0.0,0.0,0.0,0.0,1.0,0.0,0.0,0.0,0.0,0.0,0.0,1.0,4.649497766470906,2.999672221291691,0.19228008202757751,2.0191557593617998e-06,1.721679651151353e-06,-3.2193057609881467e-05,0.9999999994782831,0.0,0.0,0.0,0.0,0.0,0.0,0.0,0.0,0.0,0.0,0.0,0.0,-1.6738870761617832e-06,7.599802726916102e-07,9.174895598284698e-07,-9.317345923784572e-07,-7.349106340545939e-07,2.3815927970174984e-07
159890000000,ground_plane,lar_ufba_room,husky,0.0,0.0,0.0,0.0,0.0,0.0,1.0,0.0,0.0,0.0,0.0,0.0,0.0,1.0,4.649497750654022,2.99967222163023,0.19228008200512836,2.0191384453766746e-06,1.7216402821888758e-06,-3.219279900776584e-05,0.9999999994782913,0.0,0.0,0.0,0.0,0.0,0.0,0.0,0.0,0.0,0.0,0.0,0.0,-1.6739279758605206e-06,7.599778067263933e-07,9.174898876531729e-07,-9.317374056079959e-07,-7.349090520457355e-07,2.381620187269055e-07
159900000000,ground_plane,lar_ufba_room,husky,0.0,0.0,0.0,0.0,0.0,0.0,1.0,0.0,0.0,0.0,0.0,0.0,0.0,1.0,4.649497734836728,2.999672221968772,0.1922800819826806,2.0191211324631926e-06,1.7216009154972488e-06,-3.2192540413720846e-05,0.9999999994782998,0.0,0.0,0.0,0.0,0.0,0.0,0.0,0.0,0.0,0.0,0.0,0.0,-1.6739688754665174e-06,7.599753445149209e-07,9.174902179053401e-07,-9.317402062730298e-07,-7.349074707078032e-07,2.3816476654166017e-07
159900000000,ground_plane,lar_ufba_room,husky,0.0,0.0,0.0,0.0,0.0,0.0,1.0,0.0,0.0,0.0,0.0,0.0,0.0,1.0,4.649497719019024,2.9996722223073173,0.19228008196023416,2.0191038205367328e-06,1.7215615510215038e-06,-3.219228182783094e-05,0.9999999994783084,0.0,0.0,0.0,0.0,0.0,0.0,0.0,0.0,0.0,0.0,0.0,0.0,-1.6740097675342547e-06,7.599728799227353e-07,9.174905486288375e-07,-9.317430237426261e-07,-7.349059005235183e-07,2.3816749732345837e-07
159920000000,ground_plane,lar_ufba_room,husky,0.0,0.0,0.0,0.0,0.0,0.0,1.0,0.0,0.0,0.0,0.0,0.0,0.0,1.0,4.649497703200908,2.999672222645865,0.1922800819377892,2.0190865096699835e-06,1.7215221888548337e-06,-3.2192023250036525e-05,0.9999999994783166,0.0,0.0,0.0,0.0,0.0,0.0,0.0,0.0,0.0,0.0,0.0,0.0,-1.6740506794606944e-06,7.599704130220987e-07,9.174908789420212e-07,-9.3174582639692e-07,-7.349043117342284e-07,2.381702398752484e-07
159930000000,ground_plane,lar_ufba_room,husky,0.0,0.0,0.0,0.0,0.0,0.0,1.0,0.0,0.0,0.0,0.0,0.0,0.0,1.0,4.649497687382383,2.9996722229844166,0.19228008191534557,2.0190691998309237e-06,1.7214828289128988e-06,-3.219176468036012e-05,0.9999999994783251,0.0,0.0,0.0,0.0,0.0,0.0,0.0,0.0,0.0,0.0,0.0,0.0,-1.6740915827773416e-06,7.599679538287773e-07,9.174912078483512e-07,-9.317486352048817e-07,-7.349027398716509e-07,2.3817297778378502e-07
159940000000,ground_plane,lar_ufba_room,husky,0.0,0.0,0.0,0.0,0.0,0.0,1.0,0.0,0.0,0.0,0.0,0.0,0.0,1.0,4.649497671563447,2.9996722233229702,0.1922800818929033,2.019051891032924e-06,1.7214434712317499e-06,-3.2191506118803826e-05,0.9999999994783335,0.0,0.0,0.0,0.0,0.0,0.0,0.0,0.0,0.0,0.0,0.0,0.0,-1.6741324949751762e-06,7.59965494684815e-07,9.174915369172409e-07,-9.317514410577458e-07,-7.349011608924033e-07,2.381757151314272e-07
159950000000,ground_plane,lar_ufba_room,husky,0.0,0.0,0.0,0.0,0.0,0.0,1.0,0.0,0.0,0.0,0.0,0.0,0.0,1.0,4.649497655744101,2.9996722236615274,0.19228008187046242,2.0190345832457703e-06,1.7214041158291675e-06,-3.219124756525545e-05,0.999999999478342,0.0,0.0,0.0,0.0,0.0,0.0,0.0,0.0,0.0,0.0,0.0,0.0,-1.674173407305306e-06,7.599630365436713e-07,9.174918657237973e-07,-9.317542527861518e-07,-7.348995784710756e-07,2.3817847476339395e-07
159960000000,ground_plane,lar_ufba_room,husky,0.0,0.0,0.0,0.0,0.0,0.0,1.0,0.0,0.0,0.0,0.0,0.0,0.0,1.0,4.649497639924343,2.999672224000088,0.1922800818480229,2.019017276503786e-06,1.7213647626193007e-06,-3.219098901983368e-05,0.9999999994783504,0.0,0.0,0.0,0.0,0.0,0.0,0.0,0.0,0.0,0.0,0.0,0.0,-1.6742143395988546e-06,7.599605729399163e-07,9.174921953453053e-07,-9.317570573441668e-07,-7.348980132419066e-07,2.3818121052185623e-07
159970000000,ground_plane,lar_ufba_room,husky,0.0,0.0,0.0,0.0,0.0,0.0,1.0,0.0,0.0,0.0,0.0,0.0,0.0,1.0,4.649497624104176,2.999672224338651,0.19228008182558484,2.018999970816364e-06,1.7213254117667644e-06,-3.2190730482536014e-05,0.9999999994783588,0.0,0.0,0.0,0.0,0.0,0.0,0.0,0.0,0.0,0.0,0.0,0.0,-1.674255262626579e-06,7.599581066494237e-07,9.174925282793722e-07,-9.317598597319885e-07,-7.34896415201855e-07,2.3818394662334317e-07
159980000000,ground_plane,lar_ufba_room,husky,0.0,0.0,0.0,0.0,0.0,0.0,1.0,0.0,0.0,0.0,0.0,0.0,0.0,1.0,4.649497608283597,2.9996722246772176,0.1922800818031481,2.0189826661522547e-06,1.7212860631293266e-06,-3.2190471953300214e-05,0.9999999994783673,0.0,0.0,0.0,0.0,0.0,0.0,0.0,0.0,0.0,0.0,0.0,0.0,-1.6742962055989034e-06,7.599556457215382e-07,9.174928558110421e-07,-9.317626681307016e-07,-7.348948457046432e-07,2.3818669503901073e-07
159990000000,ground_plane,lar_ufba_room,husky,0.0,0.0,0.0,0.0,0.0,0.0,1.0,0.0,0.0,0.0,0.0,0.0,0.0,1.0,4.649497592462608,2.9996722250157872,0.19228008178071274,2.0189653625243744e-06,1.7212467167297305e-06,-3.219021343220717e-05,0.9999999994783757,0.0,0.0,0.0,0.0,0.0,0.0,0.0,0.0,0.0,0.0,0.0,0.0,-1.6743371381714565e-06,7.599531838283222e-07,9.174931864714614e-07,-9.317654736994168e-07,-7.348932716736274e-07,2.3818942712703684e-07
160000000000,ground_plane,lar_ufba_room,husky,0.0,0.0,0.0,0.0,0.0,0.0,1.0,0.0,0.0,0.0,0.0,0.0,0.0,1.0,4.649497576641207,2.99967222535436,0.19228008175827874,2.018948059922703e-06,1.7212073725817395e-06,-3.218995491922853e-05,0.9999999994783841,0.0,0.0,0.0,0.0,0.0,0.0,0.0,0.0,0.0,0.0,0.0,0.0,-1.6743780804421613e-06,7.599507201767217e-07,9.174935133942142e-07,-9.317682811364049e-07,-7.348916950014773e-07,2.3819216474249847e-07
160010000000,ground_plane,lar_ufba_room,husky,0.0,0.0,0.0,0.0,0.0,0.0,1.0,0.0,0.0,0.0,0.0,0.0,0.0,1.0,4.6494975608193965,2.9996722256929353,0.1922800817358461,2.0189307583045476e-06,1.721168030691529e-06,-3.218969641426553e-05,0.9999999994783926,0.0,0.0,0.0,0.0,0.0,0.0,0.0,0.0,0.0,0.0,0.0,0.0,-1.674419015218499e-06,7.59948258385377e-07,9.174938433814535e-07,-9.31771096698547e-07,-7.348901171763658e-07,2.3819492196923204e-07
160020000000,ground_plane,lar_ufba_room,husky,0.0,0.0,0.0,0.0,0.0,0.0,1.0,0.0,0.0,0.0,0.0,0.0,0.0,1.0,4.649497544997175,2.999672226031514,0.1922800817134149,2.0189134577904205e-06,1.721128691089404e-06,-3.218943791743224e-05,0.999999999478401,0.0,0.0,0.0,0.0,0.0,0.0,0.0,0.0,0.0,0.0,0.0,0.0,-1.6744599695934486e-06,7.599457971312187e-07,9.174941753772565e-07,-9.317738880032908e-07,-7.348885333107381e-07,2.3819765621932758e-07
160030000000,ground_plane,lar_ufba_room,husky,0.0,0.0,0.0,0.0,0.0,0.0,1.0,0.0,0.0,0.0,0.0,0.0,0.0,1.0,4.649497529174543,2.9996722263700955,0.19228008169098507,2.0188961583124464e-06,1.7210893537723866e-06,-3.218917942870456e-05,0.9999999994784095,0.0,0.0,0.0,0.0,0.0,0.0,0.0,0.0,0.0,0.0,0.0,0.0,-1.6745009227808257e-06,7.599433380436738e-07,9.174945048239166e-07,-9.317766926281709e-07,-7.348869501799851e-07,2.3820039517217663e-07
160040000000,ground_plane,lar_ufba_room,husky,0.0,0.0,0.0,0.0,0.0,0.0,1.0,0.0,0.0,0.0,0.0,0.0,0.0,1.0,4.649497513351498,2.9996722267086806,0.19228008166855665,2.018878859839601e-06,1.7210500186524414e-06,-3.218892094812513e-05,0.9999999994784179,0.0,0.0,0.0,0.0,0.0,0.0,0.0,0.0,0.0,0.0,0.0,0.0,-1.6745418763507134e-06,7.599408748523883e-07,9.174948344962126e-07,-9.317795032265564e-07,-7.348853847553417e-07,2.3820312543584825e-07
160050000000,ground_plane,lar_ufba_room,husky,0.0,0.0,0.0,0.0,0.0,0.0,1.0,0.0,0.0,0.0,0.0,0.0,0.0,1.0,4.649497497528044,2.9996722270472684,0.19228008164612964,2.0188615624080644e-06,1.7210106858248445e-06,-3.2188662475554324e-05,0.9999999994784261,0.0,0.0,0.0,0.0,0.0,0.0,0.0,0.0,0.0,0.0,0.0,0.0,-1.6745828433384925e-06,7.599384115130658e-07,9.174951640604795e-07,-9.317823062594679e-07,-7.348838002991475e-07,2.382058834817859e-07
160060000000,ground_plane,lar_ufba_room,husky,0.0,0.0,0.0,0.0,0.0,0.0,1.0,0.0,0.0,0.0,0.0,0.0,0.0,1.0,4.649497481704178,2.9996722273858594,0.19228008162370397,2.0188442659582242e-06,1.7209713552242391e-06,-3.218840401117081e-05,0.9999999994784348,0.0,0.0,0.0,0.0,0.0,0.0,0.0,0.0,0.0,0.0,0.0,0.0,-1.6746238035996691e-06,7.599359526688715e-07,9.174954927346587e-07,-9.317851210720962e-07,-7.348822290225044e-07,2.3820860565495002e-07
160070000000,ground_plane,lar_ufba_room,husky,0.0,0.0,0.0,0.0,0.0,0.0,1.0,0.0,0.0,0.0,0.0,0.0,0.0,1.0,4.6494974658799,2.9996722277244534,0.19228008160127966,2.018826970600645e-06,1.7209320269076272e-06,-3.218814555481398e-05,0.999999999478443,0.0,0.0,0.0,0.0,0.0,0.0,0.0,0.0,0.0,0.0,0.0,0.0,-1.6746647769758888e-06,7.599334907763266e-07,9.174958216535706e-07,-9.317879134517007e-07,-7.348806463995018e-07,2.3821135980543888e-07
160080000000,ground_plane,lar_ufba_room,husky,0.0,0.0,0.0,0.0,0.0,0.0,1.0,0.0,0.0,0.0,0.0,0.0,0.0,1.0,4.649497450055212,2.99967222806305,0.19228008157885676,2.0188096762872932e-06,1.7208927008571284e-06,-3.2187887106603665e-05,0.9999999994784514,0.0,0.0,0.0,0.0,0.0,0.0,0.0,0.0,0.0,0.0,0.0,0.0,-1.674705736055863e-06,7.59931027736429e-07,9.17496150134018e-07,-9.317907152028485e-07,-7.34879067451243e-07,2.382140898423283e-07
160090000000,ground_plane,lar_ufba_room,husky,0.0,0.0,0.0,0.0,0.0,0.0,1.0,0.0,0.0,0.0,0.0,0.0,0.0,1.0,4.649497434230112,2.9996722284016504,0.19228008155643522,2.0187923829332835e-06,1.7208533769839297e-06,-3.218762866642369e-05,0.9999999994784599,0.0,0.0,0.0,0.0,0.0,0.0,0.0,0.0,0.0,0.0,0.0,0.0,-1.6747466986078542e-06,7.599285654102784e-07,9.174964806334761e-07,-9.31793533770177e-07,-7.348775063221073e-07,2.3821684296485208e-07
160100000000,ground_plane,lar_ufba_room,husky,0.0,0.0,0.0,0.0,0.0,0.0,1.0,0.0,0.0,0.0,0.0,0.0,0.0,1.0,4.649497418404601,2.9996722287402533,0.19228008153401505,2.0187750906639376e-06,1.7208140554745523e-06,-3.218737023434828e-05,0.9999999994784683,0.0,0.0,0.0,0.0,0.0,0.0,0.0,0.0,0.0,0.0,0.0,0.0,-1.6747876640839913e-06,7.599261033491525e-07,9.174968081933376e-07,-9.317963268999009e-07,-7.348759079975254e-07,2.3821958109565407e-07
160110000000,ground_plane,lar_ufba_room,husky,0.0,0.0,0.0,0.0,0.0,0.0,1.0,0.0,0.0,0.0,0.0,0.0,0.0,1.0,4.649497402578679,2.9996722290788593,0.19228008151159628,2.018757799444521e-06,1.7207747361679183e-06,-3.218711181031993e-05,0.9999999994784767,0.0,0.0,0.0,0.0,0.0,0.0,0.0,0.0,0.0,0.0,0.0,0.0,-1.674828640344159e-06,7.599236444152972e-07,9.174971382495074e-07,-9.31799126780871e-07,-7.348743419080089e-07,2.3822233059714754e-07
160120000000,ground_plane,lar_ufba_room,husky,0.0,0.0,0.0,0.0,0.0,0.0,1.0,0.0,0.0,0.0,0.0,0.0,0.0,1.0,4.649497386752347,2.999672229417469,0.19228008148917888,2.018740509211064e-06,1.7207354191177655e-06,-3.21868533944281e-05,0.9999999994784852,0.0,0.0,0.0,0.0,0.0,0.0,0.0,0.0,0.0,0.0,0.0,0.0,-1.674869623037112e-06,7.599211835990944e-07,9.174974680726006e-07,-9.318019391997658e-07,-7.348727651776926e-07,2.3822506205518533e-07
160130000000,ground_plane,lar_ufba_room,husky,0.0,0.0,0.0,0.0,0.0,0.0,1.0,0.0,0.0,0.0,0.0,0.0,0.0,1.0,4.649497370925602,2.999672229756081,0.1922800814667629,2.0187232200564753e-06,1.72069610434369e-06,-3.2186594986614786e-05,0.9999999994784936,0.0,0.0,0.0,0.0,0.0,0.0,0.0,0.0,0.0,0.0,0.0,0.0,-1.6749106134549025e-06,7.599187219794123e-07,9.17497797395048e-07,-9.318047327393747e-07,-7.348711846361529e-07,2.3822780496719295e-07
160140000000,ground_plane,lar_ufba_room,husky,0.0,0.0,0.0,0.0,0.0,0.0,1.0,0.0,0.0,0.0,0.0,0.0,0.0,1.0,4.649497355098446,2.9996722300946965,0.19228008144434827,2.018705931910368e-06,1.720656791782784e-06,-3.218633658702179e-05,0.999999999478502,0.0,0.0,0.0,0.0,0.0,0.0,0.0,0.0,0.0,0.0,0.0,0.0,-1.6749516013033116e-06,7.599162667381098e-07,9.174981267213248e-07,-9.31807540186536e-07,-7.348696167468748e-07,2.3823051937772742e-07
160150000000,ground_plane,lar_ufba_room,husky,0.0,0.0,0.0,0.0,0.0,0.0,1.0,0.0,0.0,0.0,0.0,0.0,0.0,1.0,4.649497339270879,2.999672230433315,0.19228008142193503,2.0186886448158356e-06,1.7206174815350788e-06,-3.218607819549716e-05,0.9999999994785105,0.0,0.0,0.0,0.0,0.0,0.0,0.0,0.0,0.0,0.0,0.0,0.0,-1.6749925941088322e-06,7.599138046343047e-07,9.174984533357652e-07,-9.318103387368047e-07,-7.348680288709328e-07,2.382332640307963e-07
160150000000,ground_plane,lar_ufba_room,husky,0.0,0.0,0.0,0.0,0.0,0.0,1.0,0.0,0.0,0.0,0.0,0.0,0.0,1.0,4.649497323442901,2.9996722307719366,0.19228008139952316,2.0186713587452563e-06,1.7205781735156917e-06,-3.2185819812104376e-05,0.9999999994785189,0.0,0.0,0.0,0.0,0.0,0.0,0.0,0.0,0.0,0.0,0.0,0.0,-1.675033595893124e-06,7.599113416731774e-07,9.174987833100469e-07,-9.318131426441714e-07,-7.348664581146971e-07,2.3823599585336e-07
160160000000,ground_plane,lar_ufba_room,husky,0.0,0.0,0.0,0.0,0.0,0.0,1.0,0.0,0.0,0.0,0.0,0.0,0.0,1.0,4.649497307614511,2.9996722311105612,0.19228008137711267,2.0186540736768915e-06,1.720538867755212e-06,-3.2185561436752345e-05,0.9999999994785271,0.0,0.0,0.0,0.0,0.0,0.0,0.0,0.0,0.0,0.0,0.0,0.0,-1.6750745936933358e-06,7.59908879445972e-07,9.17499111651313e-07,-9.318159505136455e-07,-7.348648812841218e-07,2.382387457327936e-07
160180000000,ground_plane,lar_ufba_room,husky,0.0,0.0,0.0,0.0,0.0,0.0,1.0,0.0,0.0,0.0,0.0,0.0,0.0,1.0,4.64949729178571,2.9996722314491886,0.19228008135470354,2.0186367896668233e-06,1.720499564248871e-06,-3.21853030695113e-05,0.9999999994785358,0.0,0.0,0.0,0.0,0.0,0.0,0.0,0.0,0.0,0.0,0.0,0.0,-1.6751156050398896e-06,7.599064185852329e-07,9.174994414452669e-07,-9.318187470109599e-07,-7.348633055050589e-07,2.3824148143466755e-07
160190000000,ground_plane,lar_ufba_room,husky,0.0,0.0,0.0,0.0,0.0,0.0,1.0,0.0,0.0,0.0,0.0,0.0,0.0,1.0,4.649497275956497,2.999672231787819,0.1922800813322958,2.018619506678833e-06,1.7204602629922194e-06,-3.218504471035377e-05,0.999999999478544,0.0,0.0,0.0,0.0,0.0,0.0,0.0,0.0,0.0,0.0,0.0,0.0,-1.6751566021270255e-06,7.599039590554282e-07,9.17499771215972e-07,-9.318215504836711e-07,-7.348617306775056e-07,2.3824422247837452e-07
160200000000,ground_plane,lar_ufba_room,husky,0.0,0.0,0.0,0.0,0.0,0.0,1.0,0.0,0.0,0.0,0.0,0.0,0.0,1.0,4.649497260126872,2.999672232126453,0.1922800813098895,2.018602224715452e-06,1.720420964052938e-06,-3.218478635931354e-05,0.9999999994785524,0.0,0.0,0.0,0.0,0.0,0.0,0.0,0.0,0.0,0.0,0.0,0.0,-1.675197618179792e-06,7.599015005511117e-07,9.175001027221183e-07,-9.318243531681111e-07,-7.348601423573993e-07,2.3824695663440452e-07
160210000000,ground_plane,lar_ufba_room,husky,0.0,0.0,0.0,0.0,0.0,0.0,1.0,0.0,0.0,0.0,0.0,0.0,0.0,1.0,4.649497244296836,2.9996722324650897,0.19228008128748453,2.018584943817919e-06,1.720381667344774e-06,-3.218452801636865e-05,0.9999999994785609,0.0,0.0,0.0,0.0,0.0,0.0,0.0,0.0,0.0,0.0,0.0,0.0,-1.6752386297756102e-06,7.59899036776517e-07,9.17500427989417e-07,-9.318271473660314e-07,-7.348585714137196e-07,2.3824969502507465e-07
160220000000,ground_plane,lar_ufba_room,husky,0.0,0.0,0.0,0.0,0.0,0.0,1.0,0.0,0.0,0.0,0.0,0.0,0.0,1.0,4.649497228466389,2.9996722328037295,0.19228008126508092,2.018567663911634e-06,1.7203423728456275e-06,-3.218426968145968e-05,0.9999999994785693,0.0,0.0,0.0,0.0,0.0,0.0,0.0,0.0,0.0,0.0,0.0,0.0,-1.6752796445961328e-06,7.598965785970599e-07,9.175007573867282e-07,-9.318299562452768e-07,-7.348570049789883e-07,2.3825244516402953e-07
160220000000,ground_plane,lar_ufba_room,husky,0.0,0.0,0.0,0.0,0.0,0.0,1.0,0.0,0.0,0.0,0.0,0.0,0.0,1.0,4.64949721263553,2.999672233142373,0.1922800812426787,2.0185503850438754e-06,1.7203030806270231e-06,-3.2184011354596864e-05,0.9999999994785778,0.0,0.0,0.0,0.0,0.0,0.0,0.0,0.0,0.0,0.0,0.0,0.0,-1.6753206764160741e-06,7.598941195911193e-07,9.175010855151533e-07,-9.31832755441302e-07,-7.348554242746643e-07,2.3825519310555902e-07
160240000000,ground_plane,lar_ufba_room,husky,0.0,0.0,0.0,0.0,0.0,0.0,1.0,0.0,0.0,0.0,0.0,0.0,0.0,1.0,4.649497196804258,2.9996722334810184,0.19228008122027787,2.018533107206711e-06,1.7202637906581626e-06,-3.2183753035797814e-05,0.9999999994785862,0.0,0.0,0.0,0.0,0.0,0.0,0.0,0.0,0.0,0.0,0.0,0.0,-1.6753617063420563e-06,7.598916551352367e-07,9.175014152601944e-07,-9.318355559797524e-07,-7.348538498315537e-07,2.382579373812752e-07
160250000000,ground_plane,lar_ufba_room,husky,0.0,0.0,0.0,0.0,0.0,0.0,1.0,0.0,0.0,0.0,0.0,0.0,0.0,1.0,4.649497180972575,2.9996722338196675,0.19228008119787843,2.0185158303802977e-06,1.7202245029110727e-06,-3.218349472510504e-05,0.9999999994785946,0.0,0.0,0.0,0.0,0.0,0.0,0.0,0.0,0.0,0.0,0.0,0.0,-1.6754027398180087e-06,7.598891950521859e-07,9.175017452562938e-07,-9.318383602246172e-07,-7.348522810482705e-07,2.3826067300720346e-07
160260000000,ground_plane,lar_ufba_room,husky,0.0,0.0,0.0,0.0,0.0,0.0,1.0,0.0,0.0,0.0,0.0,0.0,0.0,1.0,4.64949716514048,2.9996722341583197,0.19228008117548037,2.0184985546413482e-06,1.7201852174324718e-06,-3.2183236422552766e-05,0.9999999994786031,0.0,0.0,0.0,0.0,0.0,0.0,0.0,0.0,0.0,0.0,0.0,0.0,-1.675443771980816e-06,7.59886730850489e-07,9.175020739343643e-07,-9.318411488797402e-07,-7.348507029844436e-07,2.3826340164363892e-07
160270000000,ground_plane,lar_ufba_room,husky,0.0,0.0,0.0,0.0,0.0,0.0,1.0,0.0,0.0,0.0,0.0,0.0,0.0,1.0,4.649497149307974,2.9996722344969746,0.19228008115308365,2.018481279892303e-06,1.7201459342018927e-06,-3.2182978128078944e-05,0.9999999994786115,0.0,0.0,0.0,0.0,0.0,0.0,0.0,0.0,0.0,0.0,0.0,0.0,-1.6754847993834828e-06,7.598842736274916e-07,9.175024024899832e-07,-9.31843956796151e-07,-7.348491291220542e-07,2.382661425525346e-07
160280000000,ground_plane,lar_ufba_room,husky,0.0,0.0,0.0,0.0,0.0,0.0,1.0,0.0,0.0,0.0,0.0,0.0,0.0,1.0,4.649497133475056,2.9996722348356326,0.19228008113068834,2.0184640061862235e-06,1.720106653272679e-06,-3.2182719841655275e-05,0.99999999947862,0.0,0.0,0.0,0.0,0.0,0.0,0.0,0.0,0.0,0.0,0.0,0.0,-1.6755258475014142e-06,7.598818139824517e-07,9.175027296096337e-07,-9.318467538795769e-07,-7.34847544627444e-07,2.3826888896912964e-07
160290000000,ground_plane,lar_ufba_room,husky,0.0,0.0,0.0,0.0,0.0,0.0,1.0,0.0,0.0,0.0,0.0,0.0,0.0,1.0,4.649497117641726,2.9996722351742937,0.19228008110829442,2.018446733516265e-06,1.7200673745544602e-06,-3.218246156340669e-05,0.9999999994786284,0.0,0.0,0.0,0.0,0.0,0.0,0.0,0.0,0.0,0.0,0.0,0.0,-1.6755668988201213e-06,7.598793588953601e-07,9.175030590421442e-07,-9.318495519969764e-07,-7.348459783500399e-07,2.3827161026171028e-07
160300000000,ground_plane,lar_ufba_room,husky,0.0,0.0,0.0,0.0,0.0,0.0,1.0,0.0,0.0,0.0,0.0,0.0,0.0,1.0,4.649497101807984,2.999672235512958,0.19228008108590186,2.018429461883125e-06,1.720028098127088e-06,-3.218220329310025e-05,0.9999999994786366,0.0,0.0,0.0,0.0,0.0,0.0,0.0,0.0,0.0,0.0,0.0,0.0,-1.6756079566303043e-06,7.598768997798181e-07,9.175033889118678e-07,-9.318523497449452e-07,-7.348443961350202e-07,2.3827437798716912e-07
160310000000,ground_plane,lar_ufba_room,husky,0.0,0.0,0.0,0.0,0.0,0.0,1.0,0.0,0.0,0.0,0.0,0.0,0.0,1.0,4.649497085973829,2.9996722358516252,0.19228008106351066,2.018412191281068e-06,1.719988823919831e-06,-3.2181945031012364e-05,0.999999999478645,0.0,0.0,0.0,0.0,0.0,0.0,0.0,0.0,0.0,0.0,0.0,0.0,-1.6756490032763679e-06,7.598744392213876e-07,9.175037170404693e-07,-9.318551484972457e-07,-7.348428281649097e-07,2.3827709029648585e-07
160320000000,ground_plane,lar_ufba_room,husky,0.0,0.0,0.0,0.0,0.0,0.0,1.0,0.0,0.0,0.0,0.0,0.0,0.0,1.0,4.6494970701392635,2.9996722361902957,0.19228008104112085,2.018394921700764e-06,1.7199495519241213e-06,-3.218168677691343e-05,0.9999999994786535,0.0,0.0,0.0,0.0,0.0,0.0,0.0,0.0,0.0,0.0,0.0,0.0,-1.6756900450203592e-06,7.598719818651588e-07,9.175040449698929e-07,-9.318579487687677e-07,-7.348412619440402e-07,2.3827984837538241e-07
160330000000,ground_plane,lar_ufba_room,husky,0.0,0.0,0.0,0.0,0.0,0.0,1.0,0.0,0.0,0.0,0.0,0.0,0.0,1.0,4.649497054304285,2.999672236528969,0.1922800810187324,2.0183776531131434e-06,1.7199102822305455e-06,-3.2181428530881715e-05,0.9999999994786619,0.0,0.0,0.0,0.0,0.0,0.0,0.0,0.0,0.0,0.0,0.0,0.0,-1.6757311137958813e-06,7.598695258506534e-07,9.175043714795139e-07,-9.318607547191299e-07,-7.34839677729154e-07,2.3828259066885844e-07
160340000000,ground_plane,lar_ufba_room,husky,0.0,0.0,0.0,0.0,0.0,0.0,1.0,0.0,0.0,0.0,0.0,0.0,0.0,1.0,4.649497038468895,2.9996722368676454,0.19228008099634533,2.0183603856130954e-06,1.7198710148167252e-06,-3.2181170292949225e-05,0.9999999994786704,0.0,0.0,0.0,0.0,0.0,0.0,0.0,0.0,0.0,0.0,0.0,0.0,-1.6757721813467273e-06,7.59867064004807e-07,9.175047027949666e-07,-9.318635412655184e-07,-7.348380980254119e-07,2.3828532639532503e-07
160350000000,ground_plane,lar_ufba_room,husky,0.0,0.0,0.0,0.0,0.0,0.0,1.0,0.0,0.0,0.0,0.0,0.0,0.0,1.0,4.649497022633093,2.999672237206325,0.19228008097395968,2.0183431191262266e-06,1.719831749617303e-06,-3.218091206311924e-05,0.9999999994786788,0.0,0.0,0.0,0.0,0.0,0.0,0.0,0.0,0.0,0.0,0.0,0.0,-1.675813245375673e-06,7.598646079198566e-07,9.175050329975215e-07,-9.3186634257417e-07,-7.348365314752454e-07,2.382880613238712e-07
160350000000,ground_plane,lar_ufba_room,husky,0.0,0.0,0.0,0.0,0.0,0.0,1.0,0.0,0.0,0.0,0.0,0.0,0.0,1.0,4.649497006796879,2.999672237545008,0.1922800809515754,2.0183258536955723e-06,1.719792486700996e-06,-3.218065384146269e-05,0.9999999994786872,0.0,0.0,0.0,0.0,0.0,0.0,0.0,0.0,0.0,0.0,0.0,0.0,-1.675854314744189e-06,7.598621486974535e-07,9.175053619774073e-07,-9.318691350185307e-07,-7.348349512933884e-07,2.3829078193146506e-07
160370000000,ground_plane,lar_ufba_room,husky,0.0,0.0,0.0,0.0,0.0,0.0,1.0,0.0,0.0,0.0,0.0,0.0,0.0,1.0,4.649496990960252,2.9996722378836935,0.19228008092919252,2.01830858926238e-06,1.7197532260109885e-06,-3.218039562786488e-05,0.9999999994786957,0.0,0.0,0.0,0.0,0.0,0.0,0.0,0.0,0.0,0.0,0.0,0.0,-1.6758954048729362e-06,7.59859688089498e-07,9.175056887523302e-07,-9.318719389466617e-07,-7.348333825228835e-07,2.3829352534029213e-07
160380000000,ground_plane,lar_ufba_room,husky,0.0,0.0,0.0,0.0,0.0,0.0,1.0,0.0,0.0,0.0,0.0,0.0,0.0,1.0,4.6494969751232125,2.999672238222382,0.19228008090681098,2.018291325858189e-06,1.7197139676110586e-06,-3.218013742231571e-05,0.9999999994787039,0.0,0.0,0.0,0.0,0.0,0.0,0.0,0.0,0.0,0.0,0.0,0.0,-1.6759364794238233e-06,7.598572275040985e-07,9.175060166256307e-07,-9.318747363212366e-07,-7.348318010906247e-07,2.3829627061634022e-07
160390000000,ground_plane,lar_ufba_room,husky,0.0,0.0,0.0,0.0,0.0,0.0,1.0,0.0,0.0,0.0,0.0,0.0,0.0,1.0,4.649496959285761,2.999672238561074,0.19228008088443083,2.0182740635044922e-06,1.7196747114562684e-06,-3.2179879224886755e-05,0.9999999994787123,0.0,0.0,0.0,0.0,0.0,0.0,0.0,0.0,0.0,0.0,0.0,0.0,-1.6759775670533414e-06,7.598547653753751e-07,9.175063456104712e-07,-9.318775291288832e-07,-7.34830228699717e-07,2.3829900144242808e-07
160400000000,ground_plane,lar_ufba_room,husky,0.0,0.0,0.0,0.0,0.0,0.0,1.0,0.0,0.0,0.0,0.0,0.0,0.0,1.0,4.649496943447898,2.9996722388997688,0.19228008086205206,2.0182568021856065e-06,1.7196354575275986e-06,-3.2179621035554354e-05,0.9999999994787208,0.0,0.0,0.0,0.0,0.0,0.0,0.0,0.0,0.0,0.0,0.0,0.0,-1.6760186449302556e-06,7.598523069867633e-07,9.175066755353911e-07,-9.31880324868095e-07,-7.348286602493116e-07,2.383017368403844e-07
160410000000,ground_plane,lar_ufba_room,husky,0.0,0.0,0.0,0.0,0.0,0.0,1.0,0.0,0.0,0.0,0.0,0.0,0.0,1.0,4.649496927609621,2.9996722392384667,0.19228008083967466,2.01823954191781e-06,1.7195962059080351e-06,-3.217936285427166e-05,0.9999999994787292,0.0,0.0,0.0,0.0,0.0,0.0,0.0,0.0,0.0,0.0,0.0,0.0,-1.6760597418591816e-06,7.598498496688806e-07,9.17507002609196e-07,-9.318831170140138e-07,-7.34827075210728e-07,2.3830448148165429e-07
160420000000,ground_plane,lar_ufba_room,husky,0.0,0.0,0.0,0.0,0.0,0.0,1.0,0.0,0.0,0.0,0.0,0.0,0.0,1.0,4.649496911770933,2.9996722395771678,0.1922800808172986,2.0182222826523028e-06,1.7195569564819647e-06,-3.217910468102904e-05,0.9999999994787376,0.0,0.0,0.0,0.0,0.0,0.0,0.0,0.0,0.0,0.0,0.0,0.0,-1.6761008270793702e-06,7.59847384474812e-07,9.175073307172381e-07,-9.318859188153175e-07,-7.348255133867259e-07,2.383072278905082e-07
160430000000,ground_plane,lar_ufba_room,husky,0.0,0.0,0.0,0.0,0.0,0.0,1.0,0.0,0.0,0.0,0.0,0.0,0.0,1.0,4.649496895931832,2.9996722399158715,0.192280080794924,2.01820502440113e-06,1.7195177093319621e-06,-3.2178846515885854e-05,0.9999999994787461,0.0,0.0,0.0,0.0,0.0,0.0,0.0,0.0,0.0,0.0,0.0,0.0,-1.6761419239896998e-06,7.598449241741348e-07,9.175076604959565e-07,-9.318887178876061e-07,-7.348239351118805e-07,2.3830996229338886e-07
160440000000,ground_plane,lar_ufba_room,husky,0.0,0.0,0.0,0.0,0.0,0.0,1.0,0.0,0.0,0.0,0.0,0.0,0.0,1.0,4.649496880092319,2.9996722402545783,0.19228008077255077,2.018187767196621e-06,1.7194784644235322e-06,-3.217858835884653e-05,0.9999999994787545,0.0,0.0,0.0,0.0,0.0,0.0,0.0,0.0,0.0,0.0,0.0,0.0,-1.6761830140495332e-06,7.598424658075109e-07,9.175079883033122e-07,-9.318915101925791e-07,-7.348223638155717e-07,2.3831269566317857e-07
