%time,field.name0,field.name1,field.name2,field.pose0.position.x,field.pose0.position.y,field.pose0.position.z,field.pose0.orientation.x,field.pose0.orientation.y,field.pose0.orientation.z,field.pose0.orientation.w,field.pose1.position.x,field.pose1.position.y,field.pose1.position.z,field.pose1.orientation.x,field.pose1.orientation.y,field.pose1.orientation.z,field.pose1.orientation.w,field.pose2.position.x,field.pose2.position.y,field.pose2.position.z,field.pose2.orientation.x,field.pose2.orientation.y,field.pose2.orientation.z,field.pose2.orientation.w,field.twist0.linear.x,field.twist0.linear.y,field.twist0.linear.z,field.twist0.angular.x,field.twist0.angular.y,field.twist0.angular.z,field.twist1.linear.x,field.twist1.linear.y,field.twist1.linear.z,field.twist1.angular.x,field.twist1.angular.y,field.twist1.angular.z,field.twist2.linear.x,field.twist2.linear.y,field.twist2.linear.z,field.twist2.angular.x,field.twist2.angular.y,field.twist2.angular.z
207590000000,ground_plane,lar_ufba_room,husky,0.0,0.0,0.0,0.0,0.0,0.0,1.0,0.0,0.0,0.0,0.0,0.0,0.0,1.0,4.649416990441246,2.9996738680973762,0.19227998922233056,1.947138737412514e-06,1.557332311381048e-06,-3.1043283841770353e-05,0.999999999515049,0.0,0.0,0.0,0.0,0.0,0.0,0.0,0.0,0.0,0.0,0.0,0.0,-1.9074961110008944e-06,7.490194925672125e-07,9.188134509297754e-07,-9.427649861822862e-07,-7.2843737439275e-07,2.5065455577978207e-07
207600000000,ground_plane,lar_ufba_room,husky,0.0,0.0,0.0,0.0,0.0,0.0,1.0,0.0,0.0,0.0,0.0,0.0,0.0,1.0,4.649416972282917,2.9996738684483426,0.19227998920560907,1.9471256468258656e-06,1.5573023712194545e-06,-3.1043058993575345e-05,0.9999999995150561,0.0,0.0,0.0,0.0,0.0,0.0,0.0,0.0,0.0,0.0,0.0,0.0,-1.9075522250015107e-06,7.490173557357992e-07,9.188136801146234e-07,-9.42766862620368e-07,-7.28436225418466e-07,2.5065704854369804e-07
207620000000,ground_plane,lar_ufba_room,husky,0.0,0.0,0.0,0.0,0.0,0.0,1.0,0.0,0.0,0.0,0.0,0.0,0.0,1.0,4.649416954124026,2.999673868799311,0.1922799891888886,1.947112557049205e-06,1.5572724327965056e-06,-3.1042834151432666e-05,0.999999999515063,0.0,0.0,0.0,0.0,0.0,0.0,0.0,0.0,0.0,0.0,0.0,0.0,-1.9076083468201623e-06,7.490152244061599e-07,9.188139115708811e-07,-9.427687224227045e-07,-7.284350649951489e-07,2.50659555830901e-07
207630000000,ground_plane,lar_ufba_room,husky,0.0,0.0,0.0,0.0,0.0,0.0,1.0,0.0,0.0,0.0,0.0,0.0,0.0,1.0,4.649416935964573,2.9996738691502824,0.1922799891721692,1.9470994679703875e-06,1.5572424960915303e-06,-3.1042609315450226e-05,0.9999999995150701,0.0,0.0,0.0,0.0,0.0,0.0,0.0,0.0,0.0,0.0,0.0,0.0,-1.907664471292913e-06,7.490130848528538e-07,9.188141416051955e-07,-9.427706043661559e-07,-7.284339087500201e-07,2.5066204141402265e-07
207640000000,ground_plane,lar_ufba_room,husky,0.0,0.0,0.0,0.0,0.0,0.0,1.0,0.0,0.0,0.0,0.0,0.0,0.0,1.0,4.649416917804558,2.9996738695012555,0.19227998915545078,1.9470863796944842e-06,1.5572125610926053e-06,-3.104238448554176e-05,0.9999999995150772,0.0,0.0,0.0,0.0,0.0,0.0,0.0,0.0,0.0,0.0,0.0,0.0,-1.9077205857330807e-06,7.490109450345839e-07,9.188143703038766e-07,-9.427724651324034e-07,-7.284327549007797e-07,2.506645441238212e-07
207650000000,ground_plane,lar_ufba_room,husky,0.0,0.0,0.0,0.0,0.0,0.0,1.0,0.0,0.0,0.0,0.0,0.0,0.0,1.0,4.649416899643981,2.9996738698522307,0.19227998913873345,1.9470732921486916e-06,1.5571826278079653e-06,-3.104215966173908e-05,0.9999999995150843,0.0,0.0,0.0,0.0,0.0,0.0,0.0,0.0,0.0,0.0,0.0,0.0,-1.907776719124847e-06,7.490088021949518e-07,9.1881460411965e-07,-9.427743403197561e-07,-7.284315995137235e-07,2.506670403301363e-07
207660000000,ground_plane,lar_ufba_room,husky,0.0,0.0,0.0,0.0,0.0,0.0,1.0,0.0,0.0,0.0,0.0,0.0,0.0,1.0,4.649416881482841,2.999673870203208,0.19227998912201713,1.947060205376781e-06,1.557152696251181e-06,-3.104193484414656e-05,0.9999999995150912,0.0,0.0,0.0,0.0,0.0,0.0,0.0,0.0,0.0,0.0,0.0,0.0,-1.9078328439190943e-06,7.490066623876094e-07,9.188148299473474e-07,-9.427762065238971e-07,-7.284304414544255e-07,2.5066951554167254e-07
207670000000,ground_plane,lar_ufba_room,husky,0.0,0.0,0.0,0.0,0.0,0.0,1.0,0.0,0.0,0.0,0.0,0.0,0.0,1.0,4.6494168633211395,2.999673870554188,0.1922799891053018,1.9470471193171716e-06,1.557122766357591e-06,-3.104171003262118e-05,0.9999999995150983,0.0,0.0,0.0,0.0,0.0,0.0,0.0,0.0,0.0,0.0,0.0,0.0,-1.9078889747925467e-06,7.490045240949823e-07,9.188150631981636e-07,-9.427780850094047e-07,-7.284292963521757e-07,2.506720192405425e-07
207680000000,ground_plane,lar_ufba_room,husky,0.0,0.0,0.0,0.0,0.0,0.0,1.0,0.0,0.0,0.0,0.0,0.0,0.0,1.0,4.649416845158877,2.99967387090517,0.19227998908858757,1.947034034030117e-06,1.557092838238876e-06,-3.104148522715161e-05,0.9999999995151054,0.0,0.0,0.0,0.0,0.0,0.0,0.0,0.0,0.0,0.0,0.0,0.0,-1.9079451010241718e-06,7.490023857633117e-07,9.1881529156785e-07,-9.427799511616834e-07,-7.284281289958518e-07,2.506745250664362e-07
207690000000,ground_plane,lar_ufba_room,husky,0.0,0.0,0.0,0.0,0.0,0.0,1.0,0.0,0.0,0.0,0.0,0.0,0.0,1.0,4.649416826996052,2.9996738712561535,0.19227998907187438,1.947020949532362e-06,1.5570629118109967e-06,-3.1041260427810606e-05,0.9999999995151125,0.0,0.0,0.0,0.0,0.0,0.0,0.0,0.0,0.0,0.0,0.0,0.0,-1.908001244665294e-06,7.490002501987674e-07,9.188155246240463e-07,-9.427818138280328e-07,-7.28426978478995e-07,2.5067701621572594e-07
207700000000,ground_plane,lar_ufba_room,husky,0.0,0.0,0.0,0.0,0.0,0.0,1.0,0.0,0.0,0.0,0.0,0.0,0.0,1.0,4.6494168088326635,2.99967387160714,0.1922799890551622,1.94700786573752e-06,1.5570329870916113e-06,-3.1041035634602e-05,0.9999999995151194,0.0,0.0,0.0,0.0,0.0,0.0,0.0,0.0,0.0,0.0,0.0,0.0,-1.9080573958562306e-06,7.489981135983576e-07,9.188157542463498e-07,-9.427836935447638e-07,-7.284258245309874e-07,2.506795064802916e-07
207710000000,ground_plane,lar_ufba_room,husky,0.0,0.0,0.0,0.0,0.0,0.0,1.0,0.0,0.0,0.0,0.0,0.0,0.0,1.0,4.649416790668714,2.999673871958128,0.192279989038451,1.9469947827114053e-06,1.5570030641004689e-06,-3.104081084750868e-05,0.9999999995151266,0.0,0.0,0.0,0.0,0.0,0.0,0.0,0.0,0.0,0.0,0.0,0.0,-1.908113529023166e-06,7.489959729420687e-07,9.188159813774316e-07,-9.427855600035661e-07,-7.284246666362724e-07,2.5068200002357305e-07
207720000000,ground_plane,lar_ufba_room,husky,0.0,0.0,0.0,0.0,0.0,0.0,1.0,0.0,0.0,0.0,0.0,0.0,0.0,1.0,4.6494167725042015,2.9996738723091183,0.19227998902174087,1.946981700445747e-06,1.5569731428232308e-06,-3.104058606658363e-05,0.9999999995151336,0.0,0.0,0.0,0.0,0.0,0.0,0.0,0.0,0.0,0.0,0.0,0.0,-1.908169672693207e-06,7.489938419408996e-07,9.188162127172609e-07,-9.427874279519576e-07,-7.284235116561718e-07,2.5068448285277755e-07
207730000000,ground_plane,lar_ufba_room,husky,0.0,0.0,0.0,0.0,0.0,0.0,1.0,0.0,0.0,0.0,0.0,0.0,0.0,1.0,4.649416754339128,2.999673872660111,0.19227998900503177,1.9469686189568686e-06,1.5569432233055539e-06,-3.104036129180314e-05,0.9999999995151406,0.0,0.0,0.0,0.0,0.0,0.0,0.0,0.0,0.0,0.0,0.0,0.0,-1.9082258142027586e-06,7.489917100026016e-07,9.188164438853219e-07,-9.427892923609797e-07,-7.284223476715307e-07,2.506869703039878e-07
207740000000,ground_plane,lar_ufba_room,husky,0.0,0.0,0.0,0.0,0.0,0.0,1.0,0.0,0.0,0.0,0.0,0.0,0.0,1.0,4.649416736173491,2.999673873011106,0.19227998898832369,1.9469555381968933e-06,1.55691330544931e-06,-3.104013652301373e-05,0.9999999995151478,0.0,0.0,0.0,0.0,0.0,0.0,0.0,0.0,0.0,0.0,0.0,0.0,-1.908281958799413e-06,7.489895725090159e-07,9.188166745133083e-07,-9.427911662363693e-07,-7.284212033017704e-07,2.5068948831736225e-07
207750000000,ground_plane,lar_ufba_room,husky,0.0,0.0,0.0,0.0,0.0,0.0,1.0,0.0,0.0,0.0,0.0,0.0,0.0,1.0,4.649416718007293,2.9996738733621036,0.1922799889716167,1.9469424581822493e-06,1.5568833893192116e-06,-3.103991176041769e-05,0.9999999995151548,0.0,0.0,0.0,0.0,0.0,0.0,0.0,0.0,0.0,0.0,0.0,0.0,-1.9083380991046812e-06,7.48987433415479e-07,9.188169042761777e-07,-9.427930366322259e-07,-7.284200460814337e-07,2.506919657362572e-07
207760000000,ground_plane,lar_ufba_room,husky,0.0,0.0,0.0,0.0,0.0,0.0,1.0,0.0,0.0,0.0,0.0,0.0,0.0,1.0,4.649416699840532,2.9996738737131023,0.19227998895491077,1.9469293789302717e-06,1.5568534748947813e-06,-3.103968700397018e-05,0.9999999995151618,0.0,0.0,0.0,0.0,0.0,0.0,0.0,0.0,0.0,0.0,0.0,0.0,-1.9083942719841586e-06,7.489852935035691e-07,9.188171369271264e-07,-9.427949033954982e-07,-7.284188930343083e-07,2.506944520105868e-07
207770000000,ground_plane,lar_ufba_room,husky,0.0,0.0,0.0,0.0,0.0,0.0,1.0,0.0,0.0,0.0,0.0,0.0,0.0,1.0,4.649416681673208,2.999673874064104,0.1922799889382058,1.9469163004504023e-06,1.5568235622073615e-06,-3.1039462253565854e-05,0.9999999995151688,0.0,0.0,0.0,0.0,0.0,0.0,0.0,0.0,0.0,0.0,0.0,0.0,-1.9084504299918757e-06,7.489831596245249e-07,9.188173633864048e-07,-9.427967681309205e-07,-7.284177337005574e-07,2.5069695921754895e-07
207780000000,ground_plane,lar_ufba_room,husky,0.0,0.0,0.0,0.0,0.0,0.0,1.0,0.0,0.0,0.0,0.0,0.0,0.0,1.0,4.649416663505322,2.999673874415108,0.19227998892150186,1.9469032226855266e-06,1.5567936511911584e-06,-3.103923750929314e-05,0.999999999515176,0.0,0.0,0.0,0.0,0.0,0.0,0.0,0.0,0.0,0.0,0.0,0.0,-1.9085065845745697e-06,7.489810255113829e-07,9.188175933105208e-07,-9.427986441766134e-07,-7.284165876373288e-07,2.506994486142088e-07
207790000000,ground_plane,lar_ufba_room,husky,0.0,0.0,0.0,0.0,0.0,0.0,1.0,0.0,0.0,0.0,0.0,0.0,0.0,1.0,4.649416645336874,2.999673874766114,0.19227998890479897,1.946890145707031e-06,1.5567637419475516e-06,-3.103901277114944e-05,0.999999999515183,0.0,0.0,0.0,0.0,0.0,0.0,0.0,0.0,0.0,0.0,0.0,0.0,-1.9085627374196354e-06,7.489788889275387e-07,9.188178255796424e-07,-9.428005055961371e-07,-7.284154213718659e-07,2.50701938398678e-07
207800000000,ground_plane,lar_ufba_room,husky,0.0,0.0,0.0,0.0,0.0,0.0,1.0,0.0,0.0,0.0,0.0,0.0,0.0,1.0,4.649416627167864,2.999673875117122,0.1922799888880971,1.946877069442884e-06,1.5567338343829406e-06,-3.1038788039065314e-05,0.99999999951519,0.0,0.0,0.0,0.0,0.0,0.0,0.0,0.0,0.0,0.0,0.0,0.0,-1.9086189015321176e-06,7.489767478247092e-07,9.188180539175206e-07,-9.428023813550763e-07,-7.284142738087538e-07,2.507044419531485e-07
207810000000,ground_plane,lar_ufba_room,husky,0.0,0.0,0.0,0.0,0.0,0.0,1.0,0.0,0.0,0.0,0.0,0.0,0.0,1.0,4.649416608998291,2.9996738754681322,0.19227998887139627,1.9468639939348445e-06,1.5567039285302826e-06,-3.1038563313101416e-05,0.999999999515197,0.0,0.0,0.0,0.0,0.0,0.0,0.0,0.0,0.0,0.0,0.0,0.0,-1.908675074860361e-06,7.489746116506693e-07,9.188182870639869e-07,-9.428042485926674e-07,-7.284131197729854e-07,2.5070693323618946e-07
207820000000,ground_plane,lar_ufba_room,husky,0.0,0.0,0.0,0.0,0.0,0.0,1.0,0.0,0.0,0.0,0.0,0.0,0.0,1.0,4.649416590828157,2.999673875819145,0.1922799888546965,1.9468509192163173e-06,1.5566740244066117e-06,-3.103833859335541e-05,0.999999999515204,0.0,0.0,0.0,0.0,0.0,0.0,0.0,0.0,0.0,0.0,0.0,0.0,-1.908731242510023e-06,7.489724709757177e-07,9.188185139808357e-07,-9.428061089489628e-07,-7.284119623398465e-07,2.5070940487307657e-07
207830000000,ground_plane,lar_ufba_room,husky,0.0,0.0,0.0,0.0,0.0,0.0,1.0,0.0,0.0,0.0,0.0,0.0,0.0,1.0,4.649416572657458,2.999673876170159,0.1922799888379978,1.9468378452619887e-06,1.5566441219988296e-06,-3.103811387978307e-05,0.9999999995152112,0.0,0.0,0.0,0.0,0.0,0.0,0.0,0.0,0.0,0.0,0.0,0.0,-1.9087874225860136e-06,7.489703327733724e-07,9.188187466807537e-07,-9.428079742482873e-07,-7.284108076198112e-07,2.507118852266257e-07
207840000000,ground_plane,lar_ufba_room,husky,0.0,0.0,0.0,0.0,0.0,0.0,1.0,0.0,0.0,0.0,0.0,0.0,0.0,1.0,4.649416554486198,2.999673876521176,0.19227998882130007,1.946824772048365e-06,1.5566142212993119e-06,-3.103788917225476e-05,0.9999999995152182,0.0,0.0,0.0,0.0,0.0,0.0,0.0,0.0,0.0,0.0,0.0,0.0,-1.908843601750599e-06,7.489681986088185e-07,9.188189731646848e-07,-9.428098440690426e-07,-7.28409654458219e-07,2.5071439137611274e-07
207850000000,ground_plane,lar_ufba_room,husky,0.0,0.0,0.0,0.0,0.0,0.0,1.0,0.0,0.0,0.0,0.0,0.0,0.0,1.0,4.649416536314376,2.999673876872195,0.1922799888046034,1.9468116995322356e-06,1.556584322316925e-06,-3.103766447094063e-05,0.9999999995152252,0.0,0.0,0.0,0.0,0.0,0.0,0.0,0.0,0.0,0.0,0.0,0.0,-1.908899777108175e-06,7.489660640572235e-07,9.188192056010693e-07,-9.428117222357355e-07,-7.284084995675127e-07,2.507168633687997e-07
207860000000,ground_plane,lar_ufba_room,husky,0.0,0.0,0.0,0.0,0.0,0.0,1.0,0.0,0.0,0.0,0.0,0.0,0.0,1.0,4.649416518141989,2.9996738772232163,0.19227998878790778,1.9467986278202603e-06,1.5565544250804677e-06,-3.103743977563812e-05,0.9999999995152322,0.0,0.0,0.0,0.0,0.0,0.0,0.0,0.0,0.0,0.0,0.0,0.0,-1.9089559686517163e-06,7.489639296223077e-07,9.188194343741018e-07,-9.428135790480371e-07,-7.284073389877453e-07,2.507193757425035e-07
207870000000,ground_plane,lar_ufba_room,husky,0.0,0.0,0.0,0.0,0.0,0.0,1.0,0.0,0.0,0.0,0.0,0.0,0.0,1.0,4.649416499969042,2.9996738775742395,0.19227998877121316,1.9467855568285785e-06,1.5565245295050919e-06,-3.103721508644484e-05,0.9999999995152394,0.0,0.0,0.0,0.0,0.0,0.0,0.0,0.0,0.0,0.0,0.0,0.0,-1.909012145565304e-06,7.489617904178696e-07,9.188196627095722e-07,-9.428154524421627e-07,-7.284061954746343e-07,2.507218684792658e-07
207880000000,ground_plane,lar_ufba_room,husky,0.0,0.0,0.0,0.0,0.0,0.0,1.0,0.0,0.0,0.0,0.0,0.0,0.0,1.0,4.649416481795531,2.999673877925265,0.19227998875451957,1.9467724866549696e-06,1.5564946356848166e-06,-3.1036990403323575e-05,0.9999999995152464,0.0,0.0,0.0,0.0,0.0,0.0,0.0,0.0,0.0,0.0,0.0,0.0,-1.9090683313634433e-06,7.489596572539885e-07,9.188198952220456e-07,-9.42817306020602e-07,-7.284050331615849e-07,2.507243685156707e-07
207890000000,ground_plane,lar_ufba_room,husky,0.0,0.0,0.0,0.0,0.0,0.0,1.0,0.0,0.0,0.0,0.0,0.0,0.0,1.0,4.649416463621458,2.999673878276293,0.19227998873782698,1.9467594171500153e-06,1.5564647435692637e-06,-3.103676572640373e-05,0.9999999995152534,0.0,0.0,0.0,0.0,0.0,0.0,0.0,0.0,0.0,0.0,0.0,0.0,-1.909124528384383e-06,7.489575208554263e-07,9.188201214691435e-07,-9.428191893978645e-07,-7.284038809884251e-07,2.507268425589788e-07
207890000000,ground_plane,lar_ufba_room,husky,0.0,0.0,0.0,0.0,0.0,0.0,1.0,0.0,0.0,0.0,0.0,0.0,0.0,1.0,4.649416445446822,2.999673878627323,0.19227998872113547,1.946746348452911e-06,1.5564348531538412e-06,-3.103654105566278e-05,0.9999999995152604,0.0,0.0,0.0,0.0,0.0,0.0,0.0,0.0,0.0,0.0,0.0,0.0,-1.9091807161805898e-06,7.489553833677419e-07,9.188203568161338e-07,-9.428210446906875e-07,-7.284027297681921e-07,2.507293209684947e-07
207910000000,ground_plane,lar_ufba_room,husky,0.0,0.0,0.0,0.0,0.0,0.0,1.0,0.0,0.0,0.0,0.0,0.0,0.0,1.0,4.649416427271623,2.999673878978355,0.19227998870444496,1.946733280491918e-06,1.5564049644690873e-06,-3.103631639099876e-05,0.9999999995152676,0.0,0.0,0.0,0.0,0.0,0.0,0.0,0.0,0.0,0.0,0.0,0.0,-1.909236915431905e-06,7.489532453053938e-07,9.188205833489978e-07,-9.428229141993805e-07,-7.284015725246483e-07,2.5073181966991487e-07
207920000000,ground_plane,lar_ufba_room,husky,0.0,0.0,0.0,0.0,0.0,0.0,1.0,0.0,0.0,0.0,0.0,0.0,0.0,1.0,4.649416409095862,2.9996738793293893,0.19227998868775553,1.9467202132611943e-06,1.5563750774879335e-06,-3.1036091732490154e-05,0.9999999995152746,0.0,0.0,0.0,0.0,0.0,0.0,0.0,0.0,0.0,0.0,0.0,0.0,-1.909293105228362e-06,7.489511097429831e-07,9.188208152395216e-07,-9.428247847255488e-07,-7.284004207599665e-07,2.5073430251490165e-07
207930000000,ground_plane,lar_ufba_room,husky,0.0,0.0,0.0,0.0,0.0,0.0,1.0,0.0,0.0,0.0,0.0,0.0,0.0,1.0,4.649416390919537,2.999673879680426,0.1922799886710671,1.9467071468219936e-06,1.5563451922036323e-06,-3.103586708001951e-05,0.9999999995152816,0.0,0.0,0.0,0.0,0.0,0.0,0.0,0.0,0.0,0.0,0.0,0.0,-1.909349311244476e-06,7.489489738437854e-07,9.188210428627399e-07,-9.428266428019086e-07,-7.283992703649185e-07,2.5073680873183985e-07
207940000000,ground_plane,lar_ufba_room,husky,0.0,0.0,0.0,0.0,0.0,0.0,1.0,0.0,0.0,0.0,0.0,0.0,0.0,1.0,4.6494163727426505,2.9996738800314646,0.19227998865437973,1.9466940810807535e-06,1.55631530864354e-06,-3.103564243367009e-05,0.9999999995152886,0.0,0.0,0.0,0.0,0.0,0.0,0.0,0.0,0.0,0.0,0.0,0.0,-1.909405508161909e-06,7.489468368528687e-07,9.188212750598867e-07,-9.428285194090102e-07,-7.28398114581709e-07,2.5073929816704133e-07
207940000000,ground_plane,lar_ufba_room,husky,0.0,0.0,0.0,0.0,0.0,0.0,1.0,0.0,0.0,0.0,0.0,0.0,0.0,1.0,4.649416354565201,2.999673880382505,0.1922799886376934,1.9466810161529895e-06,1.5562854267975172e-06,-3.103541779339919e-05,0.9999999995152956,0.0,0.0,0.0,0.0,0.0,0.0,0.0,0.0,0.0,0.0,0.0,0.0,-1.909461716988335e-06,7.489447043304351e-07,9.188215035297598e-07,-9.428303726995223e-07,-7.283969608752705e-07,2.5074179603188167e-07
207950000000,ground_plane,lar_ufba_room,husky,0.0,0.0,0.0,0.0,0.0,0.0,1.0,0.0,0.0,0.0,0.0,0.0,0.0,1.0,4.649416336387188,2.9996738807335483,0.1922799886210081,1.9466679519208004e-06,1.5562555466824063e-06,-3.1035193159227826e-05,0.9999999995153028,0.0,0.0,0.0,0.0,0.0,0.0,0.0,0.0,0.0,0.0,0.0,0.0,-1.9095179242904547e-06,7.48942569739397e-07,9.188217304277231e-07,-9.428322494986928e-07,-7.283958038417662e-07,2.5074428955420876e-07
207970000000,ground_plane,lar_ufba_room,husky,0.0,0.0,0.0,0.0,0.0,0.0,1.0,0.0,0.0,0.0,0.0,0.0,0.0,1.0,4.649416318208613,2.9996738810845938,0.1922799886043238,1.946654888512796e-06,1.5562256682637004e-06,-3.1034968531250854e-05,0.9999999995153098,0.0,0.0,0.0,0.0,0.0,0.0,0.0,0.0,0.0,0.0,0.0,0.0,-1.9095741248685286e-06,7.489404346970635e-07,9.188219636652897e-07,-9.428341003270759e-07,-7.28394653755222e-07,2.5074676396638487e-07
207970000000,ground_plane,lar_ufba_room,husky,0.0,0.0,0.0,0.0,0.0,0.0,1.0,0.0,0.0,0.0,0.0,0.0,0.0,1.0,4.649416300029474,2.999673881435641,0.19227998858764053,1.9466418258210317e-06,1.5561957915426225e-06,-3.10347439093347e-05,0.9999999995153168,0.0,0.0,0.0,0.0,0.0,0.0,0.0,0.0,0.0,0.0,0.0,0.0,-1.909630338309617e-06,7.489382983059291e-07,9.188221921824983e-07,-9.428359726479566e-07,-7.283935034991602e-07,2.5074926498433807e-07
207990000000,ground_plane,lar_ufba_room,husky,0.0,0.0,0.0,0.0,0.0,0.0,1.0,0.0,0.0,0.0,0.0,0.0,0.0,1.0,4.649416281849772,2.9996738817866904,0.1922799885709583,1.946628763848772e-06,1.5561659165317578e-06,-3.103451929350988e-05,0.9999999995153238,0.0,0.0,0.0,0.0,0.0,0.0,0.0,0.0,0.0,0.0,0.0,0.0,-1.9096865534370215e-06,7.489361662703376e-07,9.188224222203959e-07,-9.428378440543524e-07,-7.283923507814591e-07,2.50751759767465e-07
208000000000,ground_plane,lar_ufba_room,husky,0.0,0.0,0.0,0.0,0.0,0.0,1.0,0.0,0.0,0.0,0.0,0.0,0.0,1.0,4.649416263669509,2.9996738821377424,0.19227998855427708,1.9466157026623977e-06,1.5561360432883595e-06,-3.103429468373837e-05,0.999999999515331,0.0,0.0,0.0,0.0,0.0,0.0,0.0,0.0,0.0,0.0,0.0,0.0,-1.9097427654242823e-06,7.489340326616976e-07,9.188226525968355e-07,-9.428397021211034e-07,-7.283911866801614e-07,2.5075426203017575e-07
208010000000,ground_plane,lar_ufba_room,husky,0.0,0.0,0.0,0.0,0.0,0.0,1.0,0.0,0.0,0.0,0.0,0.0,0.0,1.0,4.649416245488681,2.9996738824887967,0.19227998853759692,1.946602642200599e-06,1.5561061716985337e-06,-3.103407008010368e-05,0.9999999995153378,0.0,0.0,0.0,0.0,0.0,0.0,0.0,0.0,0.0,0.0,0.0,0.0,-1.9097989836539075e-06,7.489318940524402e-07,9.188228803712237e-07,-9.428415722066865e-07,-7.283900453937663e-07,2.507567474562484e-07
208020000000,ground_plane,lar_ufba_room,husky,0.0,0.0,0.0,0.0,0.0,0.0,1.0,0.0,0.0,0.0,0.0,0.0,0.0,1.0,4.649416227307292,2.999673882839853,0.19227998852091777,1.9465895825526287e-06,1.5560763018447482e-06,-3.103384548268844e-05,0.999999999515345,0.0,0.0,0.0,0.0,0.0,0.0,0.0,0.0,0.0,0.0,0.0,0.0,-1.9098552059610814e-06,7.489297564974841e-07,9.188231119973378e-07,-9.428434242317233e-07,-7.283888876582073e-07,2.507592162365268e-07
208030000000,ground_plane,lar_ufba_room,husky,0.0,0.0,0.0,0.0,0.0,0.0,1.0,0.0,0.0,0.0,0.0,0.0,0.0,1.0,4.649416209125338,2.999673883190911,0.19227998850423972,1.94657652358941e-06,1.5560464336875667e-06,-3.103362089131138e-05,0.999999999515352,0.0,0.0,0.0,0.0,0.0,0.0,0.0,0.0,0.0,0.0,0.0,0.0,-1.9099114315291777e-06,7.489276241790234e-07,9.188233420793294e-07,-9.428453019629866e-07,-7.283877379066469e-07,2.507617211347569e-07
208040000000,ground_plane,lar_ufba_room,husky,0.0,0.0,0.0,0.0,0.0,0.0,1.0,0.0,0.0,0.0,0.0,0.0,0.0,1.0,4.649416190942822,2.9996738835419716,0.19227998848756267,1.9465634654268716e-06,1.5560165672966981e-06,-3.103339630611052e-05,0.999999999515359,0.0,0.0,0.0,0.0,0.0,0.0,0.0,0.0,0.0,0.0,0.0,0.0,-1.9099676485868684e-06,7.48925488858371e-07,9.188235721513859e-07,-9.42847156334672e-07,-7.283865742277496e-07,2.507641983078967e-07
208050000000,ground_plane,lar_ufba_room,husky,0.0,0.0,0.0,0.0,0.0,0.0,1.0,0.0,0.0,0.0,0.0,0.0,0.0,1.0,4.649416172759744,2.9996738838930344,0.19227998847088665,1.946550407997334e-06,1.5559867025648192e-06,-3.103317172701276e-05,0.9999999995153662,0.0,0.0,0.0,0.0,0.0,0.0,0.0,0.0,0.0,0.0,0.0,0.0,-1.9100238879715466e-06,7.489233521260972e-07,9.188237999853687e-07,-9.42849024031179e-07,-7.283854321044082e-07,2.5076668997961067e-07
208060000000,ground_plane,lar_ufba_room,husky,0.0,0.0,0.0,0.0,0.0,0.0,1.0,0.0,0.0,0.0,0.0,0.0,0.0,1.0,4.649416154576102,2.9996738842440993,0.19227998845421163,1.9465373513056556e-06,1.5559568395755704e-06,-3.1032947154094545e-05,0.9999999995153732,0.0,0.0,0.0,0.0,0.0,0.0,0.0,0.0,0.0,0.0,0.0,0.0,-1.9100801253708263e-06,7.489212131721024e-07,9.188240291320521e-07,-9.428508906076417e-07,-7.283842733075187e-07,2.5076916622647687e-07
208070000000,ground_plane,lar_ufba_room,husky,0.0,0.0,0.0,0.0,0.0,0.0,1.0,0.0,0.0,0.0,0.0,0.0,0.0,1.0,4.649416136391896,2.9996738845951665,0.19227998843753766,1.94652429538456e-06,1.5559269783010264e-06,-3.103272258722167e-05,0.9999999995153802,0.0,0.0,0.0,0.0,0.0,0.0,0.0,0.0,0.0,0.0,0.0,0.0,-1.9101363602832287e-06,7.489190814032172e-07,9.188242618507753e-07,-9.428527504938264e-07,-7.283831200870443e-07,2.507716691860563e-07
208070000000,ground_plane,lar_ufba_room,husky,0.0,0.0,0.0,0.0,0.0,0.0,1.0,0.0,0.0,0.0,0.0,0.0,0.0,1.0,4.649416118207128,2.999673884946236,0.19227998842086472,1.9465112401518637e-06,1.5558971187116169e-06,-3.1032498026331374e-05,0.9999999995153872,0.0,0.0,0.0,0.0,0.0,0.0,0.0,0.0,0.0,0.0,0.0,0.0,-1.9101926045879326e-06,7.489169467440873e-07,9.188244887315526e-07,-9.428546266179528e-07,-7.283819728928046e-07,2.507741845884679e-07
208090000000,ground_plane,lar_ufba_room,husky,0.0,0.0,0.0,0.0,0.0,0.0,1.0,0.0,0.0,0.0,0.0,0.0,0.0,1.0,4.649416100021797,2.999673885297307,0.1922799884041928,1.946498185751794e-06,1.555867260829043e-06,-3.103227347161547e-05,0.9999999995153942,0.0,0.0,0.0,0.0,0.0,0.0,0.0,0.0,0.0,0.0,0.0,0.0,-1.9102488541661315e-06,7.48914812495132e-07,9.188247184483265e-07,-9.428564737158971e-07,-7.283808213824748e-07,2.5077666148445524e-07
208090000000,ground_plane,lar_ufba_room,husky,0.0,0.0,0.0,0.0,0.0,0.0,1.0,0.0,0.0,0.0,0.0,0.0,0.0,1.0,4.649416081835902,2.999673885648381,0.19227998838752197,1.946485132059325e-06,1.5558374046945936e-06,-3.1032048922959234e-05,0.9999999995154014,0.0,0.0,0.0,0.0,0.0,0.0,0.0,0.0,0.0,0.0,0.0,0.0,-1.9103050976490597e-06,7.489126813824397e-07,9.188249492631079e-07,-9.428583457287094e-07,-7.283796617236587e-07,2.5077916119821863e-07
208110000000,ground_plane,lar_ufba_room,husky,0.0,0.0,0.0,0.0,0.0,0.0,1.0,0.0,0.0,0.0,0.0,0.0,0.0,1.0,4.6494160636494435,2.9996738859994565,0.1922799883708521,1.9464720791437326e-06,1.5558075502664855e-06,-3.1031824380371924e-05,0.9999999995154084,0.0,0.0,0.0,0.0,0.0,0.0,0.0,0.0,0.0,0.0,0.0,0.0,-1.9103613455813084e-06,7.489105492505026e-07,9.188251773990754e-07,-9.428602035580044e-07,-7.283785103946961e-07,2.5078165894341286e-07
208110000000,ground_plane,lar_ufba_room,husky,0.0,0.0,0.0,0.0,0.0,0.0,1.0,0.0,0.0,0.0,0.0,0.0,0.0,1.0,4.649416045462422,2.999673886350535,0.19227998835418328,1.9464590269563978e-06,1.5557776975124567e-06,-3.1031599843880054e-05,0.9999999995154154,0.0,0.0,0.0,0.0,0.0,0.0,0.0,0.0,0.0,0.0,0.0,0.0,-1.910417603837027e-06,7.489084125992356e-07,9.188254078341241e-07,-9.428620710368312e-07,-7.283773656523673e-07,2.5078415124494424e-07
208130000000,ground_plane,lar_ufba_room,husky,0.0,0.0,0.0,0.0,0.0,0.0,1.0,0.0,0.0,0.0,0.0,0.0,0.0,1.0,4.649416027274837,2.999673886701615,0.19227998833751547,1.9464459755446207e-06,1.5557478464707533e-06,-3.1031375313590083e-05,0.9999999995154224,0.0,0.0,0.0,0.0,0.0,0.0,0.0,0.0,0.0,0.0,0.0,0.0,-1.910473844178765e-06,7.489062715610181e-07,9.188256359425444e-07,-9.42863928882687e-07,-7.283762132762806e-07,2.507866221290759e-07
208140000000,ground_plane,lar_ufba_room,husky,0.0,0.0,0.0,0.0,0.0,0.0,1.0,0.0,0.0,0.0,0.0,0.0,0.0,1.0,4.649416009086688,2.999673887052697,0.19227998832084872,1.946432924863372e-06,1.5557179971431597e-06,-3.103115078947081e-05,0.9999999995154294,0.0,0.0,0.0,0.0,0.0,0.0,0.0,0.0,0.0,0.0,0.0,0.0,-1.9105300913532307e-06,7.489041391270019e-07,9.188258684907739e-07,-9.42865795527958e-07,-7.283750606081752e-07,2.507890991330497e-07
208150000000,ground_plane,lar_ufba_room,husky,0.0,0.0,0.0,0.0,0.0,0.0,1.0,0.0,0.0,0.0,0.0,0.0,0.0,1.0,4.649415990897977,2.999673887403782,0.19227998830418302,1.946419874917836e-06,1.555688149569551e-06,-3.103092627144988e-05,0.9999999995154366,0.0,0.0,0.0,0.0,0.0,0.0,0.0,0.0,0.0,0.0,0.0,0.0,-1.9105863399497434e-06,7.489020050921441e-07,9.188260974347769e-07,-9.428676610674383e-07,-7.28373900012849e-07,2.507915904836687e-07
208160000000,ground_plane,lar_ufba_room,husky,0.0,0.0,0.0,0.0,0.0,0.0,1.0,0.0,0.0,0.0,0.0,0.0,0.0,1.0,4.649415972708702,2.9996738877548688,0.19227998828751836,1.9464068257898817e-06,1.5556583036819653e-06,-3.103070175947984e-05,0.9999999995154436,0.0,0.0,0.0,0.0,0.0,0.0,0.0,0.0,0.0,0.0,0.0,0.0,-1.9106425942866026e-06,7.488998713104016e-07,9.188263254802876e-07,-9.428695098697261e-07,-7.283727530417722e-07,2.5079409119591015e-07
208170000000,ground_plane,lar_ufba_room,husky,0.0,0.0,0.0,0.0,0.0,0.0,1.0,0.0,0.0,0.0,0.0,0.0,0.0,1.0,4.649415954518865,2.9996738881059577,0.19227998827085468,1.9463937773384755e-06,1.5556284594995487e-06,-3.103047725369345e-05,0.9999999995154506,0.0,0.0,0.0,0.0,0.0,0.0,0.0,0.0,0.0,0.0,0.0,0.0,-1.91069885802127e-06,7.488977314358544e-07,9.18826556505872e-07,-9.428713869209542e-07,-7.283716023450956e-07,2.5079656522495737e-07
208180000000,ground_plane,lar_ufba_room,husky,0.0,0.0,0.0,0.0,0.0,0.0,1.0,0.0,0.0,0.0,0.0,0.0,0.0,1.0,4.649415936328463,2.999673888457049,0.19227998825419207,1.9463807297060413e-06,1.5555986170536893e-06,-3.103025275391174e-05,0.9999999995154576,0.0,0.0,0.0,0.0,0.0,0.0,0.0,0.0,0.0,0.0,0.0,0.0,-1.9107551319858828e-06,7.488955986474292e-07,9.188267839797281e-07,-9.428732351754896e-07,-7.283704453848065e-07,2.507990749293181e-07
208180000000,ground_plane,lar_ufba_room,husky,0.0,0.0,0.0,0.0,0.0,0.0,1.0,0.0,0.0,0.0,0.0,0.0,0.0,1.0,4.649415918137498,2.9996738888081422,0.1922799882375305,1.94636768276806e-06,1.5555687763116446e-06,-3.103002826025301e-05,0.9999999995154646,0.0,0.0,0.0,0.0,0.0,0.0,0.0,0.0,0.0,0.0,0.0,0.0,-1.910811392652648e-06,7.488934629916827e-07,9.188270144128355e-07,-9.428751082125673e-07,-7.283692950529608e-07,2.508015608339545e-07
208200000000,ground_plane,lar_ufba_room,husky,0.0,0.0,0.0,0.0,0.0,0.0,1.0,0.0,0.0,0.0,0.0,0.0,0.0,1.0,4.6494158999459705,2.999673889159238,0.19227998822086995,1.9463546366250814e-06,1.5555389372761525e-06,-3.1029803772640876e-05,0.9999999995154718,0.0,0.0,0.0,0.0,0.0,0.0,0.0,0.0,0.0,0.0,0.0,0.0,-1.9108676608981003e-06,7.48891329515347e-07,9.188272417970155e-07,-9.42876960929385e-07,-7.283681442362339e-07,2.5080406190583795e-07
208210000000,ground_plane,lar_ufba_room,husky,0.0,0.0,0.0,0.0,0.0,0.0,1.0,0.0,0.0,0.0,0.0,0.0,0.0,1.0,4.649415881753879,2.999673889510335,0.19227998820421038,1.946341591205006e-06,1.5555090999436407e-06,-3.102957929114988e-05,0.9999999995154788,0.0,0.0,0.0,0.0,0.0,0.0,0.0,0.0,0.0,0.0,0.0,0.0,-1.910923931018118e-06,7.488891999873023e-07,9.188274726380304e-07,-9.42878827910044e-07,-7.283669941762054e-07,2.5080654793203374e-07
208220000000,ground_plane,lar_ufba_room,husky,0.0,0.0,0.0,0.0,0.0,0.0,1.0,0.0,0.0,0.0,0.0,0.0,0.0,1.0,4.649415863561224,2.9996738898614352,0.19227998818755188,1.946328546536325e-06,1.5554792643193743e-06,-3.10293548158054e-05,0.9999999995154858,0.0,0.0,0.0,0.0,0.0,0.0,0.0,0.0,0.0,0.0,0.0,0.0,-1.9109802065522748e-06,7.488870660344663e-07,9.188276995329778e-07,-9.428806890800518e-07,-7.283658430972051e-07,2.508090287504095e-07
208220000000,ground_plane,lar_ufba_room,husky,0.0,0.0,0.0,0.0,0.0,0.0,1.0,0.0,0.0,0.0,0.0,0.0,0.0,1.0,4.649415845368005,2.9996738902125375,0.19227998817089442,1.946315502612506e-06,1.5554494304059203e-06,-3.102913034654399e-05,0.9999999995154928,0.0,0.0,0.0,0.0,0.0,0.0,0.0,0.0,0.0,0.0,0.0,0.0,-1.911036483473162e-06,7.488849286398118e-07,9.188279332513763e-07,-9.428825513974329e-07,-7.283646915779859e-07,2.508115221317772e-07
208240000000,ground_plane,lar_ufba_room,husky,0.0,0.0,0.0,0.0,0.0,0.0,1.0,0.0,0.0,0.0,0.0,0.0,0.0,1.0,4.649415827174223,2.9996738905636415,0.19227998815423797,1.946302459428503e-06,1.555419598194642e-06,-3.102890588331957e-05,0.9999999995155,0.0,0.0,0.0,0.0,0.0,0.0,0.0,0.0,0.0,0.0,0.0,0.0,-1.911092761827814e-06,7.488827933089943e-07,9.188281586690708e-07,-9.428844144695555e-07,-7.28363541839192e-07,2.508140246077721e-07
208250000000,ground_plane,lar_ufba_room,husky,0.0,0.0,0.0,0.0,0.0,0.0,1.0,0.0,0.0,0.0,0.0,0.0,0.0,1.0,4.649415808979876,2.999673890914748,0.19227998813758257,1.946289417042298e-06,1.5553897677195342e-06,-3.1028681426272784e-05,0.9999999995155068,0.0,0.0,0.0,0.0,0.0,0.0,0.0,0.0,0.0,0.0,0.0,0.0,-1.9111490404901206e-06,7.488806585834006e-07,9.188283902760081e-07,-9.428862657724081e-07,-7.283623853664036e-07,2.5081649881712614e-07
208260000000,ground_plane,lar_ufba_room,husky,0.0,0.0,0.0,0.0,0.0,0.0,1.0,0.0,0.0,0.0,0.0,0.0,0.0,1.0,4.649415790784967,2.9996738912658567,0.1922799881209282,1.9462763753616757e-06,1.5553599388898063e-06,-3.1028456975326315e-05,0.999999999515514,0.0,0.0,0.0,0.0,0.0,0.0,0.0,0.0,0.0,0.0,0.0,0.0,-1.9112053271308945e-06,7.488785239513737e-07,9.188286188410159e-07,-9.428881353735836e-07,-7.283612471185605e-07,2.5081898837148996e-07
208260000000,ground_plane,lar_ufba_room,husky,0.0,0.0,0.0,0.0,0.0,0.0,1.0,0.0,0.0,0.0,0.0,0.0,0.0,1.0,4.649415772589494,2.999673891616967,0.19227998810427485,1.946263334466851e-06,1.5553301118525103e-06,-3.1028232530489345e-05,0.999999999515521,0.0,0.0,0.0,0.0,0.0,0.0,0.0,0.0,0.0,0.0,0.0,0.0,-1.9112616083741386e-06,7.488763882953852e-07,9.188288489393498e-07,-9.428899887517264e-07,-7.283600795228084e-07,2.5082147596225926e-07
208280000000,ground_plane,lar_ufba_room,husky,0.0,0.0,0.0,0.0,0.0,0.0,1.0,0.0,0.0,0.0,0.0,0.0,0.0,1.0,4.6494157543934564,2.99967389196808,0.1922799880876225,1.946250294298758e-06,1.5553002864637848e-06,-3.102800809178459e-05,0.999999999515528,0.0,0.0,0.0,0.0,0.0,0.0,0.0,0.0,0.0,0.0,0.0,0.0,-1.9113178967233284e-06,7.48874256279192e-07,9.188290752798123e-07,-9.428918537461275e-07,-7.283589407003945e-07,2.5082395888548716e-07
208290000000,ground_plane,lar_ufba_room,husky,0.0,0.0,0.0,0.0,0.0,0.0,1.0,0.0,0.0,0.0,0.0,0.0,0.0,1.0,4.649415736196857,2.999673892319195,0.19227998807097124,1.9462372548990585e-06,1.5552704628185444e-06,-3.102778365912685e-05,0.999999999515535,0.0,0.0,0.0,0.0,0.0,0.0,0.0,0.0,0.0,0.0,0.0,0.0,-1.911374185674928e-06,7.4887212488073e-07,9.188293065652173e-07,-9.428937103350101e-07,-7.283577829915371e-07,2.5082645871790753e-07
208300000000,ground_plane,lar_ufba_room,husky,0.0,0.0,0.0,0.0,0.0,0.0,1.0,0.0,0.0,0.0,0.0,0.0,0.0,1.0,4.649415717999692,2.999673892670313,0.192279988054321,1.9462242162693542e-06,1.5552406408598972e-06,-3.102755923261456e-05,0.9999999995155422,0.0,0.0,0.0,0.0,0.0,0.0,0.0,0.0,0.0,0.0,0.0,0.0,-1.9114304801038175e-06,7.488699904749013e-07,9.188295351075347e-07,-9.428955663533124e-07,-7.28356636693969e-07,2.508289387364162e-07
208310000000,ground_plane,lar_ufba_room,husky,0.0,0.0,0.0,0.0,0.0,0.0,1.0,0.0,0.0,0.0,0.0,0.0,0.0,1.0,4.649415699801965,2.999673893021432,0.19227998803767177,1.9462111783200618e-06,1.5552108206011169e-06,-3.10273348122252e-05,0.999999999515549,0.0,0.0,0.0,0.0,0.0,0.0,0.0,0.0,0.0,0.0,0.0,0.0,-1.9114867805361877e-06,7.488678558442793e-07,9.188297645243215e-07,-9.428974401344976e-07,-7.283554878057832e-07,2.5083142313075034e-07
208320000000,ground_plane,lar_ufba_room,husky,0.0,0.0,0.0,0.0,0.0,0.0,1.0,0.0,0.0,0.0,0.0,0.0,0.0,1.0,4.649415681603673,2.9996738933725537,0.1922799880210236,1.9461981411677155e-06,1.5551810021142369e-06,-3.1027110397840303e-05,0.9999999995155562,0.0,0.0,0.0,0.0,0.0,0.0,0.0,0.0,0.0,0.0,0.0,0.0,-1.9115430850224393e-06,7.488657251487032e-07,9.188299941393874e-07,-9.428992903823613e-07,-7.283543245498845e-07,2.508339310930763e-07
208330000000,ground_plane,lar_ufba_room,husky,0.0,0.0,0.0,0.0,0.0,0.0,1.0,0.0,0.0,0.0,0.0,0.0,0.0,1.0,4.649415663404818,2.9996738937236778,0.19227998800437646,1.946185104731781e-06,1.555151185270221e-06,-3.102688598957941e-05,0.9999999995155632,0.0,0.0,0.0,0.0,0.0,0.0,0.0,0.0,0.0,0.0,0.0,0.0,-1.9115993937390285e-06,7.48863590964275e-07,9.188302209975566e-07,-9.42901156608601e-07,-7.283531871959091e-07,2.508364150233435e-07
208340000000,ground_plane,lar_ufba_room,husky,0.0,0.0,0.0,0.0,0.0,0.0,1.0,0.0,0.0,0.0,0.0,0.0,0.0,1.0,4.6494156452054,2.9996738940748036,0.1922799879877303,1.9461720690856917e-06,1.5551213701910508e-06,-3.102666158750985e-05,0.9999999995155702,0.0,0.0,0.0,0.0,0.0,0.0,0.0,0.0,0.0,0.0,0.0,0.0,-1.9116556972216803e-06,7.488614545092852e-07,9.188304514006448e-07,-9.429030080243342e-07,-7.283520254672032e-07,2.508388853489524e-07
208340000000,ground_plane,lar_ufba_room,husky,0.0,0.0,0.0,0.0,0.0,0.0,1.0,0.0,0.0,0.0,0.0,0.0,0.0,1.0,4.649415627005417,2.9996738944259316,0.1922799879710852,1.9461590341674694e-06,1.5550915567908029e-06,-3.102643719147357e-05,0.9999999995155772,0.0,0.0,0.0,0.0,0.0,0.0,0.0,0.0,0.0,0.0,0.0,0.0,-1.911712007836812e-06,7.488593245236042e-07,9.188306784623938e-07,-9.429048716289311e-07,-7.28350880989264e-07,2.50841387170269e-07
208350000000,ground_plane,lar_ufba_room,husky,0.0,0.0,0.0,0.0,0.0,0.0,1.0,0.0,0.0,0.0,0.0,0.0,0.0,1.0,4.64941560880487,2.999673894777062,0.19227998795444112,1.946145999995976e-06,1.5550617451316153e-06,-3.102621280148506e-05,0.9999999995155844,0.0,0.0,0.0,0.0,0.0,0.0,0.0,0.0,0.0,0.0,0.0,0.0,-1.911768322051615e-06,7.488571929571874e-07,9.188309110945969e-07,-9.429067312722513e-07,-7.283497241642414e-07,2.508438859628347e-07
208370000000,ground_plane,lar_ufba_room,husky,0.0,0.0,0.0,0.0,0.0,0.0,1.0,0.0,0.0,0.0,0.0,0.0,0.0,1.0,4.649415590603759,2.9996738951281947,0.19227998793779807,1.9461329666080712e-06,1.5550319351229018e-06,-3.102598841767808e-05,0.9999999995155914,0.0,0.0,0.0,0.0,0.0,0.0,0.0,0.0,0.0,0.0,0.0,0.0,-1.9118246321796036e-06,7.488550611359805e-07,9.18831138135233e-07,-9.429085833541031e-07,-7.283485854728167e-07,2.5084635788174173e-07
208380000000,ground_plane,lar_ufba_room,husky,0.0,0.0,0.0,0.0,0.0,0.0,1.0,0.0,0.0,0.0,0.0,0.0,0.0,1.0,4.649415572402084,2.9996738954793294,0.19227998792115605,1.9461199339503414e-06,1.5550021268747604e-06,-3.102576403998302e-05,0.9999999995155984,0.0,0.0,0.0,0.0,0.0,0.0,0.0,0.0,0.0,0.0,0.0,0.0,-1.911880952878909e-06,7.488529236134321e-07,9.188313667806582e-07,-9.429104460675742e-07,-7.28347424836849e-07,2.5084884358104463e-07
208380000000,ground_plane,lar_ufba_room,husky,0.0,0.0,0.0,0.0,0.0,0.0,1.0,0.0,0.0,0.0,0.0,0.0,0.0,1.0,4.6494155541998445,2.9996738958304663,0.19227998790451503,1.946106902049479e-06,1.5549723203056445e-06,-3.1025539668296246e-05,0.9999999995156054,0.0,0.0,0.0,0.0,0.0,0.0,0.0,0.0,0.0,0.0,0.0,0.0,-1.9119372655916646e-06,7.488507928871732e-07,9.188315954465616e-07,-9.42912303134147e-07,-7.283462805415121e-07,2.508513498888528e-07
208400000000,ground_plane,lar_ufba_room,husky,0.0,0.0,0.0,0.0,0.0,0.0,1.0,0.0,0.0,0.0,0.0,0.0,0.0,1.0,4.649415535997043,2.9996738961816054,0.1922799878878751,1.946093870870312e-06,1.5549425154255802e-06,-3.102531530272269e-05,0.9999999995156124,0.0,0.0,0.0,0.0,0.0,0.0,0.0,0.0,0.0,0.0,0.0,0.0,-1.9119935853823058e-06,7.488486595016983e-07,9.188318271261499e-07,-9.429141671300323e-07,-7.283451343087178e-07,2.5085383508124485e-07
208410000000,ground_plane,lar_ufba_room,husky,0.0,0.0,0.0,0.0,0.0,0.0,1.0,0.0,0.0,0.0,0.0,0.0,0.0,1.0,4.649415517793677,2.9996738965327463,0.19227998787123615,1.946080840486993e-06,1.5549127123105823e-06,-3.102509094318816e-05,0.9999999995156196,0.0,0.0,0.0,0.0,0.0,0.0,0.0,0.0,0.0,0.0,0.0,0.0,-1.912049914200878e-06,7.488465242093385e-07,9.188320554767095e-07,-9.429160160903971e-07,-7.283439729325541e-07,2.508563349910757e-07
208410000000,ground_plane,lar_ufba_room,husky,0.0,0.0,0.0,0.0,0.0,0.0,1.0,0.0,0.0,0.0,0.0,0.0,0.0,1.0,4.649415499589746,2.99967389688389,0.19227998785459824,1.9460678108202153e-06,1.554882910897838e-06,-3.102486658973077e-05,0.9999999995156266,0.0,0.0,0.0,0.0,0.0,0.0,0.0,0.0,0.0,0.0,0.0,0.0,-1.9121062458068734e-06,7.488443941669728e-07,9.18832284327448e-07,-9.429178807388927e-07,-7.283428241702316e-07,2.508588271453693e-07
208430000000,ground_plane,lar_ufba_room,husky,0.0,0.0,0.0,0.0,0.0,0.0,1.0,0.0,0.0,0.0,0.0,0.0,0.0,1.0,4.649415481385252,2.9996738972350356,0.19227998783796138,1.9460547819422344e-06,1.554853111175816e-06,-3.1024642242377396e-05,0.9999999995156336,0.0,0.0,0.0,0.0,0.0,0.0,0.0,0.0,0.0,0.0,0.0,0.0,-1.912162579925992e-06,7.48842264785187e-07,9.188325128164916e-07,-9.429197308218183e-07,-7.283416777905757e-07,2.5086131379510433e-07
208440000000,ground_plane,lar_ufba_room,husky,0.0,0.0,0.0,0.0,0.0,0.0,1.0,0.0,0.0,0.0,0.0,0.0,0.0,1.0,4.649415463180193,2.9996738975861836,0.19227998782132555,1.9460417537723884e-06,1.554823313180019e-06,-3.102441790114342e-05,0.9999999995156406,0.0,0.0,0.0,0.0,0.0,0.0,0.0,0.0,0.0,0.0,0.0,0.0,-1.9122189142717475e-06,7.48840132025965e-07,9.188327420671946e-07,-9.429215968006697e-07,-7.28340524340569e-07,2.5086379724407987e-07
208450000000,ground_plane,lar_ufba_room,husky,0.0,0.0,0.0,0.0,0.0,0.0,1.0,0.0,0.0,0.0,0.0,0.0,0.0,1.0,4.64941544497457,2.9996738979373334,0.19227998780469074,1.9460287263977577e-06,1.5547935168495123e-06,-3.102419356600268e-05,0.9999999995156476,0.0,0.0,0.0,0.0,0.0,0.0,0.0,0.0,0.0,0.0,0.0,0.0,-1.912275263239875e-06,7.488379983472609e-07,9.188329713122389e-07,-9.429234452634475e-07,-7.283393831466122e-07,2.5086628579992727e-07
208460000000,ground_plane,lar_ufba_room,husky,0.0,0.0,0.0,0.0,0.0,0.0,1.0,0.0,0.0,0.0,0.0,0.0,0.0,1.0,4.649415426768383,2.9996738982884854,0.19227998778805697,1.9460156997048504e-06,1.554763722224156e-06,-3.1023969236923865e-05,0.9999999995156545,0.0,0.0,0.0,0.0,0.0,0.0,0.0,0.0,0.0,0.0,0.0,0.0,-1.912331586864177e-06,7.488358649090959e-07,9.188332013480863e-07,-9.429253161358452e-07,-7.283382339951586e-07,2.508687804868085e-07
208470000000,ground_plane,lar_ufba_room,husky,0.0,0.0,0.0,0.0,0.0,0.0,1.0,0.0,0.0,0.0,0.0,0.0,0.0,1.0,4.649415408561631,2.99967389863964,0.19227998777142422,1.946002673803006e-06,1.5547339293418503e-06,-3.102374491392733e-05,0.9999999995156615,0.0,0.0,0.0,0.0,0.0,0.0,0.0,0.0,0.0,0.0,0.0,0.0,-1.912387922596362e-06,7.488337370323918e-07,9.18833429673464e-07,-9.429271650618121e-07,-7.283370773638732e-07,2.508712709828978e-07
208480000000,ground_plane,lar_ufba_room,husky,0.0,0.0,0.0,0.0,0.0,0.0,1.0,0.0,0.0,0.0,0.0,0.0,0.0,1.0,4.649415390354316,2.9996738989907965,0.1922799877547925,1.9459896486504025e-06,1.5547041381601956e-06,-3.102352059707092e-05,0.9999999995156688,0.0,0.0,0.0,0.0,0.0,0.0,0.0,0.0,0.0,0.0,0.0,0.0,-1.912444254259606e-06,7.488316038059556e-07,9.188336582429885e-07,-9.429290221347413e-07,-7.283359292274886e-07,2.50873749779525e-07
208490000000,ground_plane,lar_ufba_room,husky,0.0,0.0,0.0,0.0,0.0,0.0,1.0,0.0,0.0,0.0,0.0,0.0,0.0,1.0,4.649415372146437,2.999673899341955,0.19227998773816177,1.9459766242083667e-06,1.5546743486649637e-06,-3.102329628633225e-05,0.9999999995156755,0.0,0.0,0.0,0.0,0.0,0.0,0.0,0.0,0.0,0.0,0.0,0.0,-1.912500595153787e-06,7.48829463954574e-07,9.18833885952567e-07,-9.429308868357795e-07,-7.283347840379036e-07,2.5087623292215256e-07
208500000000,ground_plane,lar_ufba_room,husky,0.0,0.0,0.0,0.0,0.0,0.0,1.0,0.0,0.0,0.0,0.0,0.0,0.0,1.0,4.649415353937993,2.999673899693116,0.19227998772153213,1.945963600563268e-06,1.5546445608925847e-06,-3.1023071981696046e-05,0.9999999995156827,0.0,0.0,0.0,0.0,0.0,0.0,0.0,0.0,0.0,0.0,0.0,0.0,-1.912556941223607e-06,7.488273292634653e-07,9.188341154826783e-07,-9.429327340577629e-07,-7.283336316352487e-07,2.5087871900219757e-07
208510000000,ground_plane,lar_ufba_room,husky,0.0,0.0,0.0,0.0,0.0,0.0,1.0,0.0,0.0,0.0,0.0,0.0,0.0,1.0,4.649415335728985,2.9996739000442796,0.1922799877049035,1.945950577650348e-06,1.554614774832524e-06,-3.1022847683164495e-05,0.9999999995156897,0.0,0.0,0.0,0.0,0.0,0.0,0.0,0.0,0.0,0.0,0.0,0.0,-1.912613288997054e-06,7.488251994196666e-07,9.188343426941799e-07,-9.42934594087866e-07,-7.283324813185671e-07,2.508812045065104e-07
208520000000,ground_plane,lar_ufba_room,husky,0.0,0.0,0.0,0.0,0.0,0.0,1.0,0.0,0.0,0.0,0.0,0.0,0.0,1.0,4.649415317519414,2.9996739003954445,0.19227998768827587,1.9459375555281677e-06,1.5545849904985417e-06,-3.102262339071974e-05,0.9999999995156967,0.0,0.0,0.0,0.0,0.0,0.0,0.0,0.0,0.0,0.0,0.0,0.0,-1.912669641366039e-06,7.488230652927107e-07,9.188345737607226e-07,-9.429364421648511e-07,-7.283313283438936e-07,2.5088369346647463e-07
208530000000,ground_plane,lar_ufba_room,husky,0.0,0.0,0.0,0.0,0.0,0.0,1.0,0.0,0.0,0.0,0.0,0.0,0.0,1.0,4.649415299309276,2.999673900746612,0.19227998767164933,1.9459245341053863e-06,1.5545552078798148e-06,-3.102239910438323e-05,0.9999999995157037,0.0,0.0,0.0,0.0,0.0,0.0,0.0,0.0,0.0,0.0,0.0,0.0,-1.9127260116018884e-06,7.488209341407788e-07,9.188348032109947e-07,-9.429383083569925e-07,-7.283301776038248e-07,2.508861779996353e-07
208540000000,ground_plane,lar_ufba_room,husky,0.0,0.0,0.0,0.0,0.0,0.0,1.0,0.0,0.0,0.0,0.0,0.0,0.0,1.0,4.649415281098576,2.9996739010977818,0.19227998765502377,1.945911513419099e-06,1.5545254269250288e-06,-3.1022174824169724e-05,0.999999999515711,0.0,0.0,0.0,0.0,0.0,0.0,0.0,0.0,0.0,0.0,0.0,0.0,-1.912782366914546e-06,7.488188045262452e-07,9.188350316364666e-07,-9.42940166998547e-07,-7.283290371755259e-07,2.508886594659481e-07
208550000000,ground_plane,lar_ufba_room,husky,0.0,0.0,0.0,0.0,0.0,0.0,1.0,0.0,0.0,0.0,0.0,0.0,0.0,1.0,4.649415262887311,2.9996739014489533,0.19227998763839926,1.9458984935122104e-06,1.5544956477010986e-06,-3.1021950549957986e-05,0.9999999995157177,0.0,0.0,0.0,0.0,0.0,0.0,0.0,0.0,0.0,0.0,0.0,0.0,-1.9128387278836986e-06,7.488166680933095e-07,9.188352583735084e-07,-9.429420168930901e-07,-7.283278834184156e-07,2.5089116503591693e-07
208560000000,ground_plane,lar_ufba_room,husky,0.0,0.0,0.0,0.0,0.0,0.0,1.0,0.0,0.0,0.0,0.0,0.0,0.0,1.0,4.649415244675481,2.999673901800127,0.1922799876217758,1.945885474351707e-06,1.554465870178681e-06,-3.102172628184341e-05,0.9999999995157249,0.0,0.0,0.0,0.0,0.0,0.0,0.0,0.0,0.0,0.0,0.0,0.0,-1.912895094603437e-06,7.48814540797132e-07,9.188354895103693e-07,-9.429438731731078e-07,-7.283267355474748e-07,2.5089365141648854e-07
208570000000,ground_plane,lar_ufba_room,husky,0.0,0.0,0.0,0.0,0.0,0.0,1.0,0.0,0.0,0.0,0.0,0.0,0.0,1.0,4.649415226463088,2.999673902151303,0.1922799876051533,1.9458724559562684e-06,1.5544360943383748e-06,-3.102150201979813e-05,0.9999999995157319,0.0,0.0,0.0,0.0,0.0,0.0,0.0,0.0,0.0,0.0,0.0,0.0,-1.9129514603044857e-06,7.488124118127723e-07,9.188357151593549e-07,-9.429457255429819e-07,-7.283255916680717e-07,2.508961432338164e-07
208580000000,ground_plane,lar_ufba_room,husky,0.0,0.0,0.0,0.0,0.0,0.0,1.0,0.0,0.0,0.0,0.0,0.0,0.0,1.0,4.6494152082501286,2.9996739025024817,0.19227998758853188,1.945859438276689e-06,1.5544063202289242e-06,-3.102127776381496e-05,0.9999999995157389,0.0,0.0,0.0,0.0,0.0,0.0,0.0,0.0,0.0,0.0,0.0,0.0,-1.9130078331433303e-06,7.488102791537009e-07,9.188359466769732e-07,-9.429475876536742e-07,-7.283244380537187e-07,2.508986363541591e-07
208580000000,ground_plane,lar_ufba_room,husky,0.0,0.0,0.0,0.0,0.0,0.0,1.0,0.0,0.0,0.0,0.0,0.0,0.0,1.0,4.649415190036606,2.999673902853662,0.19227998757191145,1.945846421393184e-06,1.5543765478363758e-06,-3.102105351393826e-05,0.9999999995157459,0.0,0.0,0.0,0.0,0.0,0.0,0.0,0.0,0.0,0.0,0.0,0.0,-1.913064196803722e-06,7.488081447803487e-07,9.188361758324497e-07,-9.42949433430316e-07,-7.283232872885413e-07,2.509011204888142e-07
208600000000,ground_plane,lar_ufba_room,husky,0.0,0.0,0.0,0.0,0.0,0.0,1.0,0.0,0.0,0.0,0.0,0.0,0.0,1.0,4.649415171822518,2.9996739032048447,0.19227998755529213,1.9458334052116143e-06,1.554346777140855e-06,-3.102082927018145e-05,0.9999999995157531,0.0,0.0,0.0,0.0,0.0,0.0,0.0,0.0,0.0,0.0,0.0,0.0,-1.9131205651697525e-06,7.48806014094871e-07,9.188364036655766e-07,-9.429512980148638e-07,-7.283221405580034e-07,2.5090360180582494e-07
208610000000,ground_plane,lar_ufba_room,husky,0.0,0.0,0.0,0.0,0.0,0.0,1.0,0.0,0.0,0.0,0.0,0.0,0.0,1.0,4.649415153607866,2.9996739035560296,0.19227998753867379,1.945820389805695e-06,1.5543170081484037e-06,-3.102060503252893e-05,0.9999999995157599,0.0,0.0,0.0,0.0,0.0,0.0,0.0,0.0,0.0,0.0,0.0,0.0,-1.9131769384189757e-06,7.488038840754366e-07,9.188366317532718e-07,-9.429531475592139e-07,-7.283209926781583e-07,2.509060861185095e-07
208620000000,ground_plane,lar_ufba_room,husky,0.0,0.0,0.0,0.0,0.0,0.0,1.0,0.0,0.0,0.0,0.0,0.0,0.0,1.0,4.64941513539265,2.999673903907216,0.19227998752205644,1.9458073751122745e-06,1.5542872408806595e-06,-3.1020380800907576e-05,0.9999999995157671,0.0,0.0,0.0,0.0,0.0,0.0,0.0,0.0,0.0,0.0,0.0,0.0,-1.913233313220673e-06,7.488017497624869e-07,9.188368581579413e-07,-9.429550096320733e-07,-7.283198405593094e-07,2.509085849278405e-07
208630000000,ground_plane,lar_ufba_room,husky,0.0,0.0,0.0,0.0,0.0,0.0,1.0,0.0,0.0,0.0,0.0,0.0,0.0,1.0,4.649415117176869,2.9996739042584055,0.19227998750544015,1.945794361193732e-06,1.5542574752627942e-06,-3.1020156575418386e-05,0.9999999995157741,0.0,0.0,0.0,0.0,0.0,0.0,0.0,0.0,0.0,0.0,0.0,0.0,-1.9132896979566388e-06,7.487996203818206e-07,9.188370891344334e-07,-9.429568589924781e-07,-7.283187034263584e-07,2.509110634159455e-07
208640000000,ground_plane,lar_ufba_room,husky,0.0,0.0,0.0,0.0,0.0,0.0,1.0,0.0,0.0,0.0,0.0,0.0,0.0,1.0,4.649415098960524,2.999673904609597,0.1922799874888249,1.94578134801978e-06,1.5542277114284379e-06,-3.101993235603332e-05,0.9999999995157811,0.0,0.0,0.0,0.0,0.0,0.0,0.0,0.0,0.0,0.0,0.0,0.0,-1.9133460831469165e-06,7.487974897364787e-07,9.188373170584535e-07,-9.429587142996831e-07,-7.283175396025502e-07,2.509135473805615e-07
208650000000,ground_plane,lar_ufba_room,husky,0.0,0.0,0.0,0.0,0.0,0.0,1.0,0.0,0.0,0.0,0.0,0.0,0.0,1.0,4.649415080743614,2.9996739049607903,0.1922799874722107,1.9457683355906027e-06,1.55419794924189e-06,-3.101970814271434e-05,0.9999999995157881,0.0,0.0,0.0,0.0,0.0,0.0,0.0,0.0,0.0,0.0,0.0,0.0,-1.913402468093308e-06,7.48795357583087e-07,9.188375448341804e-07,-9.429605694225259e-07,-7.283164029998164e-07,2.5091603882643957e-07
208660000000,ground_plane,lar_ufba_room,husky,0.0,0.0,0.0,0.0,0.0,0.0,1.0,0.0,0.0,0.0,0.0,0.0,0.0,1.0,4.649415062526139,2.999673905311986,0.1922799874555975,1.9457553239352314e-06,1.554168188827809e-06,-3.101948393553271e-05,0.9999999995157951,0.0,0.0,0.0,0.0,0.0,0.0,0.0,0.0,0.0,0.0,0.0,0.0,-1.9134588555742785e-06,7.487932319862288e-07,9.188377735874204e-07,-9.42962418551439e-07,-7.283152415218127e-07,2.5091851587904226e-07
208670000000,ground_plane,lar_ufba_room,husky,0.0,0.0,0.0,0.0,0.0,0.0,1.0,0.0,0.0,0.0,0.0,0.0,0.0,1.0,4.6494150443081,2.9996739056631836,0.19227998743898528,1.945742313019301e-06,1.5541384300525672e-06,-3.101925973448235e-05,0.9999999995158023,0.0,0.0,0.0,0.0,0.0,0.0,0.0,0.0,0.0,0.0,0.0,0.0,-1.9135152468405904e-06,7.487911013499458e-07,9.188380034123882e-07,-9.429642743729197e-07,-7.283141068155591e-07,2.5092099403655236e-07
208680000000,ground_plane,lar_ufba_room,husky,0.0,0.0,0.0,0.0,0.0,0.0,1.0,0.0,0.0,0.0,0.0,0.0,0.0,1.0,4.649415026089496,2.999673906014384,0.19227998742237415,1.9457293028360317e-06,1.5541086729991819e-06,-3.1019035539447445e-05,0.9999999995158091,0.0,0.0,0.0,0.0,0.0,0.0,0.0,0.0,0.0,0.0,0.0,0.0,-1.9135716345804187e-06,7.487889700990002e-07,9.188382333180291e-07,-9.429661313150182e-07,-7.283129555453368e-07,2.509234952225258e-07
208690000000,ground_plane,lar_ufba_room,husky,0.0,0.0,0.0,0.0,0.0,0.0,1.0,0.0,0.0,0.0,0.0,0.0,0.0,1.0,4.649415007870327,2.999673906365586,0.19227998740576402,1.9457162934060748e-06,1.5540789176721509e-06,-3.101881135050542e-05,0.9999999995158163,0.0,0.0,0.0,0.0,0.0,0.0,0.0,0.0,0.0,0.0,0.0,0.0,-1.913628034452091e-06,7.487868370399048e-07,9.188384581123058e-07,-9.429679840254722e-07,-7.283118034561805e-07,2.509259807999313e-07
208700000000,ground_plane,lar_ufba_room,husky,0.0,0.0,0.0,0.0,0.0,0.0,1.0,0.0,0.0,0.0,0.0,0.0,0.0,1.0,4.649414989650594,2.99967390671679,0.19227998738915492,1.945703284746501e-06,1.55404916404606e-06,-3.1018587167734085e-05,0.9999999995158233,0.0,0.0,0.0,0.0,0.0,0.0,0.0,0.0,0.0,0.0,0.0,0.0,-1.9136844329872498e-06,7.487847098971065e-07,9.188386889982286e-07,-9.429698330924451e-07,-7.283106565387393e-07,2.509284506901268e-07
208710000000,ground_plane,lar_ufba_room,husky,0.0,0.0,0.0,0.0,0.0,0.0,1.0,0.0,0.0,0.0,0.0,0.0,0.0,1.0,4.649414971430295,2.999673907067997,0.19227998737254684,1.9456902768224408e-06,1.554019412141155e-06,-3.101836299098736e-05,0.9999999995158303,0.0,0.0,0.0,0.0,0.0,0.0,0.0,0.0,0.0,0.0,0.0,0.0,-1.9137408366298638e-06,7.487825794542543e-07,9.188389152716521e-07,-9.42971689069461e-07,-7.283095055122114e-07,2.509309496622357e-07
208720000000,ground_plane,lar_ufba_room,husky,0.0,0.0,0.0,0.0,0.0,0.0,1.0,0.0,0.0,0.0,0.0,0.0,0.0,1.0,4.649414953209432,2.999673907419206,0.19227998735593982,1.945677269617995e-06,1.5539896619018124e-06,-3.1018138820298085e-05,0.9999999995158373,0.0,0.0,0.0,0.0,0.0,0.0,0.0,0.0,0.0,0.0,0.0,0.0,-1.9137972348078815e-06,7.487804468884847e-07,9.188391471734125e-07,-9.429735479243345e-07,-7.283083657471826e-07,2.509334419529547e-07
208730000000,ground_plane,lar_ufba_room,husky,0.0,0.0,0.0,0.0,0.0,0.0,1.0,0.0,0.0,0.0,0.0,0.0,0.0,1.0,4.6494149349880045,2.9996739077704166,0.19227998733933382,1.9456642631958687e-06,1.5539599134021478e-06,-3.101791465551133e-05,0.9999999995158443,0.0,0.0,0.0,0.0,0.0,0.0,0.0,0.0,0.0,0.0,0.0,0.0,-1.9138536515436013e-06,7.487783121637212e-07,9.188393733459526e-07,-9.429753941523574e-07,-7.283072112322582e-07,2.5093596509258337e-07
208740000000,ground_plane,lar_ufba_room,husky,0.0,0.0,0.0,0.0,0.0,0.0,1.0,0.0,0.0,0.0,0.0,0.0,0.0,1.0,4.649414916766012,2.99967390812163,0.19227998732272883,1.945651257547843e-06,1.553930166577081e-06,-3.101769049684285e-05,0.9999999995158515,0.0,0.0,0.0,0.0,0.0,0.0,0.0,0.0,0.0,0.0,0.0,0.0,-1.9139100685743448e-06,7.487761808396034e-07,9.188396038342707e-07,-9.42977241863722e-07,-7.283060697738324e-07,2.509384449563811e-07
208750000000,ground_plane,lar_ufba_room,husky,0.0,0.0,0.0,0.0,0.0,0.0,1.0,0.0,0.0,0.0,0.0,0.0,0.0,1.0,4.649414898543455,2.9996739084728454,0.1922799873061249,1.945638252586223e-06,1.5539004214967442e-06,-3.101746634422446e-05,0.9999999995158583,0.0,0.0,0.0,0.0,0.0,0.0,0.0,0.0,0.0,0.0,0.0,0.0,-1.9139664862895806e-06,7.48774052199527e-07,9.188398314857382e-07,-9.429791068609978e-07,-7.283049143050648e-07,2.5094093831958496e-07
208760000000,ground_plane,lar_ufba_room,husky,0.0,0.0,0.0,0.0,0.0,0.0,1.0,0.0,0.0,0.0,0.0,0.0,0.0,1.0,4.649414880320332,2.9996739088240627,0.19227998728952198,1.945625248434221e-06,1.5538706781125842e-06,-3.101724219777637e-05,0.9999999995158655,0.0,0.0,0.0,0.0,0.0,0.0,0.0,0.0,0.0,0.0,0.0,0.0,-1.914022905475633e-06,7.487719206034055e-07,9.188400590885819e-07,-9.429809470911929e-07,-7.283037686607534e-07,2.509434075294165e-07
208770000000,ground_plane,lar_ufba_room,husky,0.0,0.0,0.0,0.0,0.0,0.0,1.0,0.0,0.0,0.0,0.0,0.0,0.0,1.0,4.649414862096645,2.999673909175282,0.19227998727292006,1.9456122449552113e-06,1.5538409363826157e-06,-3.101701805740652e-05,0.9999999995158725,0.0,0.0,0.0,0.0,0.0,0.0,0.0,0.0,0.0,0.0,0.0,0.0,-1.9140793274184352e-06,7.487697878074095e-07,9.188402862780893e-07,-9.429828145011075e-07,-7.283026313981493e-07,2.509458950267226e-07
208780000000,ground_plane,lar_ufba_room,husky,0.0,0.0,0.0,0.0,0.0,0.0,1.0,0.0,0.0,0.0,0.0,0.0,0.0,1.0,4.649414843872393,2.9996739095265044,0.19227998725631917,1.945599242293087e-06,1.5538111964242858e-06,-3.1016793923111324e-05,0.9999999995158795,0.0,0.0,0.0,0.0,0.0,0.0,0.0,0.0,0.0,0.0,0.0,0.0,-1.9141357478279004e-06,7.487676601078253e-07,9.188405167705687e-07,-9.42984652932576e-07,-7.283014707767661e-07,2.509483830980932e-07
208790000000,ground_plane,lar_ufba_room,husky,0.0,0.0,0.0,0.0,0.0,0.0,1.0,0.0,0.0,0.0,0.0,0.0,0.0,1.0,4.649414825647575,2.999673909877728,0.1922799872397193,1.945586240352442e-06,1.5537814581267247e-06,-3.101656979490053e-05,0.9999999995158865,0.0,0.0,0.0,0.0,0.0,0.0,0.0,0.0,0.0,0.0,0.0,0.0,-1.9141921756426493e-06,7.487655286817592e-07,9.188407426748575e-07,-9.429865102836759e-07,-7.2830033230977e-07,2.509508691160309e-07
208800000000,ground_plane,lar_ufba_room,husky,0.0,0.0,0.0,0.0,0.0,0.0,1.0,0.0,0.0,0.0,0.0,0.0,0.0,1.0,4.649414807422192,2.999673910228954,0.19227998722312054,1.945573239171281e-06,1.5537517215835834e-06,-3.101634567282327e-05,0.9999999995158935,0.0,0.0,0.0,0.0,0.0,0.0,0.0,0.0,0.0,0.0,0.0,0.0,-1.9142485994210597e-06,7.487634037004893e-07,9.188409722611481e-07,-9.429883598857618e-07,-7.282991752249586e-07,2.5095334515226547e-07
208810000000,ground_plane,lar_ufba_room,husky,0.0,0.0,0.0,0.0,0.0,0.0,1.0,0.0,0.0,0.0,0.0,0.0,0.0,1.0,4.649414789196245,2.9996739105801824,0.19227998720652273,1.945560238705e-06,1.5537219866518219e-06,-3.1016121556796044e-05,0.9999999995159005,0.0,0.0,0.0,0.0,0.0,0.0,0.0,0.0,0.0,0.0,0.0,0.0,-1.9143050267849593e-06,7.487612737936061e-07,9.188412010227146e-07,-9.429902181891336e-07,-7.282980467907211e-07,2.50955837788806e-07
208820000000,ground_plane,lar_ufba_room,husky,0.0,0.0,0.0,0.0,0.0,0.0,1.0,0.0,0.0,0.0,0.0,0.0,0.0,1.0,4.649414770969733,2.999673910931413,0.19227998718992595,1.9455472389838227e-06,1.5536922534910002e-06,-3.101589744688413e-05,0.9999999995159075,0.0,0.0,0.0,0.0,0.0,0.0,0.0,0.0,0.0,0.0,0.0,0.0,-1.9143614605022124e-06,7.487591422206802e-07,9.1884142844861e-07,-9.42992070317899e-07,-7.282968864823219e-07,2.509583172235572e-07
208830000000,ground_plane,lar_ufba_room,husky,0.0,0.0,0.0,0.0,0.0,0.0,1.0,0.0,0.0,0.0,0.0,0.0,0.0,1.0,4.649414752742654,2.999673911282646,0.19227998717333017,1.945534240058901e-06,1.5536625220217281e-06,-3.1015673343042165e-05,0.9999999995159147,0.0,0.0,0.0,0.0,0.0,0.0,0.0,0.0,0.0,0.0,0.0,0.0,-1.9144178853792906e-06,7.487570063666316e-07,9.188416568831205e-07,-9.429939120130857e-07,-7.282957421006754e-07,2.5096080560591043e-07
208840000000,ground_plane,lar_ufba_room,husky,0.0,0.0,0.0,0.0,0.0,0.0,1.0,0.0,0.0,0.0,0.0,0.0,0.0,1.0,4.649414734515012,2.9996739116338804,0.19227998715673547,1.945521241847895e-06,1.5536327922591957e-06,-3.101544924529951e-05,0.9999999995159217,0.0,0.0,0.0,0.0,0.0,0.0,0.0,0.0,0.0,0.0,0.0,0.0,-1.9144743102615827e-06,7.487548752621653e-07,9.188418854557539e-07,-9.429957700541167e-07,-7.282945947221031e-07,2.509632879902009e-07
208850000000,ground_plane,lar_ufba_room,husky,0.0,0.0,0.0,0.0,0.0,0.0,1.0,0.0,0.0,0.0,0.0,0.0,0.0,1.0,4.649414716286803,2.9996739119851177,0.1922799871401418,1.945508244401571e-06,1.5536030642047469e-06,-3.101522515361152e-05,0.9999999995159287,0.0,0.0,0.0,0.0,0.0,0.0,0.0,0.0,0.0,0.0,0.0,0.0,-1.914530739999944e-06,7.487527448151693e-07,9.188421143511822e-07,-9.429976177245795e-07,-7.282934471757577e-07,2.509657791826367e-07
208860000000,ground_plane,lar_ufba_room,husky,0.0,0.0,0.0,0.0,0.0,0.0,1.0,0.0,0.0,0.0,0.0,0.0,0.0,1.0,4.649414698058031,2.9996739123363567,0.19227998712354916,1.9454952476572985e-06,1.5535733378506009e-06,-3.1015001067949006e-05,0.9999999995159357,0.0,0.0,0.0,0.0,0.0,0.0,0.0,0.0,0.0,0.0,0.0,0.0,-1.914587175566177e-06,7.487506124053791e-07,9.18842344288159e-07,-9.429994778004019e-07,-7.282923012327708e-07,2.5096827608098707e-07
208870000000,ground_plane,lar_ufba_room,husky,0.0,0.0,0.0,0.0,0.0,0.0,1.0,0.0,0.0,0.0,0.0,0.0,0.0,1.0,4.649414679828693,2.999673912687598,0.1922799871069575,1.945482251735593e-06,1.553543613223334e-06,-3.101477698832983e-05,0.9999999995159427,0.0,0.0,0.0,0.0,0.0,0.0,0.0,0.0,0.0,0.0,0.0,0.0,-1.9146436122890175e-06,7.487484848000071e-07,9.188425695555494e-07,-9.430013135095881e-07,-7.282911500232683e-07,2.5097076927587414e-07
208880000000,ground_plane,lar_ufba_room,husky,0.0,0.0,0.0,0.0,0.0,0.0,1.0,0.0,0.0,0.0,0.0,0.0,0.0,1.0,4.649414661598789,2.999673913038842,0.19227998709036692,1.9454692565148945e-06,1.5535138902916432e-06,-3.1014552914850676e-05,0.9999999995159496,0.0,0.0,0.0,0.0,0.0,0.0,0.0,0.0,0.0,0.0,0.0,0.0,-1.9147000624469747e-06,7.48746356074468e-07,9.188427988118525e-07,-9.430031734015213e-07,-7.2829000512485e-07,2.5097324302150806e-07
208890000000,ground_plane,lar_ufba_room,husky,0.0,0.0,0.0,0.0,0.0,0.0,1.0,0.0,0.0,0.0,0.0,0.0,0.0,1.0,4.6494146433683206,2.999673913390087,0.19227998707377736,1.9454562620656245e-06,1.5534841690200714e-06,-3.101432884742945e-05,0.9999999995159569,0.0,0.0,0.0,0.0,0.0,0.0,0.0,0.0,0.0,0.0,0.0,0.0,-1.914756508637187e-06,7.487442228526309e-07,9.188430279376965e-07,-9.430050189958261e-07,-7.282888673510055e-07,2.509757330494964e-07
208900000000,ground_plane,lar_ufba_room,husky,0.0,0.0,0.0,0.0,0.0,0.0,1.0,0.0,0.0,0.0,0.0,0.0,0.0,1.0,4.649414625137288,2.999673913741335,0.1922799870571888,1.945443268341195e-06,1.5534544494532328e-06,-3.1014104786083156e-05,0.9999999995159636,0.0,0.0,0.0,0.0,0.0,0.0,0.0,0.0,0.0,0.0,0.0,0.0,-1.9148129551333987e-06,7.487420928982447e-07,9.188432537031664e-07,-9.430068738701554e-07,-7.282877207701267e-07,2.5097821954646017e-07
208900000000,ground_plane,lar_ufba_room,husky,0.0,0.0,0.0,0.0,0.0,0.0,1.0,0.0,0.0,0.0,0.0,0.0,0.0,1.0,4.6494146069056885,2.999673914092585,0.1922799870406013,1.9454302753853854e-06,1.553424731621584e-06,-3.1013880730865465e-05,0.9999999995159706,0.0,0.0,0.0,0.0,0.0,0.0,0.0,0.0,0.0,0.0,0.0,0.0,-1.914869412497922e-06,7.487399700099678e-07,9.188434838920226e-07,-9.430087197434461e-07,-7.282865680900657e-07,2.5098069518559754e-07
208920000000,ground_plane,lar_ufba_room,husky,0.0,0.0,0.0,0.0,0.0,0.0,1.0,0.0,0.0,0.0,0.0,0.0,0.0,1.0,4.649414588673523,2.999673914443837,0.19227998702401483,1.945417283180996e-06,1.5533950155006404e-06,-3.101365668170371e-05,0.9999999995159778,0.0,0.0,0.0,0.0,0.0,0.0,0.0,0.0,0.0,0.0,0.0,0.0,-1.9149258659114606e-06,7.487378389350595e-07,9.188437107910162e-07,-9.430105688341989e-07,-7.282854203823397e-07,2.509831852379582e-07
208930000000,ground_plane,lar_ufba_room,husky,0.0,0.0,0.0,0.0,0.0,0.0,1.0,0.0,0.0,0.0,0.0,0.0,0.0,1.0,4.649414570440794,2.9996739147950913,0.19227998700742935,1.9454042916752903e-06,1.5533653010948211e-06,-3.101343263863306e-05,0.9999999995159848,0.0,0.0,0.0,0.0,0.0,0.0,0.0,0.0,0.0,0.0,0.0,0.0,-1.9149823273553822e-06,7.4873571298701e-07,9.188439388708003e-07,-9.430124284593802e-07,-7.282842718371295e-07,2.5098566812431406e-07
208940000000,ground_plane,lar_ufba_room,husky,0.0,0.0,0.0,0.0,0.0,0.0,1.0,0.0,0.0,0.0,0.0,0.0,0.0,1.0,4.649414552207499,2.999673915146348,0.1922799869908449,1.9453913009655217e-06,1.5533355883597069e-06,-3.1013208601736805e-05,0.9999999995159918,0.0,0.0,0.0,0.0,0.0,0.0,0.0,0.0,0.0,0.0,0.0,0.0,-1.9150387991697654e-06,7.487335866542199e-07,9.188441674472923e-07,-9.430142682988671e-07,-7.282831322191793e-07,2.509881342277875e-07
208950000000,ground_plane,lar_ufba_room,husky,0.0,0.0,0.0,0.0,0.0,0.0,1.0,0.0,0.0,0.0,0.0,0.0,0.0,1.0,4.64941453397364,2.999673915497607,0.19227998697426146,1.9453783109711914e-06,1.5533058773903738e-06,-3.101298457083201e-05,0.9999999995159988,0.0,0.0,0.0,0.0,0.0,0.0,0.0,0.0,0.0,0.0,0.0,0.0,-1.9150952603693244e-06,7.487314585739709e-07,9.188443947488255e-07,-9.430161241190744e-07,-7.282819736766389e-07,2.509906367965119e-07
208960000000,ground_plane,lar_ufba_room,husky,0.0,0.0,0.0,0.0,0.0,0.0,1.0,0.0,0.0,0.0,0.0,0.0,0.0,1.0,4.649414515739213,2.999673915848868,0.19227998695767906,1.9453653217589186e-06,1.5532761680557333e-06,-3.1012760546007256e-05,0.9999999995160058,0.0,0.0,0.0,0.0,0.0,0.0,0.0,0.0,0.0,0.0,0.0,0.0,-1.915151730883024e-06,7.487293258084267e-07,9.188446246247987e-07,-9.430179664535843e-07,-7.282808414115295e-07,2.509931215081478e-07
