%time,field.name0,field.name1,field.name2,field.pose0.position.x,field.pose0.position.y,field.pose0.position.z,field.pose0.orientation.x,field.pose0.orientation.y,field.pose0.orientation.z,field.pose0.orientation.w,field.pose1.position.x,field.pose1.position.y,field.pose1.position.z,field.pose1.orientation.x,field.pose1.orientation.y,field.pose1.orientation.z,field.pose1.orientation.w,field.pose2.position.x,field.pose2.position.y,field.pose2.position.z,field.pose2.orientation.x,field.pose2.orientation.y,field.pose2.orientation.z,field.pose2.orientation.w,field.twist0.linear.x,field.twist0.linear.y,field.twist0.linear.z,field.twist0.angular.x,field.twist0.angular.y,field.twist0.angular.z,field.twist1.linear.x,field.twist1.linear.y,field.twist1.linear.z,field.twist1.angular.x,field.twist1.angular.y,field.twist1.angular.z,field.twist2.linear.x,field.twist2.linear.y,field.twist2.linear.z,field.twist2.angular.x,field.twist2.angular.y,field.twist2.angular.z
49440000000,ground_plane,lar_ufba_room,husky,0.0,0.0,0.0,0.0,0.0,0.0,1.0,0.0,0.0,0.0,0.0,0.0,0.0,1.0,4.649657548901479,2.9996687263741637,0.19228043651526158,2.293254896122994e-06,2.3272310866141622e-06,-3.5666338845071834e-05,0.9999999993586186,0.0,0.0,0.0,0.0,0.0,0.0,0.0,0.0,0.0,0.0,0.0,0.0,-1.519749075777944e-06,7.929669901286535e-07,9.126320513751714e-07,-8.793646375306194e-07,-7.498170038809269e-07,2.0077355472249893e-07
49450000000,ground_plane,lar_ufba_room,husky,0.0,0.0,0.0,0.0,0.0,0.0,1.0,0.0,0.0,0.0,0.0,0.0,0.0,1.0,4.649657534457777,2.99966872666245,0.1922804364711488,2.2932203665207566e-06,2.32715753299322e-06,-3.566595546133653e-05,0.9999999993586327,0.0,0.0,0.0,0.0,0.0,0.0,0.0,0.0,0.0,0.0,0.0,0.0,-1.5197165177569706e-06,7.929634287026024e-07,9.126327376658671e-07,-8.793715496475326e-07,-7.498139934955937e-07,2.0077699767020406e-07
49460000000,ground_plane,lar_ufba_room,husky,0.0,0.0,0.0,0.0,0.0,0.0,1.0,0.0,0.0,0.0,0.0,0.0,0.0,1.0,4.6496575200144,2.999668726950743,0.1922804364270387,2.293185839168148e-06,2.3270839835319635e-06,-3.566557209276117e-05,0.9999999993586466,0.0,0.0,0.0,0.0,0.0,0.0,0.0,0.0,0.0,0.0,0.0,0.0,-1.51968395881553e-06,7.929598662228599e-07,9.126334214751094e-07,-8.793784665382808e-07,-7.498109991886137e-07,2.007804578283477e-07
49460000000,ground_plane,lar_ufba_room,husky,0.0,0.0,0.0,0.0,0.0,0.0,1.0,0.0,0.0,0.0,0.0,0.0,0.0,1.0,4.649657505571347,2.9996687272390425,0.19228043638293135,2.2931513140932627e-06,2.3270104382545375e-06,-3.566518873943333e-05,0.9999999993586605,0.0,0.0,0.0,0.0,0.0,0.0,0.0,0.0,0.0,0.0,0.0,0.0,-1.5196514146930404e-06,7.92956302314074e-07,9.126341135630964e-07,-8.793853772474109e-07,-7.498080002088713e-07,2.00783900231793e-07
49470000000,ground_plane,lar_ufba_room,husky,0.0,0.0,0.0,0.0,0.0,0.0,1.0,0.0,0.0,0.0,0.0,0.0,0.0,1.0,4.649657491128619,2.9996687275273484,0.1922804363388267,2.29311679129688e-06,2.3269368972418635e-06,-3.566480540131367e-05,0.9999999993586743,0.0,0.0,0.0,0.0,0.0,0.0,0.0,0.0,0.0,0.0,0.0,0.0,-1.5196188751116197e-06,7.929527420612936e-07,9.126347980482028e-07,-8.793922872591035e-07,-7.49804985140944e-07,2.00787350244618e-07
49480000000,ground_plane,lar_ufba_room,husky,0.0,0.0,0.0,0.0,0.0,0.0,1.0,0.0,0.0,0.0,0.0,0.0,0.0,1.0,4.649657476686215,2.999668727815661,0.19228043629472472,2.293082270776178e-06,2.3268633603991683e-06,-3.56644220783672e-05,0.9999999993586882,0.0,0.0,0.0,0.0,0.0,0.0,0.0,0.0,0.0,0.0,0.0,0.0,-1.5195863456757488e-06,7.929491764095399e-07,9.126354848222884e-07,-8.793991971607184e-07,-7.498019891827599e-07,2.0079080700565434e-07
49500000000,ground_plane,lar_ufba_room,husky,0.0,0.0,0.0,0.0,0.0,0.0,1.0,0.0,0.0,0.0,0.0,0.0,0.0,1.0,4.649657462244137,2.999668728103979,0.19228043625062544,2.2930477524426813e-06,2.326789827769043e-06,-3.566403877062756e-05,0.9999999993587023,0.0,0.0,0.0,0.0,0.0,0.0,0.0,0.0,0.0,0.0,0.0,0.0,-1.5195538084520415e-06,7.929456083387627e-07,9.126361718621841e-07,-8.794061242242466e-07,-7.497989848293598e-07,2.0079425678745423e-07
49510000000,ground_plane,lar_ufba_room,husky,0.0,0.0,0.0,0.0,0.0,0.0,1.0,0.0,0.0,0.0,0.0,0.0,0.0,1.0,4.649657447802381,2.999668728392304,0.19228043620652885,2.293013236481727e-06,2.3267162993563748e-06,-3.566365547812859e-05,0.9999999993587162,0.0,0.0,0.0,0.0,0.0,0.0,0.0,0.0,0.0,0.0,0.0,0.0,-1.5195212862871829e-06,7.929420486792949e-07,9.126368568695637e-07,-8.794130137046916e-07,-7.497959796093092e-07,2.0079769954138658e-07
49520000000,ground_plane,lar_ufba_room,husky,0.0,0.0,0.0,0.0,0.0,0.0,1.0,0.0,0.0,0.0,0.0,0.0,0.0,1.0,4.649657433360952,2.999668728680635,0.1922804361624349,2.2929787227800725e-06,2.326642775130075e-06,-3.56632722007649e-05,0.9999999993587301,0.0,0.0,0.0,0.0,0.0,0.0,0.0,0.0,0.0,0.0,0.0,0.0,-1.5194887707066238e-06,7.929384851145554e-07,9.126375426608396e-07,-8.794199251537383e-07,-7.497929807792255e-07,2.008011631253643e-07
49530000000,ground_plane,lar_ufba_room,husky,0.0,0.0,0.0,0.0,0.0,0.0,1.0,0.0,0.0,0.0,0.0,0.0,0.0,1.0,4.649657418919846,2.999668728968973,0.19228043611834372,2.292944211269706e-06,2.326569255112177e-06,-3.5662888938569176e-05,0.999999999358744,0.0,0.0,0.0,0.0,0.0,0.0,0.0,0.0,0.0,0.0,0.0,0.0,-1.5194562592577513e-06,7.929349199888075e-07,9.126382308617195e-07,-8.794268496713811e-07,-7.497899776565121e-07,2.008046199203216e-07
49540000000,ground_plane,lar_ufba_room,husky,0.0,0.0,0.0,0.0,0.0,0.0,1.0,0.0,0.0,0.0,0.0,0.0,0.0,1.0,4.649657404479065,2.9996687292573174,0.19228043607425518,2.2929097020833357e-06,2.3264957392868045e-06,-3.566250569159709e-05,0.9999999993587578,0.0,0.0,0.0,0.0,0.0,0.0,0.0,0.0,0.0,0.0,0.0,0.0,-1.5194237524351265e-06,7.929313562828076e-07,9.126389164302834e-07,-8.794337470289214e-07,-7.49786977856573e-07,2.0080806531815304e-07
49550000000,ground_plane,lar_ufba_room,husky,0.0,0.0,0.0,0.0,0.0,0.0,1.0,0.0,0.0,0.0,0.0,0.0,0.0,1.0,4.649657390038607,2.9996687295456677,0.1922804360301693,2.2928751951786846e-06,2.3264222276943385e-06,-3.5662122459840945e-05,0.9999999993587719,0.0,0.0,0.0,0.0,0.0,0.0,0.0,0.0,0.0,0.0,0.0,0.0,-1.5193912610351501e-06,7.929277910185526e-07,9.126396030735438e-07,-8.79440652316851e-07,-7.49783970083803e-07,2.0081151200301476e-07
49550000000,ground_plane,lar_ufba_room,husky,0.0,0.0,0.0,0.0,0.0,0.0,1.0,0.0,0.0,0.0,0.0,0.0,0.0,1.0,4.649657375598474,2.9996687298340245,0.19228043598608613,2.292840690469954e-06,2.3263487202471555e-06,-3.566173924327196e-05,0.9999999993587858,0.0,0.0,0.0,0.0,0.0,0.0,0.0,0.0,0.0,0.0,0.0,0.0,-1.519358762022503e-06,7.929242299767894e-07,9.126402899402092e-07,-8.794475741848918e-07,-7.497809800130073e-07,2.008149641895469e-07
49570000000,ground_plane,lar_ufba_room,husky,0.0,0.0,0.0,0.0,0.0,0.0,1.0,0.0,0.0,0.0,0.0,0.0,0.0,1.0,4.649657361158665,2.999668730122388,0.19228043594200572,2.292806188102867e-06,2.3262752170120756e-06,-3.566135604195172e-05,0.9999999993587997,0.0,0.0,0.0,0.0,0.0,0.0,0.0,0.0,0.0,0.0,0.0,0.0,-1.5193262721215897e-06,7.929206730312384e-07,9.126409749116564e-07,-8.794544662505198e-07,-7.497779766564872e-07,2.0081840381435246e-07
49580000000,ground_plane,lar_ufba_room,husky,0.0,0.0,0.0,0.0,0.0,0.0,1.0,0.0,0.0,0.0,0.0,0.0,0.0,1.0,4.64965734671918,2.999668730410758,0.19228043589792793,2.2927716879675117e-06,2.3262017180012663e-06,-3.5660972855792284e-05,0.9999999993588136,0.0,0.0,0.0,0.0,0.0,0.0,0.0,0.0,0.0,0.0,0.0,0.0,-1.519293795313121e-06,7.929171121068126e-07,9.126416616230466e-07,-8.794613797564525e-07,-7.497749710292918e-07,2.0082186076460075e-07
49590000000,ground_plane,lar_ufba_room,husky,0.0,0.0,0.0,0.0,0.0,0.0,1.0,0.0,0.0,0.0,0.0,0.0,0.0,1.0,4.649657332280018,2.999668730699134,0.19228043585385285,2.29273719009804e-06,2.326128223149625e-06,-3.5660589684802196e-05,0.9999999993588274,0.0,0.0,0.0,0.0,0.0,0.0,0.0,0.0,0.0,0.0,0.0,0.0,-1.5192613291960286e-06,7.929135497235146e-07,9.126423480642939e-07,-8.794682857558154e-07,-7.497719785463764e-07,2.0082531574600048e-07
49600000000,ground_plane,lar_ufba_room,husky,0.0,0.0,0.0,0.0,0.0,0.0,1.0,0.0,0.0,0.0,0.0,0.0,0.0,1.0,4.649657317841181,2.9996687309875165,0.1922804358097804,2.292702694481159e-06,2.3260547325052477e-06,-3.566020652907047e-05,0.9999999993588413,0.0,0.0,0.0,0.0,0.0,0.0,0.0,0.0,0.0,0.0,0.0,0.0,-1.5192288514961717e-06,7.929099880726032e-07,9.126430330729566e-07,-8.794751939593688e-07,-7.497689766386527e-07,2.008287526804391e-07
49610000000,ground_plane,lar_ufba_room,husky,0.0,0.0,0.0,0.0,0.0,0.0,1.0,0.0,0.0,0.0,0.0,0.0,0.0,1.0,4.649657303402668,2.9996687312759054,0.1922804357657107,2.292668201175337e-06,2.3259812460927452e-06,-3.5659823388628674e-05,0.9999999993588552,0.0,0.0,0.0,0.0,0.0,0.0,0.0,0.0,0.0,0.0,0.0,0.0,-1.5191963954672053e-06,7.929064218833183e-07,9.126437201772584e-07,-8.794820898688471e-07,-7.49765969855583e-07,2.00832183046037e-07
49620000000,ground_plane,lar_ufba_room,husky,0.0,0.0,0.0,0.0,0.0,0.0,1.0,0.0,0.0,0.0,0.0,0.0,0.0,1.0,4.649657288964478,2.999668731564301,0.19228043572164372,2.2926337101001307e-06,2.3259077638579994e-06,-3.565944026322308e-05,0.9999999993588693,0.0,0.0,0.0,0.0,0.0,0.0,0.0,0.0,0.0,0.0,0.0,0.0,-1.5191639399160913e-06,7.929028636482657e-07,9.126444077494748e-07,-8.79489001156957e-07,-7.497629740513513e-07,2.0083566390767673e-07
49630000000,ground_plane,lar_ufba_room,husky,0.0,0.0,0.0,0.0,0.0,0.0,1.0,0.0,0.0,0.0,0.0,0.0,0.0,1.0,4.6496572745266125,2.9996687318527027,0.19228043567757935,2.2925992212983965e-06,2.3258342858388968e-06,-3.565905715297449e-05,0.9999999993588832,0.0,0.0,0.0,0.0,0.0,0.0,0.0,0.0,0.0,0.0,0.0,0.0,-1.519131490694703e-06,7.928993018673602e-07,9.126450912046741e-07,-8.794959034261048e-07,-7.497599708322672e-07,2.008391203555267e-07
49640000000,ground_plane,lar_ufba_room,husky,0.0,0.0,0.0,0.0,0.0,0.0,1.0,0.0,0.0,0.0,0.0,0.0,0.0,1.0,4.649657260089071,2.9996687321411106,0.1922804356335177,2.292564734791481e-06,2.325760812046916e-06,-3.565867405794102e-05,0.999999999358897,0.0,0.0,0.0,0.0,0.0,0.0,0.0,0.0,0.0,0.0,0.0,0.0,-1.5190990578276537e-06,7.928957410310635e-07,9.126457785908686e-07,-8.795028008124338e-07,-7.497569653931873e-07,2.0084256491705512e-07
49650000000,ground_plane,lar_ufba_room,husky,0.0,0.0,0.0,0.0,0.0,0.0,1.0,0.0,0.0,0.0,0.0,0.0,0.0,1.0,4.649657245651851,2.9996687324295253,0.1922804355894588,2.2925302505213254e-06,2.325687342398413e-06,-3.565829097807709e-05,0.9999999993589109,0.0,0.0,0.0,0.0,0.0,0.0,0.0,0.0,0.0,0.0,0.0,0.0,-1.5190666404981129e-06,7.92892174825752e-07,9.126464647388096e-07,-8.795097091599458e-07,-7.497539768988321e-07,2.0084601835701227e-07
49660000000,ground_plane,lar_ufba_room,husky,0.0,0.0,0.0,0.0,0.0,0.0,1.0,0.0,0.0,0.0,0.0,0.0,0.0,1.0,4.649657231214956,2.999668732717946,0.19228043554540253,2.2924957685246725e-06,2.32561387696133e-06,-3.565790791345968e-05,0.9999999993589248,0.0,0.0,0.0,0.0,0.0,0.0,0.0,0.0,0.0,0.0,0.0,0.0,-1.5190342121948381e-06,7.928886118949711e-07,9.126471493258797e-07,-8.795166096091226e-07,-7.497509748928557e-07,2.0084945613222633e-07
49670000000,ground_plane,lar_ufba_room,husky,0.0,0.0,0.0,0.0,0.0,0.0,1.0,0.0,0.0,0.0,0.0,0.0,0.0,1.0,4.649657216778384,2.999668733006373,0.192280435501349,2.2924612888220085e-06,2.3255404157693124e-06,-3.56575248640327e-05,0.9999999993589389,0.0,0.0,0.0,0.0,0.0,0.0,0.0,0.0,0.0,0.0,0.0,0.0,-1.519001785651073e-06,7.928850509885361e-07,9.126478371500827e-07,-8.795235054375208e-07,-7.497479663179244e-07,2.0085290487827586e-07
49680000000,ground_plane,lar_ufba_room,husky,0.0,0.0,0.0,0.0,0.0,0.0,1.0,0.0,0.0,0.0,0.0,0.0,0.0,1.0,4.649657202342135,2.999668733294807,0.19228043545729806,2.2924268113466967e-06,2.3254669586877673e-06,-3.565714182976196e-05,0.9999999993589526,0.0,0.0,0.0,0.0,0.0,0.0,0.0,0.0,0.0,0.0,0.0,0.0,-1.5189693779553955e-06,7.928814917687067e-07,9.126485217101179e-07,-8.795304139588385e-07,-7.497449847772644e-07,2.008563602098672e-07
49690000000,ground_plane,lar_ufba_room,husky,0.0,0.0,0.0,0.0,0.0,0.0,1.0,0.0,0.0,0.0,0.0,0.0,0.0,1.0,4.649657187906211,2.9996687335832473,0.19228043541324988,2.2923923361542184e-06,2.3253935058778788e-06,-3.565675881069798e-05,0.9999999993589667,0.0,0.0,0.0,0.0,0.0,0.0,0.0,0.0,0.0,0.0,0.0,0.0,-1.518936973178162e-06,7.928779306926852e-07,9.126492071231611e-07,-8.795373107348917e-07,-7.497419711168361e-07,2.0085980518777227e-07
49690000000,ground_plane,lar_ufba_room,husky,0.0,0.0,0.0,0.0,0.0,0.0,1.0,0.0,0.0,0.0,0.0,0.0,0.0,1.0,4.649657173470608,2.999668733871694,0.19228043536920436,2.2923578632408072e-06,2.3253200572877017e-06,-3.565637580670446e-05,0.9999999993589805,0.0,0.0,0.0,0.0,0.0,0.0,0.0,0.0,0.0,0.0,0.0,0.0,-1.518904581735131e-06,7.928743675953567e-07,9.126498926896865e-07,-8.795442077852296e-07,-7.497389679953511e-07,2.0086327716021984e-07
49710000000,ground_plane,lar_ufba_room,husky,0.0,0.0,0.0,0.0,0.0,0.0,1.0,0.0,0.0,0.0,0.0,0.0,0.0,1.0,4.64965715903533,2.9996687341601462,0.19228043532516154,2.2923233925474647e-06,2.3252466128015256e-06,-3.565599281787364e-05,0.9999999993589944,0.0,0.0,0.0,0.0,0.0,0.0,0.0,0.0,0.0,0.0,0.0,0.0,-1.5188721861946483e-06,7.928708059098016e-07,9.126505795677224e-07,-8.795511160562096e-07,-7.497359881592929e-07,2.0086673044452884e-07
49720000000,ground_plane,lar_ufba_room,husky,0.0,0.0,0.0,0.0,0.0,0.0,1.0,0.0,0.0,0.0,0.0,0.0,0.0,1.0,4.649657144600374,2.9996687344486057,0.1922804352811214,2.2922889241160953e-06,2.3251731725480505e-06,-3.565560984430577e-05,0.9999999993590083,0.0,0.0,0.0,0.0,0.0,0.0,0.0,0.0,0.0,0.0,0.0,0.0,-1.5188398111277072e-06,7.928672454577368e-07,9.126512630921003e-07,-8.795580152910113e-07,-7.497329826770669e-07,2.00870163416899e-07
49720000000,ground_plane,lar_ufba_room,husky,0.0,0.0,0.0,0.0,0.0,0.0,1.0,0.0,0.0,0.0,0.0,0.0,0.0,1.0,4.649657130165741,2.999668734737071,0.19228043523708396,2.292254458007788e-06,2.3250997365439687e-06,-3.565522688588714e-05,0.9999999993590222,0.0,0.0,0.0,0.0,0.0,0.0,0.0,0.0,0.0,0.0,0.0,0.0,-1.5188074304987925e-06,7.928636917519558e-07,9.12651950780578e-07,-8.795649017379553e-07,-7.497299740255353e-07,2.008736188760258e-07
49740000000,ground_plane,lar_ufba_room,husky,0.0,0.0,0.0,0.0,0.0,0.0,1.0,0.0,0.0,0.0,0.0,0.0,0.0,1.0,4.649657115731431,2.9996687350255433,0.19228043519304922,2.2922199941442736e-06,2.3250263047007888e-06,-3.565484394269586e-05,0.999999999359036,0.0,0.0,0.0,0.0,0.0,0.0,0.0,0.0,0.0,0.0,0.0,0.0,-1.5187750511094773e-06,7.928601294486566e-07,9.126526341249509e-07,-8.795718033188271e-07,-7.497269832312603e-07,2.0087705846436763e-07
49750000000,ground_plane,lar_ufba_room,husky,0.0,0.0,0.0,0.0,0.0,0.0,1.0,0.0,0.0,0.0,0.0,0.0,0.0,1.0,4.649657101297445,2.999668735314022,0.19228043514901713,2.2921855325188914e-06,2.324952877011612e-06,-3.565446101461709e-05,0.9999999993590499,0.0,0.0,0.0,0.0,0.0,0.0,0.0,0.0,0.0,0.0,0.0,0.0,-1.5187426877718498e-06,7.928565666957186e-07,9.126533207254022e-07,-8.795787055814811e-07,-7.497239938887131e-07,2.008805207678332e-07
49760000000,ground_plane,lar_ufba_room,husky,0.0,0.0,0.0,0.0,0.0,0.0,1.0,0.0,0.0,0.0,0.0,0.0,0.0,1.0,4.64965708686378,2.9996687356025067,0.19228043510498774,2.292151073195788e-06,2.324879453565208e-06,-3.565407810173232e-05,0.999999999359064,0.0,0.0,0.0,0.0,0.0,0.0,0.0,0.0,0.0,0.0,0.0,0.0,-1.5187103358592674e-06,7.92852999541186e-07,9.126540065196447e-07,-8.795855944589566e-07,-7.497209869586608e-07,2.0088396652547097e-07
49760000000,ground_plane,lar_ufba_room,husky,0.0,0.0,0.0,0.0,0.0,0.0,1.0,0.0,0.0,0.0,0.0,0.0,0.0,1.0,4.649657072430439,2.9996687358909977,0.19228043506096107,2.2921166160880844e-06,2.324806034344238e-06,-3.5653695204112226e-05,0.9999999993590779,0.0,0.0,0.0,0.0,0.0,0.0,0.0,0.0,0.0,0.0,0.0,0.0,-1.5186779821796658e-06,7.928494392624775e-07,9.126546923069986e-07,-8.795925001360555e-07,-7.497179836154674e-07,2.0088739788286093e-07
49770000000,ground_plane,lar_ufba_room,husky,0.0,0.0,0.0,0.0,0.0,0.0,1.0,0.0,0.0,0.0,0.0,0.0,0.0,1.0,4.64965705799742,2.999668736179495,0.19228043501693703,2.292082161259483e-06,2.3247326192442943e-06,-3.565331232165008e-05,0.9999999993590918,0.0,0.0,0.0,0.0,0.0,0.0,0.0,0.0,0.0,0.0,0.0,0.0,-1.51864564252083e-06,7.928458775627027e-07,9.126553766903313e-07,-8.795993924345761e-07,-7.497150013254778e-07,2.008908503444615e-07
49790000000,ground_plane,lar_ufba_room,husky,0.0,0.0,0.0,0.0,0.0,0.0,1.0,0.0,0.0,0.0,0.0,0.0,0.0,1.0,4.649657043564724,2.9996687364679993,0.1922804349729157,2.2920477087312335e-06,2.324659208378091e-06,-3.565292945428855e-05,0.9999999993591057,0.0,0.0,0.0,0.0,0.0,0.0,0.0,0.0,0.0,0.0,0.0,0.0,-1.5186132985250873e-06,7.9284232086026e-07,9.126560609648463e-07,-8.796062799475689e-07,-7.49711996536627e-07,2.008943140097359e-07
49800000000,ground_plane,lar_ufba_room,husky,0.0,0.0,0.0,0.0,0.0,0.0,1.0,0.0,0.0,0.0,0.0,0.0,0.0,1.0,4.64965702913235,2.9996687367565094,0.19228043492889707,2.292013258447021e-06,2.3245858017322183e-06,-3.5652546602134543e-05,0.9999999993591195,0.0,0.0,0.0,0.0,0.0,0.0,0.0,0.0,0.0,0.0,0.0,0.0,-1.5185809689633741e-06,7.92838759363428e-07,9.126567467030183e-07,-8.796131781366678e-07,-7.497089946454193e-07,2.0089775604173794e-07
49810000000,ground_plane,lar_ufba_room,husky,0.0,0.0,0.0,0.0,0.0,0.0,1.0,0.0,0.0,0.0,0.0,0.0,0.0,1.0,4.649657014700298,2.9996687370450257,0.1922804348848811,2.291978810408114e-06,2.324512399253291e-06,-3.565216376517181e-05,0.9999999993591334,0.0,0.0,0.0,0.0,0.0,0.0,0.0,0.0,0.0,0.0,0.0,0.0,-1.5185486508671708e-06,7.928352040342341e-07,9.12657433842889e-07,-8.796200755120372e-07,-7.497060035627029e-07,2.009012010739421e-07
49820000000,ground_plane,lar_ufba_room,husky,0.0,0.0,0.0,0.0,0.0,0.0,1.0,0.0,0.0,0.0,0.0,0.0,0.0,1.0,4.6496570002685695,2.9996687373335487,0.19228043484086782,2.2919443646478375e-06,2.324439001017203e-06,-3.5651780943382764e-05,0.9999999993591473,0.0,0.0,0.0,0.0,0.0,0.0,0.0,0.0,0.0,0.0,0.0,0.0,-1.5185163286958175e-06,7.928316436905317e-07,9.126581170087668e-07,-8.79626965621493e-07,-7.497029973699368e-07,2.0090464937389666e-07
49830000000,ground_plane,lar_ufba_room,husky,0.0,0.0,0.0,0.0,0.0,0.0,1.0,0.0,0.0,0.0,0.0,0.0,0.0,1.0,4.649656985837163,2.9996687376220783,0.19228043479685727,2.2919099211492624e-06,2.3243656069257063e-06,-3.565139813669719e-05,0.9999999993591612,0.0,0.0,0.0,0.0,0.0,0.0,0.0,0.0,0.0,0.0,0.0,0.0,-1.5184840124419949e-06,7.928280811939567e-07,9.126588033247286e-07,-8.796338584607951e-07,-7.497000109930418e-07,2.009081114630425e-07
49840000000,ground_plane,lar_ufba_room,husky,0.0,0.0,0.0,0.0,0.0,0.0,1.0,0.0,0.0,0.0,0.0,0.0,0.0,1.0,4.6496569714060785,2.9996687379106137,0.19228043475284934,2.291875479902237e-06,2.3242922169992427e-06,-3.56510153451327e-05,0.999999999359175,0.0,0.0,0.0,0.0,0.0,0.0,0.0,0.0,0.0,0.0,0.0,0.0,-1.518451715289363e-06,7.928245198676704e-07,9.126594885784639e-07,-8.796407528193662e-07,-7.496970206892771e-07,2.009115697706934e-07
49840000000,ground_plane,lar_ufba_room,husky,0.0,0.0,0.0,0.0,0.0,0.0,1.0,0.0,0.0,0.0,0.0,0.0,0.0,1.0,4.649656956975317,2.999668738199156,0.19228043470884415,2.2918410409399754e-06,2.324218831314923e-06,-3.565063256878887e-05,0.9999999993591889,0.0,0.0,0.0,0.0,0.0,0.0,0.0,0.0,0.0,0.0,0.0,0.0,-1.5184194075682695e-06,7.92820963159821e-07,9.12660172703138e-07,-8.796476399877939e-07,-7.496940150682171e-07,2.0091500790578302e-07
49860000000,ground_plane,lar_ufba_room,husky,0.0,0.0,0.0,0.0,0.0,0.0,1.0,0.0,0.0,0.0,0.0,0.0,0.0,1.0,4.649656942544877,2.9996687384877045,0.1922804346648416,2.2918066042391153e-06,2.3241454498164016e-06,-3.565024980757012e-05,0.9999999993592028,0.0,0.0,0.0,0.0,0.0,0.0,0.0,0.0,0.0,0.0,0.0,0.0,-1.518387119165636e-06,7.928174065298159e-07,9.126608568916725e-07,-8.796545311336721e-07,-7.496910208679856e-07,2.009184649220894e-07
49870000000,ground_plane,lar_ufba_room,husky,0.0,0.0,0.0,0.0,0.0,0.0,1.0,0.0,0.0,0.0,0.0,0.0,0.0,1.0,4.6496569281147595,2.9996687387762595,0.19228043462084177,2.2917721697939413e-06,2.3240720725221025e-06,-3.564986706152229e-05,0.9999999993592167,0.0,0.0,0.0,0.0,0.0,0.0,0.0,0.0,0.0,0.0,0.0,0.0,-1.5183548289484541e-06,7.928138501137853e-07,9.1266154390592e-07,-8.796614229922416e-07,-7.496880230925257e-07,2.0092191249866675e-07
49870000000,ground_plane,lar_ufba_room,husky,0.0,0.0,0.0,0.0,0.0,0.0,1.0,0.0,0.0,0.0,0.0,0.0,0.0,1.0,4.649656913684964,2.9996687390648207,0.19228043457684457,2.291737737574349e-06,2.323998699418267e-06,-3.564948433060759e-05,0.9999999993592308,0.0,0.0,0.0,0.0,0.0,0.0,0.0,0.0,0.0,0.0,0.0,0.0,-1.5183225506386855e-06,7.928102915766336e-07,9.126622262759824e-07,-8.796683201553664e-07,-7.496850281862261e-07,2.009253673898543e-07
49890000000,ground_plane,lar_ufba_room,husky,0.0,0.0,0.0,0.0,0.0,0.0,1.0,0.0,0.0,0.0,0.0,0.0,0.0,1.0,4.649656899255491,2.999668739353389,0.1922804345328501,2.2917033076575536e-06,2.323925330477481e-06,-3.564910161491412e-05,0.9999999993592444,0.0,0.0,0.0,0.0,0.0,0.0,0.0,0.0,0.0,0.0,0.0,0.0,-1.5182902897226919e-06,7.928067335477391e-07,9.126629133948736e-07,-8.796752013796465e-07,-7.496820389440709e-07,2.0092880440086865e-07
49900000000,ground_plane,lar_ufba_room,husky,0.0,0.0,0.0,0.0,0.0,0.0,1.0,0.0,0.0,0.0,0.0,0.0,0.0,1.0,4.649656884826339,2.999668739641963,0.1922804344888583,2.291668879984088e-06,2.3238519657618913e-06,-3.5648718914407e-05,0.9999999993592585,0.0,0.0,0.0,0.0,0.0,0.0,0.0,0.0,0.0,0.0,0.0,0.0,-1.5182580262627663e-06,7.928031703572651e-07,9.126635973216689e-07,-8.796820938211818e-07,-7.496790373988838e-07,2.0093224814671695e-07
49910000000,ground_plane,lar_ufba_room,husky,0.0,0.0,0.0,0.0,0.0,0.0,1.0,0.0,0.0,0.0,0.0,0.0,0.0,1.0,4.649656870397509,2.9996687399305433,0.19228043444486917,2.2916344545609023e-06,2.323778605190127e-06,-3.564833622902912e-05,0.9999999993592724,0.0,0.0,0.0,0.0,0.0,0.0,0.0,0.0,0.0,0.0,0.0,0.0,-1.5182257676570251e-06,7.927996116850994e-07,9.126642842512985e-07,-8.796889843948783e-07,-7.496760522137821e-07,2.0093570304304084e-07
49920000000,ground_plane,lar_ufba_room,husky,0.0,0.0,0.0,0.0,0.0,0.0,1.0,0.0,0.0,0.0,0.0,0.0,0.0,1.0,4.649656855969,2.99966874021913,0.19228043440088277,2.291600031440201e-06,2.3237052488788647e-06,-3.564795355877782e-05,0.9999999993592863,0.0,0.0,0.0,0.0,0.0,0.0,0.0,0.0,0.0,0.0,0.0,0.0,-1.518193515363458e-06,7.927960549536646e-07,9.126649691080506e-07,-8.796958638868938e-07,-7.496730438547204e-07,2.009391582309535e-07
49930000000,ground_plane,lar_ufba_room,husky,0.0,0.0,0.0,0.0,0.0,0.0,1.0,0.0,0.0,0.0,0.0,0.0,0.0,1.0,4.649656841540814,2.9996687405077234,0.19228043435689904,2.2915656105638527e-06,2.3236318967152543e-06,-3.564757090380221e-05,0.9999999993593002,0.0,0.0,0.0,0.0,0.0,0.0,0.0,0.0,0.0,0.0,0.0,0.0,-1.5181612698501785e-06,7.927924929719818e-07,9.126656521801164e-07,-8.797027544198004e-07,-7.49670058200996e-07,2.0094258334516354e-07
49940000000,ground_plane,lar_ufba_room,husky,0.0,0.0,0.0,0.0,0.0,0.0,1.0,0.0,0.0,0.0,0.0,0.0,0.0,1.0,4.649656827112949,2.9996687407963227,0.192280434312918,2.2915311919383683e-06,2.3235585487097637e-06,-3.564718826394636e-05,0.999999999359314,0.0,0.0,0.0,0.0,0.0,0.0,0.0,0.0,0.0,0.0,0.0,0.0,-1.5181290336625376e-06,7.927889410666104e-07,9.126663373208045e-07,-8.797096430329805e-07,-7.496670705746099e-07,2.0094603938965473e-07
49950000000,ground_plane,lar_ufba_room,husky,0.0,0.0,0.0,0.0,0.0,0.0,1.0,0.0,0.0,0.0,0.0,0.0,0.0,1.0,4.649656812685405,2.9996687410849283,0.19228043426893962,2.291496775577576e-06,2.323485204974972e-06,-3.56468056391663e-05,0.9999999993593279,0.0,0.0,0.0,0.0,0.0,0.0,0.0,0.0,0.0,0.0,0.0,0.0,-1.518096807390798e-06,7.927853869523203e-07,9.126670203735618e-07,-8.797165284147299e-07,-7.496640605630513e-07,2.0094950397408763e-07
49960000000,ground_plane,lar_ufba_room,husky,0.0,0.0,0.0,0.0,0.0,0.0,1.0,0.0,0.0,0.0,0.0,0.0,0.0,1.0,4.649656798258183,2.999668741373541,0.19228043422496396,2.291462361487595e-06,2.323411865390521e-06,-3.5646423029549755e-05,0.9999999993593418,0.0,0.0,0.0,0.0,0.0,0.0,0.0,0.0,0.0,0.0,0.0,0.0,-1.5180645802991106e-06,7.927818290418998e-07,9.126677054853044e-07,-8.797234118875385e-07,-7.496610747776551e-07,2.0095295076564736e-07
49970000000,ground_plane,lar_ufba_room,husky,0.0,0.0,0.0,0.0,0.0,0.0,1.0,0.0,0.0,0.0,0.0,0.0,0.0,1.0,4.649656783831283,2.99966874166216,0.19228043418099094,2.291427949613204e-06,2.3233385299992534e-06,-3.564604043503066e-05,0.9999999993593557,0.0,0.0,0.0,0.0,0.0,0.0,0.0,0.0,0.0,0.0,0.0,0.0,-1.5180323650305162e-06,7.927782719293531e-07,9.126683899934316e-07,-8.79730305874487e-07,-7.496580805707405e-07,2.0095641051478572e-07
49970000000,ground_plane,lar_ufba_room,husky,0.0,0.0,0.0,0.0,0.0,0.0,1.0,0.0,0.0,0.0,0.0,0.0,0.0,1.0,4.649656769404703,2.9996687419507846,0.19228043413702056,2.291393540067634e-06,2.323265198764247e-06,-3.564565785576233e-05,0.9999999993593696,0.0,0.0,0.0,0.0,0.0,0.0,0.0,0.0,0.0,0.0,0.0,0.0,-1.5180001474798782e-06,7.927747108768135e-07,9.126690724196773e-07,-8.797371765942423e-07,-7.496550938369541e-07,2.009598393405727e-07
49980000000,ground_plane,lar_ufba_room,husky,0.0,0.0,0.0,0.0,0.0,0.0,1.0,0.0,0.0,0.0,0.0,0.0,0.0,1.0,4.649656754978445,2.999668742239416,0.19228043409305295,2.2913591327544245e-06,2.3231918717630254e-06,-3.564527529167605e-05,0.9999999993593834,0.0,0.0,0.0,0.0,0.0,0.0,0.0,0.0,0.0,0.0,0.0,0.0,-1.5179679329283255e-06,7.927711567207359e-07,9.126697601647591e-07,-8.797440660817454e-07,-7.496520917309252e-07,2.0096328166077497e-07
49990000000,ground_plane,lar_ufba_room,husky,0.0,0.0,0.0,0.0,0.0,0.0,1.0,0.0,0.0,0.0,0.0,0.0,0.0,1.0,4.649656740552509,2.999668742528054,0.19228043404908793,2.291324727676375e-06,2.3231185489816745e-06,-3.564489274275408e-05,0.9999999993593973,0.0,0.0,0.0,0.0,0.0,0.0,0.0,0.0,0.0,0.0,0.0,0.0,-1.5179357494345877e-06,7.927676026543656e-07,9.126704420028036e-07,-8.797509543961241e-07,-7.496490925942911e-07,2.0096672728167865e-07
50000000000,ground_plane,lar_ufba_room,husky,0.0,0.0,0.0,0.0,0.0,0.0,1.0,0.0,0.0,0.0,0.0,0.0,0.0,1.0,4.649656726126894,2.999668742816698,0.19228043400512565,2.291290324892186e-06,2.3230452303246122e-06,-3.564451020896043e-05,0.9999999993594112,0.0,0.0,0.0,0.0,0.0,0.0,0.0,0.0,0.0,0.0,0.0,0.0,-1.5179035599925204e-06,7.927640461969214e-07,9.126711303117328e-07,-8.797578303457494e-07,-7.49646112653826e-07,2.0097017984153342e-07
50010000000,ground_plane,lar_ufba_room,husky,0.0,0.0,0.0,0.0,0.0,0.0,1.0,0.0,0.0,0.0,0.0,0.0,0.0,1.0,4.649656711701599,2.999668743105349,0.192280433961166,2.291255924337196e-06,2.3229719158873796e-06,-3.564412769033419e-05,0.9999999993594251,0.0,0.0,0.0,0.0,0.0,0.0,0.0,0.0,0.0,0.0,0.0,0.0,-1.5178713727474107e-06,7.927604874148613e-07,9.126718110585724e-07,-8.797647186752815e-07,-7.496431137633643e-07,2.00973624326476e-07
50030000000,ground_plane,lar_ufba_room,husky,0.0,0.0,0.0,0.0,0.0,0.0,1.0,0.0,0.0,0.0,0.0,0.0,0.0,1.0,4.649656697276625,2.999668743394006,0.19228043391720911,2.29122152607622e-06,2.3228986056547655e-06,-3.56437451868693e-05,0.999999999359439,0.0,0.0,0.0,0.0,0.0,0.0,0.0,0.0,0.0,0.0,0.0,0.0,-1.5178391855302691e-06,7.927569235942007e-07,9.126724990438082e-07,-8.797715934557094e-07,-7.496401180320838e-07,2.0097706977610725e-07
50040000000,ground_plane,lar_ufba_room,husky,0.0,0.0,0.0,0.0,0.0,0.0,1.0,0.0,0.0,0.0,0.0,0.0,0.0,1.0,4.649656682851973,2.9996687436826694,0.1922804338732549,2.291187130051786e-06,2.322825299613041e-06,-3.564336269854601e-05,0.9999999993594528,0.0,0.0,0.0,0.0,0.0,0.0,0.0,0.0,0.0,0.0,0.0,0.0,-1.5178070063133356e-06,7.927533650527667e-07,9.126731826708509e-07,-8.797784791300842e-07,-7.496371251797095e-07,2.0098051892434515e-07
50050000000,ground_plane,lar_ufba_room,husky,0.0,0.0,0.0,0.0,0.0,0.0,1.0,0.0,0.0,0.0,0.0,0.0,0.0,1.0,4.6496566684276415,2.999668743971339,0.19228043382930335,2.2911527363197586e-06,2.322751997750622e-06,-3.56429802253327e-05,0.9999999993594669,0.0,0.0,0.0,0.0,0.0,0.0,0.0,0.0,0.0,0.0,0.0,0.0,-1.517774855803093e-06,7.927498119668529e-07,9.126738667106633e-07,-8.797853531218128e-07,-7.496341347900795e-07,2.0098397414415162e-07
50050000000,ground_plane,lar_ufba_room,husky,0.0,0.0,0.0,0.0,0.0,0.0,1.0,0.0,0.0,0.0,0.0,0.0,0.0,1.0,4.64965665400363,2.999668744260015,0.1922804337853545,2.291118344826839e-06,2.32267870010723e-06,-3.56425977672331e-05,0.9999999993594806,0.0,0.0,0.0,0.0,0.0,0.0,0.0,0.0,0.0,0.0,0.0,0.0,-1.517742692635801e-06,7.927462563537104e-07,9.126745510526378e-07,-8.797922371128916e-07,-7.496311365888782e-07,2.0098742836646403e-07
50070000000,ground_plane,lar_ufba_room,husky,0.0,0.0,0.0,0.0,0.0,0.0,1.0,0.0,0.0,0.0,0.0,0.0,0.0,1.0,4.6496566395799395,2.9996687445486976,0.19228043374140838,2.291083955548347e-06,2.3226054066024072e-06,-3.5642215324372e-05,0.9999999993594947,0.0,0.0,0.0,0.0,0.0,0.0,0.0,0.0,0.0,0.0,0.0,0.0,-1.517710540967319e-06,7.927426984339554e-07,9.126752359748863e-07,-8.79799125508674e-07,-7.496281546011561e-07,2.0099085737192162e-07
50080000000,ground_plane,lar_ufba_room,husky,0.0,0.0,0.0,0.0,0.0,0.0,1.0,0.0,0.0,0.0,0.0,0.0,0.0,1.0,4.64965662515657,2.9996687448373867,0.19228043369746486,2.29104956860262e-06,2.3225321173044043e-06,-3.5641832896638506e-05,0.9999999993595083,0.0,0.0,0.0,0.0,0.0,0.0,0.0,0.0,0.0,0.0,0.0,0.0,-1.5176783897040078e-06,7.927391430230855e-07,9.126759170879408e-07,-8.798059896187552e-07,-7.496251590888163e-07,2.009943083034204e-07
50090000000,ground_plane,lar_ufba_room,husky,0.0,0.0,0.0,0.0,0.0,0.0,1.0,0.0,0.0,0.0,0.0,0.0,0.0,1.0,4.649656610733522,2.999668745126082,0.19228043365352407,2.2910151838590827e-06,2.322458832227793e-06,-3.564145048404932e-05,0.9999999993595222,0.0,0.0,0.0,0.0,0.0,0.0,0.0,0.0,0.0,0.0,0.0,0.0,-1.5176462615099423e-06,7.927355888195023e-07,9.126766041052591e-07,-8.798128792785705e-07,-7.496221608134523e-07,2.0099775565159023e-07
50090000000,ground_plane,lar_ufba_room,husky,0.0,0.0,0.0,0.0,0.0,0.0,1.0,0.0,0.0,0.0,0.0,0.0,0.0,1.0,4.649656596310793,2.9996687454147835,0.19228043360958597,2.290980801404888e-06,2.3223855513053395e-06,-3.5641068086616524e-05,0.9999999993595361,0.0,0.0,0.0,0.0,0.0,0.0,0.0,0.0,0.0,0.0,0.0,0.0,-1.517614121666998e-06,7.927320353431967e-07,9.12677285900271e-07,-8.798197509144938e-07,-7.49619176133358e-07,2.0100120032446394e-07
50110000000,ground_plane,lar_ufba_room,husky,0.0,0.0,0.0,0.0,0.0,0.0,1.0,0.0,0.0,0.0,0.0,0.0,0.0,1.0,4.649656581888386,2.999668745703491,0.1922804335656505,2.2909464211590157e-06,2.322312274534899e-06,-3.56406857043011e-05,0.99999999935955,0.0,0.0,0.0,0.0,0.0,0.0,0.0,0.0,0.0,0.0,0.0,0.0,-1.5175819968174188e-06,7.927284761497885e-07,9.12677968426258e-07,-8.798266382612401e-07,-7.49616191966668e-07,2.0100465254843433e-07
50120000000,ground_plane,lar_ufba_room,husky,0.0,0.0,0.0,0.0,0.0,0.0,1.0,0.0,0.0,0.0,0.0,0.0,0.0,1.0,4.649656567466298,2.9996687459922056,0.1922804335217177,2.290912043239652e-06,2.3222390019925633e-06,-3.564030333717517e-05,0.9999999993595639,0.0,0.0,0.0,0.0,0.0,0.0,0.0,0.0,0.0,0.0,0.0,0.0,-1.5175498831295243e-06,7.927249227447208e-07,9.126786528892327e-07,-8.798335012891528e-07,-7.496131927348238e-07,2.010080900914986e-07
50130000000,ground_plane,lar_ufba_room,husky,0.0,0.0,0.0,0.0,0.0,0.0,1.0,0.0,0.0,0.0,0.0,0.0,0.0,1.0,4.649656553044531,2.999668746280926,0.1922804334777876,2.2908776675321416e-06,2.3221657336369744e-06,-3.563992098521079e-05,0.9999999993595777,0.0,0.0,0.0,0.0,0.0,0.0,0.0,0.0,0.0,0.0,0.0,0.0,-1.5175177720310706e-06,7.927213679227924e-07,9.126793358631471e-07,-8.798403866511928e-07,-7.496102019383464e-07,2.0101153297803016e-07
50140000000,ground_plane,lar_ufba_room,husky,0.0,0.0,0.0,0.0,0.0,0.0,1.0,0.0,0.0,0.0,0.0,0.0,0.0,1.0,4.649656538623085,2.9996687465696534,0.19228043343386014,2.290843294106554e-06,2.322092469463576e-06,-3.563953864837263e-05,0.9999999993595916,0.0,0.0,0.0,0.0,0.0,0.0,0.0,0.0,0.0,0.0,0.0,0.0,-1.517485665361539e-06,7.927178143554451e-07,9.126800211698151e-07,-8.798472575009398e-07,-7.496072121382668e-07,2.0101498267400277e-07
50150000000,ground_plane,lar_ufba_room,husky,0.0,0.0,0.0,0.0,0.0,0.0,1.0,0.0,0.0,0.0,0.0,0.0,0.0,1.0,4.6496565242019585,2.999668746858387,0.19228043338993545,2.2908089229292474e-06,2.322019209453088e-06,-3.563915632667982e-05,0.9999999993596055,0.0,0.0,0.0,0.0,0.0,0.0,0.0,0.0,0.0,0.0,0.0,0.0,-1.5174535715635915e-06,7.927142549593201e-07,9.126807042229911e-07,-8.798541344046015e-07,-7.496042263492365e-07,2.0101842828644592e-07
50160000000,ground_plane,lar_ufba_room,husky,0.0,0.0,0.0,0.0,0.0,0.0,1.0,0.0,0.0,0.0,0.0,0.0,0.0,1.0,4.649656509781152,2.9996687471471266,0.19228043334601336,2.29077455402914e-06,2.321945953666585e-06,-3.563877402001247e-05,0.9999999993596194,0.0,0.0,0.0,0.0,0.0,0.0,0.0,0.0,0.0,0.0,0.0,0.0,-1.5174214821892194e-06,7.927107071167923e-07,9.126813888922094e-07,-8.798610050265782e-07,-7.496012284449934e-07,2.0102189762740242e-07
50170000000,ground_plane,lar_ufba_room,husky,0.0,0.0,0.0,0.0,0.0,0.0,1.0,0.0,0.0,0.0,0.0,0.0,0.0,1.0,4.649656495360666,2.9996687474358725,0.192280433302094,2.2907401873289903e-06,2.321872702016206e-06,-3.5638391728492126e-05,0.9999999993596332,0.0,0.0,0.0,0.0,0.0,0.0,0.0,0.0,0.0,0.0,0.0,0.0,-1.5173894062467978e-06,7.92707152596853e-07,9.126820724197348e-07,-8.798678904409845e-07,-7.495982483222225e-07,2.0102534240995583e-07
50180000000,ground_plane,lar_ufba_room,husky,0.0,0.0,0.0,0.0,0.0,0.0,1.0,0.0,0.0,0.0,0.0,0.0,0.0,1.0,4.649656480940499,2.999668747724625,0.19228043325817729,2.290705822944817e-06,2.3217994546042478e-06,-3.563800945212607e-05,0.9999999993596471,0.0,0.0,0.0,0.0,0.0,0.0,0.0,0.0,0.0,0.0,0.0,0.0,-1.5173573226969072e-06,7.927035987013088e-07,9.126827569398577e-07,-8.798747521421778e-07,-7.495952478073106e-07,2.0102878547005096e-07
50180000000,ground_plane,lar_ufba_room,husky,0.0,0.0,0.0,0.0,0.0,0.0,1.0,0.0,0.0,0.0,0.0,0.0,0.0,1.0,4.649656466520653,2.999668748013384,0.19228043321426325,2.2906714607853175e-06,2.321726211358797e-06,-3.56376271909036e-05,0.999999999359661,0.0,0.0,0.0,0.0,0.0,0.0,0.0,0.0,0.0,0.0,0.0,0.0,-1.5173252470541812e-06,7.927000383058682e-07,9.126834402338815e-07,-8.798816315155517e-07,-7.495922618056459e-07,2.010322304333972e-07
50200000000,ground_plane,lar_ufba_room,husky,0.0,0.0,0.0,0.0,0.0,0.0,1.0,0.0,0.0,0.0,0.0,0.0,0.0,1.0,4.6496564521011265,2.9996687483021494,0.1922804331703519,2.2906371009193196e-06,2.3216529723187447e-06,-3.5637244944851163e-05,0.9999999993596749,0.0,0.0,0.0,0.0,0.0,0.0,0.0,0.0,0.0,0.0,0.0,0.0,-1.5172931833875716e-06,7.926964868893951e-07,9.126841241895325e-07,-8.798884964466733e-07,-7.495892681969254e-07,2.0103566985198633e-07
50210000000,ground_plane,lar_ufba_room,husky,0.0,0.0,0.0,0.0,0.0,0.0,1.0,0.0,0.0,0.0,0.0,0.0,0.0,1.0,4.64965643768192,2.999668748590921,0.19228043312644327,2.290602743244913e-06,2.3215797374427107e-06,-3.5636862713837837e-05,0.9999999993596888,0.0,0.0,0.0,0.0,0.0,0.0,0.0,0.0,0.0,0.0,0.0,0.0,-1.517261134238506e-06,7.926929346608857e-07,9.12684806039762e-07,-8.79895381309977e-07,-7.495862829903574e-07,2.01039135208542e-07
50220000000,ground_plane,lar_ufba_room,husky,0.0,0.0,0.0,0.0,0.0,0.0,1.0,0.0,0.0,0.0,0.0,0.0,0.0,1.0,4.649656423263033,2.999668748879699,0.19228043308253728,2.2905683879130925e-06,2.3215065067392584e-06,-3.563648049808169e-05,0.9999999993597026,0.0,0.0,0.0,0.0,0.0,0.0,0.0,0.0,0.0,0.0,0.0,0.0,-1.5172290861028263e-06,7.92689381972871e-07,9.126854897270544e-07,-8.799022352555027e-07,-7.495832961847665e-07,2.0104255668522497e-07
50230000000,ground_plane,lar_ufba_room,husky,0.0,0.0,0.0,0.0,0.0,0.0,1.0,0.0,0.0,0.0,0.0,0.0,0.0,1.0,4.649656408844466,2.999668749168483,0.192280433038634,2.290534034767803e-06,2.321433280266907e-06,-3.5636098297422294e-05,0.9999999993597165,0.0,0.0,0.0,0.0,0.0,0.0,0.0,0.0,0.0,0.0,0.0,0.0,-1.5171970376261943e-06,7.926858221858285e-07,9.126861739291615e-07,-8.799091199114945e-07,-7.495802977982541e-07,2.0104600999593313e-07
50240000000,ground_plane,lar_ufba_room,husky,0.0,0.0,0.0,0.0,0.0,0.0,1.0,0.0,0.0,0.0,0.0,0.0,0.0,1.0,4.649656394426218,2.999668749457274,0.19228043299473338,2.290499683929447e-06,2.321360057946368e-06,-3.56357161118594e-05,0.9999999993597304,0.0,0.0,0.0,0.0,0.0,0.0,0.0,0.0,0.0,0.0,0.0,0.0,-1.5171650055984144e-06,7.926822714410895e-07,9.126868578182652e-07,-8.799159799204941e-07,-7.495773154304912e-07,2.010494631162908e-07
50250000000,ground_plane,lar_ufba_room,husky,0.0,0.0,0.0,0.0,0.0,0.0,1.0,0.0,0.0,0.0,0.0,0.0,0.0,1.0,4.64965638000829,2.999668749746071,0.1922804329508354,2.290465335297705e-06,2.3212868398189186e-06,-3.5635333941351954e-05,0.9999999993597443,0.0,0.0,0.0,0.0,0.0,0.0,0.0,0.0,0.0,0.0,0.0,0.0,-1.5171329678476152e-06,7.92678717844597e-07,9.126875394090779e-07,-8.799228593757922e-07,-7.495743249234109e-07,2.0105292418719707e-07
50260000000,ground_plane,lar_ufba_room,husky,0.0,0.0,0.0,0.0,0.0,0.0,1.0,0.0,0.0,0.0,0.0,0.0,0.0,1.0,4.6496563655906815,2.9996687500348744,0.19228043290694016,2.2904309889866726e-06,2.3212136259033277e-06,-3.563495178613304e-05,0.9999999993597581,0.0,0.0,0.0,0.0,0.0,0.0,0.0,0.0,0.0,0.0,0.0,0.0,-1.517100947560707e-06,7.926751674427321e-07,9.126882257478571e-07,-8.799297154549737e-07,-7.495713308209262e-07,2.0105633838700078e-07
50260000000,ground_plane,lar_ufba_room,husky,0.0,0.0,0.0,0.0,0.0,0.0,1.0,0.0,0.0,0.0,0.0,0.0,0.0,1.0,4.649656351173392,2.9996687503236843,0.19228043286304755,2.2903966448512535e-06,2.32114041612281e-06,-3.563456964603089e-05,0.999999999359772,0.0,0.0,0.0,0.0,0.0,0.0,0.0,0.0,0.0,0.0,0.0,0.0,-1.5170689206016303e-06,7.926716120209386e-07,9.126889067081454e-07,-8.799365999557002e-07,-7.495683521758044e-07,2.01059786690046e-07
50280000000,ground_plane,lar_ufba_room,husky,0.0,0.0,0.0,0.0,0.0,0.0,1.0,0.0,0.0,0.0,0.0,0.0,0.0,1.0,4.649656336756423,2.9996687506125004,0.19228043281915766,2.29036230303186e-06,2.321067210557521e-06,-3.563418752109254e-05,0.9999999993597859,0.0,0.0,0.0,0.0,0.0,0.0,0.0,0.0,0.0,0.0,0.0,0.0,-1.5170369178747843e-06,7.92668061528851e-07,9.126895911013397e-07,-8.799434558285295e-07,-7.495653576296542e-07,2.010632253374199e-07
50290000000,ground_plane,lar_ufba_room,husky,0.0,0.0,0.0,0.0,0.0,0.0,1.0,0.0,0.0,0.0,0.0,0.0,0.0,1.0,4.649656322339772,2.999668750901323,0.1922804327752704,2.290327963438413e-06,2.320994009165969e-06,-3.563380541119313e-05,0.9999999993597998,0.0,0.0,0.0,0.0,0.0,0.0,0.0,0.0,0.0,0.0,0.0,0.0,-1.517004918924718e-06,7.926645112972781e-07,9.126902740529426e-07,-8.799503290927117e-07,-7.495623715502421e-07,2.010666886947056e-07
50300000000,ground_plane,lar_ufba_room,husky,0.0,0.0,0.0,0.0,0.0,0.0,1.0,0.0,0.0,0.0,0.0,0.0,0.0,1.0,4.649656307923441,2.999668751190152,0.1922804327313859,2.290293626117523e-06,2.320920811985214e-06,-3.5633423316399786e-05,0.9999999993598137,0.0,0.0,0.0,0.0,0.0,0.0,0.0,0.0,0.0,0.0,0.0,0.0,-1.5169729237191583e-06,7.926609580821934e-07,9.126909579361269e-07,-8.799571924727985e-07,-7.495593781443052e-07,2.010701383841031e-07
50310000000,ground_plane,lar_ufba_room,husky,0.0,0.0,0.0,0.0,0.0,0.0,1.0,0.0,0.0,0.0,0.0,0.0,0.0,1.0,4.649656293507428,2.9996687514789873,0.192280432687504,2.290259291007574e-06,2.3208476189533716e-06,-3.563304123680454e-05,0.9999999993598275,0.0,0.0,0.0,0.0,0.0,0.0,0.0,0.0,0.0,0.0,0.0,0.0,-1.5169409301044176e-06,7.926574024768835e-07,9.126916390155665e-07,-8.799640676509408e-07,-7.495563972775728e-07,2.010735693985379e-07
50320000000,ground_plane,lar_ufba_room,husky,0.0,0.0,0.0,0.0,0.0,0.0,1.0,0.0,0.0,0.0,0.0,0.0,0.0,1.0,4.649656279091735,2.9996687517678287,0.1922804326436248,2.2902249582339634e-06,2.3207744301178753e-06,-3.563265917236146e-05,0.9999999993598412,0.0,0.0,0.0,0.0,0.0,0.0,0.0,0.0,0.0,0.0,0.0,0.0,-1.5169089400518681e-06,7.926538553426308e-07,9.126923239308376e-07,-8.799709171089091e-07,-7.495534070456401e-07,2.0107700937132596e-07
50330000000,ground_plane,lar_ufba_room,husky,0.0,0.0,0.0,0.0,0.0,0.0,1.0,0.0,0.0,0.0,0.0,0.0,0.0,1.0,4.649656264676361,2.9996687520566767,0.19228043259974828,2.2901906276669627e-06,2.320701245476498e-06,-3.56322771229376e-05,0.9999999993598551,0.0,0.0,0.0,0.0,0.0,0.0,0.0,0.0,0.0,0.0,0.0,0.0,-1.5168769583778054e-06,7.926503051310994e-07,9.126930041763607e-07,-8.799777918649642e-07,-7.49550417435551e-07,2.010804756673957e-07
50340000000,ground_plane,lar_ufba_room,husky,0.0,0.0,0.0,0.0,0.0,0.0,1.0,0.0,0.0,0.0,0.0,0.0,0.0,1.0,4.649656250261306,2.9996687523455314,0.1922804325558744,2.290156299342964e-06,2.3206280649343527e-06,-3.5631895088741046e-05,0.9999999993598689,0.0,0.0,0.0,0.0,0.0,0.0,0.0,0.0,0.0,0.0,0.0,0.0,-1.5168449862761962e-06,7.926467529004751e-07,9.12693689374867e-07,-8.799846588229799e-07,-7.495474468911227e-07,2.0108390009766333e-07
50350000000,ground_plane,lar_ufba_room,husky,0.0,0.0,0.0,0.0,0.0,0.0,1.0,0.0,0.0,0.0,0.0,0.0,0.0,1.0,4.64965623584657,2.999668752634392,0.19228043251200325,2.2901219732701665e-06,2.3205548886798305e-06,-3.5631513069647936e-05,0.9999999993598828,0.0,0.0,0.0,0.0,0.0,0.0,0.0,0.0,0.0,0.0,0.0,0.0,-1.51681302096922e-06,7.926431961704548e-07,9.12694374033842e-07,-8.799915236232444e-07,-7.49544438801489e-07,2.0108734904742596e-07
50360000000,ground_plane,lar_ufba_room,husky,0.0,0.0,0.0,0.0,0.0,0.0,1.0,0.0,0.0,0.0,0.0,0.0,0.0,1.0,4.649656221432152,2.999668752923259,0.19228043246813475,2.290087649495746e-06,2.3204817165669524e-06,-3.5631131065729956e-05,0.9999999993598967,0.0,0.0,0.0,0.0,0.0,0.0,0.0,0.0,0.0,0.0,0.0,0.0,-1.5167810623662964e-06,7.926396443962449e-07,9.126950542955724e-07,-8.79998378350274e-07,-7.495414600280215e-07,2.0109078340602338e-07
50370000000,ground_plane,lar_ufba_room,husky,0.0,0.0,0.0,0.0,0.0,0.0,1.0,0.0,0.0,0.0,0.0,0.0,0.0,1.0,4.649656207018054,2.9996687532121324,0.19228043242426895,2.2900533279645487e-06,2.3204085486627786e-06,-3.563074907687261e-05,0.9999999993599106,0.0,0.0,0.0,0.0,0.0,0.0,0.0,0.0,0.0,0.0,0.0,0.0,-1.5167491116372216e-06,7.926360927001363e-07,9.126957386071529e-07,-8.800052435398593e-07,-7.495384679828736e-07,2.010942404092719e-07
50380000000,ground_plane,lar_ufba_room,husky,0.0,0.0,0.0,0.0,0.0,0.0,1.0,0.0,0.0,0.0,0.0,0.0,0.0,1.0,4.649656192604274,2.9996687535010125,0.19228043238040582,2.290019008668411e-06,2.320335384888297e-06,-3.5630367103161904e-05,0.9999999993599245,0.0,0.0,0.0,0.0,0.0,0.0,0.0,0.0,0.0,0.0,0.0,0.0,-1.5167171785467454e-06,7.926325402706021e-07,9.126964220310299e-07,-8.80012109743786e-07,-7.495354919125293e-07,2.0109767996371522e-07
50390000000,ground_plane,lar_ufba_room,husky,0.0,0.0,0.0,0.0,0.0,0.0,1.0,0.0,0.0,0.0,0.0,0.0,0.0,1.0,4.649656178190813,2.9996687537898987,0.19228043233654535,2.2899846916075807e-06,2.320262225318646e-06,-3.5629985144586506e-05,0.9999999993599383,0.0,0.0,0.0,0.0,0.0,0.0,0.0,0.0,0.0,0.0,0.0,0.0,-1.516685234930815e-06,7.926289844693753e-07,9.126971035390764e-07,-8.800189753401428e-07,-7.495325009029004e-07,2.0110112152384087e-07
50400000000,ground_plane,lar_ufba_room,husky,0.0,0.0,0.0,0.0,0.0,0.0,1.0,0.0,0.0,0.0,0.0,0.0,0.0,1.0,4.64965616377767,2.999668754078791,0.1922804322926876,2.2899503768434814e-06,2.320189069945728e-06,-3.56296032010964e-05,0.9999999993599522,0.0,0.0,0.0,0.0,0.0,0.0,0.0,0.0,0.0,0.0,0.0,0.0,-1.5166533134229049e-06,7.926254348363489e-07,9.126977871423035e-07,-8.800258280553491e-07,-7.495295116494897e-07,2.0110457284383014e-07
50410000000,ground_plane,lar_ufba_room,husky,0.0,0.0,0.0,0.0,0.0,0.0,1.0,0.0,0.0,0.0,0.0,0.0,0.0,1.0,4.649656149364845,2.99966875436769,0.19228043224883246,2.289916064268281e-06,2.320115918741649e-06,-3.562922127277779e-05,0.9999999993599661,0.0,0.0,0.0,0.0,0.0,0.0,0.0,0.0,0.0,0.0,0.0,0.0,-1.5166213912835868e-06,7.926218854990647e-07,9.126984693636412e-07,-8.800327018102207e-07,-7.495265281279211e-07,2.0110800666266807e-07
50420000000,ground_plane,lar_ufba_room,husky,0.0,0.0,0.0,0.0,0.0,0.0,1.0,0.0,0.0,0.0,0.0,0.0,0.0,1.0,4.649656134952339,2.9996687546565957,0.19228043220498003,2.2898817539768006e-06,2.3200427717357282e-06,-3.5628839359532926e-05,0.99999999935998,0.0,0.0,0.0,0.0,0.0,0.0,0.0,0.0,0.0,0.0,0.0,0.0,-1.5165894767006355e-06,7.926183315405231e-07,9.126991514275252e-07,-8.800395559572483e-07,-7.495235388654911e-07,2.0111145979037479e-07
50430000000,ground_plane,lar_ufba_room,husky,0.0,0.0,0.0,0.0,0.0,0.0,1.0,0.0,0.0,0.0,0.0,0.0,0.0,1.0,4.649656120540151,2.9996687549455068,0.19228043216113028,2.2898474459576586e-06,2.319969628896581e-06,-3.5628457461367695e-05,0.9999999993599938,0.0,0.0,0.0,0.0,0.0,0.0,0.0,0.0,0.0,0.0,0.0,0.0,-1.5165575634454086e-06,7.926147820775155e-07,9.126998340855471e-07,-8.800464118244317e-07,-7.49520556020843e-07,2.0111491148020628e-07
50440000000,ground_plane,lar_ufba_room,husky,0.0,0.0,0.0,0.0,0.0,0.0,1.0,0.0,0.0,0.0,0.0,0.0,0.0,1.0,4.6496561061282815,2.999668755234425,0.19228043211728318,2.2898131401944516e-06,2.3198964902035757e-06,-3.5628075578352386e-05,0.9999999993600075,0.0,0.0,0.0,0.0,0.0,0.0,0.0,0.0,0.0,0.0,0.0,0.0,-1.5165256509562404e-06,7.926112290978282e-07,9.127005161386985e-07,-8.800532704074101e-07,-7.495175774524105e-07,2.0111834884760176e-07
50450000000,ground_plane,lar_ufba_room,husky,0.0,0.0,0.0,0.0,0.0,0.0,1.0,0.0,0.0,0.0,0.0,0.0,0.0,1.0,4.64965609171673,2.9996687555233494,0.19228043207343878,2.2897788366513658e-06,2.31982335569261e-06,-3.562769371039682e-05,0.9999999993600214,0.0,0.0,0.0,0.0,0.0,0.0,0.0,0.0,0.0,0.0,0.0,0.0,-1.5164937379681022e-06,7.926076769988856e-07,9.127012015026672e-07,-8.80060135552518e-07,-7.495145917697397e-07,2.0112180401610185e-07
50460000000,ground_plane,lar_ufba_room,husky,0.0,0.0,0.0,0.0,0.0,0.0,1.0,0.0,0.0,0.0,0.0,0.0,0.0,1.0,4.649656077305497,2.9996687558122797,0.19228043202959705,2.2897445353987502e-06,2.3197502254077028e-06,-3.562731185762846e-05,0.9999999993600353,0.0,0.0,0.0,0.0,0.0,0.0,0.0,0.0,0.0,0.0,0.0,0.0,-1.5164618584600513e-06,7.926041284555519e-07,9.127018819388124e-07,-8.800669860638709e-07,-7.495115974416457e-07,2.011252334356048e-07
50470000000,ground_plane,lar_ufba_room,husky,0.0,0.0,0.0,0.0,0.0,0.0,1.0,0.0,0.0,0.0,0.0,0.0,0.0,1.0,4.649656062894582,2.999668756101217,0.19228043198575803,2.2897102364158607e-06,2.319677099282185e-06,-3.5626930019946025e-05,0.9999999993600491,0.0,0.0,0.0,0.0,0.0,0.0,0.0,0.0,0.0,0.0,0.0,0.0,-1.5164299691235518e-06,7.9260057907596e-07,9.127025653049166e-07,-8.800738401250587e-07,-7.495086166185714e-07,2.0112868286361228e-07
50480000000,ground_plane,lar_ufba_room,husky,0.0,0.0,0.0,0.0,0.0,0.0,1.0,0.0,0.0,0.0,0.0,0.0,0.0,1.0,4.649656048483986,2.99966875639016,0.19228043194192165,2.2896759396410777e-06,2.3196039773259037e-06,-3.562654819745671e-05,0.999999999360063,0.0,0.0,0.0,0.0,0.0,0.0,0.0,0.0,0.0,0.0,0.0,0.0,-1.5163980864860345e-06,7.925970298231786e-07,9.127032475249163e-07,-8.800807059714813e-07,-7.495056339067997e-07,2.011321105940907e-07
50490000000,ground_plane,lar_ufba_room,husky,0.0,0.0,0.0,0.0,0.0,0.0,1.0,0.0,0.0,0.0,0.0,0.0,0.0,1.0,4.649656034073707,2.9996687566791103,0.1922804318980879,2.2896416451127514e-06,2.3195308595843666e-06,-3.5626166390053476e-05,0.9999999993600769,0.0,0.0,0.0,0.0,0.0,0.0,0.0,0.0,0.0,0.0,0.0,0.0,-1.5163662118910672e-06,7.925934790044007e-07,9.127039283607437e-07,-8.800875635178731e-07,-7.495026422672496e-07,2.0113555947475752e-07
50500000000,ground_plane,lar_ufba_room,husky,0.0,0.0,0.0,0.0,0.0,0.0,1.0,0.0,0.0,0.0,0.0,0.0,0.0,1.0,4.6496560196637455,2.9996687569680662,0.1922804318542569,2.289607352867402e-06,2.3194577459565165e-06,-3.56257845976895e-05,0.9999999993600908,0.0,0.0,0.0,0.0,0.0,0.0,0.0,0.0,0.0,0.0,0.0,0.0,-1.5163343554244997e-06,7.925899254663155e-07,9.127046107318891e-07,-8.800944131957016e-07,-7.494996710077327e-07,2.0113901748694304e-07
50510000000,ground_plane,lar_ufba_room,husky,0.0,0.0,0.0,0.0,0.0,0.0,1.0,0.0,0.0,0.0,0.0,0.0,0.0,1.0,4.649656005254103,2.9996687572570284,0.19228043181042853,2.289573062890874e-06,2.3193846365831482e-06,-3.5625402820439946e-05,0.9999999993601044,0.0,0.0,0.0,0.0,0.0,0.0,0.0,0.0,0.0,0.0,0.0,0.0,-1.516302494696448e-06,7.925863805443145e-07,9.127052948710058e-07,-8.801012651340924e-07,-7.494966716103704e-07,2.0114246018358152e-07
50510000000,ground_plane,lar_ufba_room,husky,0.0,0.0,0.0,0.0,0.0,0.0,1.0,0.0,0.0,0.0,0.0,0.0,0.0,1.0,4.649655990844777,2.9996687575459973,0.1922804317666029,2.289538775115353e-06,2.3193115313251632e-06,-3.562502105834508e-05,0.9999999993601183,0.0,0.0,0.0,0.0,0.0,0.0,0.0,0.0,0.0,0.0,0.0,0.0,-1.516270655500179e-06,7.925828328401141e-07,9.127059774563366e-07,-8.801081300366347e-07,-7.494937002384637e-07,2.0114589461166706e-07
50530000000,ground_plane,lar_ufba_room,husky,0.0,0.0,0.0,0.0,0.0,0.0,1.0,0.0,0.0,0.0,0.0,0.0,0.0,1.0,4.64965597643577,2.9996687578349728,0.1922804317227799,2.2895044896177614e-06,2.319238430297117e-06,-3.562463931125849e-05,0.9999999993601322,0.0,0.0,0.0,0.0,0.0,0.0,0.0,0.0,0.0,0.0,0.0,0.0,-1.516238805230912e-06,7.925792798547579e-07,9.127066580889277e-07,-8.801149789909192e-07,-7.494907060865331e-07,2.0114935804885509e-07
50540000000,ground_plane,lar_ufba_room,husky,0.0,0.0,0.0,0.0,0.0,0.0,1.0,0.0,0.0,0.0,0.0,0.0,0.0,1.0,4.649655962027079,2.999668758123954,0.19228043167895953,2.2894702063627393e-06,2.319165333389897e-06,-3.562425757938853e-05,0.999999999360146,0.0,0.0,0.0,0.0,0.0,0.0,0.0,0.0,0.0,0.0,0.0,0.0,-1.5162069709262653e-06,7.925757264669053e-07,9.127073404868833e-07,-8.801218344203201e-07,-7.494877338853979e-07,2.0115277955915397e-07
50550000000,ground_plane,lar_ufba_room,husky,0.0,0.0,0.0,0.0,0.0,0.0,1.0,0.0,0.0,0.0,0.0,0.0,0.0,1.0,4.649655947618707,2.999668758412942,0.19228043163514189,2.2894359253603298e-06,2.319092240712497e-06,-3.5623875862629e-05,0.9999999993601599,0.0,0.0,0.0,0.0,0.0,0.0,0.0,0.0,0.0,0.0,0.0,0.0,-1.5161751373466924e-06,7.925721763993928e-07,9.127080249530269e-07,-8.801286872822916e-07,-7.494847400190286e-07,2.0115622206282212e-07
50560000000,ground_plane,lar_ufba_room,husky,0.0,0.0,0.0,0.0,0.0,0.0,1.0,0.0,0.0,0.0,0.0,0.0,0.0,1.0,4.649655933210652,2.9996687587019366,0.1922804315913269,2.2894016465814876e-06,2.319019152184537e-06,-3.562349416099416e-05,0.9999999993601738,0.0,0.0,0.0,0.0,0.0,0.0,0.0,0.0,0.0,0.0,0.0,0.0,-1.516143316485331e-06,7.925686270702385e-07,9.127087034347621e-07,-8.801355454272178e-07,-7.494817623370824e-07,2.0115966146642645e-07
50570000000,ground_plane,lar_ufba_room,husky,0.0,0.0,0.0,0.0,0.0,0.0,1.0,0.0,0.0,0.0,0.0,0.0,0.0,1.0,4.649655918802914,2.999668758990937,0.19228043154751456,2.289367370110765e-06,2.318946067868742e-06,-3.5623112474484114e-05,0.9999999993601877,0.0,0.0,0.0,0.0,0.0,0.0,0.0,0.0,0.0,0.0,0.0,0.0,-1.5161114885975849e-06,7.925650768047426e-07,9.127093880215639e-07,-8.801423859898521e-07,-7.494787722456474e-07,2.0116310058911216e-07
50580000000,ground_plane,lar_ufba_room,husky,0.0,0.0,0.0,0.0,0.0,0.0,1.0,0.0,0.0,0.0,0.0,0.0,0.0,1.0,4.649655904395494,2.9996687592799436,0.19228043150370494,2.2893330958510497e-06,2.3188729877117032e-06,-3.562273080311813e-05,0.9999999993602016,0.0,0.0,0.0,0.0,0.0,0.0,0.0,0.0,0.0,0.0,0.0,0.0,-1.5160796762566435e-06,7.925615297391267e-07,9.127100702767029e-07,-8.801492453608087e-07,-7.49475792972323e-07,2.0116653562726667e-07
50590000000,ground_plane,lar_ufba_room,husky,0.0,0.0,0.0,0.0,0.0,0.0,1.0,0.0,0.0,0.0,0.0,0.0,0.0,1.0,4.64965588998839,2.999668759568957,0.19228043145989798,2.2892988238646033e-06,2.3187999117316174e-06,-3.5622349146763705e-05,0.9999999993602152,0.0,0.0,0.0,0.0,0.0,0.0,0.0,0.0,0.0,0.0,0.0,0.0,-1.5160478659931235e-06,7.925579841597054e-07,9.127107520838855e-07,-8.801560918001174e-07,-7.49472810233502e-07,2.011699968903009e-07
50590000000,ground_plane,lar_ufba_room,husky,0.0,0.0,0.0,0.0,0.0,0.0,1.0,0.0,0.0,0.0,0.0,0.0,0.0,1.0,4.649655875581604,2.9996687598579768,0.19228043141609366,2.2892645541141747e-06,2.318726839917133e-06,-3.5621967505602784e-05,0.9999999993602293,0.0,0.0,0.0,0.0,0.0,0.0,0.0,0.0,0.0,0.0,0.0,0.0,-1.5160160635703224e-06,7.925544351242347e-07,9.12711432867736e-07,-8.801629450103853e-07,-7.49469829836803e-07,2.011734215320331e-07
50610000000,ground_plane,lar_ufba_room,husky,0.0,0.0,0.0,0.0,0.0,0.0,1.0,0.0,0.0,0.0,0.0,0.0,0.0,1.0,4.649655861175136,2.999668760147003,0.19228043137229206,2.2892302866188804e-06,2.318653772291443e-06,-3.562158587946159e-05,0.999999999360243,0.0,0.0,0.0,0.0,0.0,0.0,0.0,0.0,0.0,0.0,0.0,0.0,-1.5159842697782513e-06,7.925508843547993e-07,9.127121152284284e-07,-8.801697939603967e-07,-7.494668449532196e-07,2.01176880665206e-07
50620000000,ground_plane,lar_ufba_room,husky,0.0,0.0,0.0,0.0,0.0,0.0,1.0,0.0,0.0,0.0,0.0,0.0,0.0,1.0,4.649655846768985,2.9996687604360353,0.19228043132849315,2.2891960213638005e-06,2.31858070884134e-06,-3.562120426834647e-05,0.9999999993602569,0.0,0.0,0.0,0.0,0.0,0.0,0.0,0.0,0.0,0.0,0.0,0.0,-1.515952496038392e-06,7.925473383364349e-07,9.127128004251019e-07,-8.801766451990105e-07,-7.494638628630884e-07,2.0118033827649465e-07
50630000000,ground_plane,lar_ufba_room,husky,0.0,0.0,0.0,0.0,0.0,0.0,1.0,0.0,0.0,0.0,0.0,0.0,0.0,1.0,4.64965583236315,2.999668760725074,0.19228043128469685,2.289161758358526e-06,2.3185076495644844e-06,-3.562082267234416e-05,0.9999999993602707,0.0,0.0,0.0,0.0,0.0,0.0,0.0,0.0,0.0,0.0,0.0,0.0,-1.5159207293576485e-06,7.925437891194186e-07,9.127134779415324e-07,-8.801834940018562e-07,-7.494608813716342e-07,2.0118377829663223e-07
50630000000,ground_plane,lar_ufba_room,husky,0.0,0.0,0.0,0.0,0.0,0.0,1.0,0.0,0.0,0.0,0.0,0.0,0.0,1.0,4.649655817957632,2.9996687610141186,0.19228043124090327,2.2891274976282993e-06,2.3184345944628286e-06,-3.562044109150577e-05,0.9999999993602846,0.0,0.0,0.0,0.0,0.0,0.0,0.0,0.0,0.0,0.0,0.0,0.0,-1.5158889596114822e-06,7.925402420745614e-07,9.127141626103231e-07,-8.801903371201528e-07,-7.494578996294297e-07,2.0118720783320857e-07
50640000000,ground_plane,lar_ufba_room,husky,0.0,0.0,0.0,0.0,0.0,0.0,1.0,0.0,0.0,0.0,0.0,0.0,0.0,1.0,4.649655803552432,2.99966876130317,0.1922804311971123,2.2890932391125334e-06,2.3183615435436127e-06,-3.562005952577386e-05,0.9999999993602983,0.0,0.0,0.0,0.0,0.0,0.0,0.0,0.0,0.0,0.0,0.0,0.0,-1.5158571937122251e-06,7.925366925575837e-07,9.127148396189174e-07,-8.801971918207556e-07,-7.494549165307958e-07,2.011906486124109e-07
50660000000,ground_plane,lar_ufba_room,husky,0.0,0.0,0.0,0.0,0.0,0.0,1.0,0.0,0.0,0.0,0.0,0.0,0.0,1.0,4.649655789147548,2.9996687615922277,0.19228043115332408,2.2890589828354416e-06,2.3182884968095866e-06,-3.5619677975116605e-05,0.9999999993603121,0.0,0.0,0.0,0.0,0.0,0.0,0.0,0.0,0.0,0.0,0.0,0.0,-1.515825435297083e-06,7.925331461404495e-07,9.127155254371496e-07,-8.802040411245359e-07,-7.494519330151258e-07,2.0119409550212123e-07
50660000000,ground_plane,lar_ufba_room,husky,0.0,0.0,0.0,0.0,0.0,0.0,1.0,0.0,0.0,0.0,0.0,0.0,0.0,1.0,4.649655774742981,2.999668761881292,0.1922804311095385,2.28902472884707e-06,2.318215454243755e-06,-3.561929643958103e-05,0.999999999360326,0.0,0.0,0.0,0.0,0.0,0.0,0.0,0.0,0.0,0.0,0.0,0.0,-1.5157936940076874e-06,7.925296022169391e-07,9.127162060570125e-07,-8.802108798067042e-07,-7.494489530664753e-07,2.0119753273497342e-07
50680000000,ground_plane,lar_ufba_room,husky,0.0,0.0,0.0,0.0,0.0,0.0,1.0,0.0,0.0,0.0,0.0,0.0,0.0,1.0,4.64965576033873,2.999668762170362,0.19228043106575557,2.2889904770940635e-06,2.3181424158250636e-06,-3.5618914919098494e-05,0.9999999993603399,0.0,0.0,0.0,0.0,0.0,0.0,0.0,0.0,0.0,0.0,0.0,0.0,-1.515761951698255e-06,7.925260491512784e-07,9.127168879285889e-07,-8.802177285644109e-07,-7.494459774622179e-07,2.012009834432876e-07
50690000000,ground_plane,lar_ufba_room,husky,0.0,0.0,0.0,0.0,0.0,0.0,1.0,0.0,0.0,0.0,0.0,0.0,0.0,1.0,4.649655745934796,2.999668762459439,0.19228043102197534,2.2889562275818186e-06,2.3180693815816606e-06,-3.5618533413805906e-05,0.9999999993603538,0.0,0.0,0.0,0.0,0.0,0.0,0.0,0.0,0.0,0.0,0.0,0.0,-1.5157302199888e-06,7.925225006231423e-07,9.127175693247982e-07,-8.802245757246489e-07,-7.494429963412008e-07,2.0120440651776596e-07
50700000000,ground_plane,lar_ufba_room,husky,0.0,0.0,0.0,0.0,0.0,0.0,1.0,0.0,0.0,0.0,0.0,0.0,0.0,1.0,4.649655731531178,2.9996687627485223,0.19228043097819777,2.28892198033813e-06,2.3179963515241386e-06,-3.561815192355727e-05,0.9999999993603674,0.0,0.0,0.0,0.0,0.0,0.0,0.0,0.0,0.0,0.0,0.0,0.0,-1.5156984862708629e-06,7.92518953192004e-07,9.127182503505402e-07,-8.80231416624297e-07,-7.4944001321882e-07,2.012078585414456e-07
50710000000,ground_plane,lar_ufba_room,husky,0.0,0.0,0.0,0.0,0.0,0.0,1.0,0.0,0.0,0.0,0.0,0.0,0.0,1.0,4.649655717127877,2.9996687630376115,0.19228043093442287,2.288887735316795e-06,2.3179233256677454e-06,-3.56177704483801e-05,0.9999999993603813,0.0,0.0,0.0,0.0,0.0,0.0,0.0,0.0,0.0,0.0,0.0,0.0,-1.515666762845589e-06,7.925154048204613e-07,9.127189306706676e-07,-8.802382662501143e-07,-7.494370272158088e-07,2.0121130481048316e-07
50720000000,ground_plane,lar_ufba_room,husky,0.0,0.0,0.0,0.0,0.0,0.0,1.0,0.0,0.0,0.0,0.0,0.0,0.0,1.0,4.649655702724893,2.9996687633267074,0.1922804308906506,2.2888534925951475e-06,2.3178503039361947e-06,-3.561738898834779e-05,0.9999999993603952,0.0,0.0,0.0,0.0,0.0,0.0,0.0,0.0,0.0,0.0,0.0,0.0,-1.5156350384826762e-06,7.925118613807625e-07,9.127196115013517e-07,-8.802450998624921e-07,-7.494340565837867e-07,2.012147361464356e-07
50720000000,ground_plane,lar_ufba_room,husky,0.0,0.0,0.0,0.0,0.0,0.0,1.0,0.0,0.0,0.0,0.0,0.0,0.0,1.0,4.649655688322224,2.9996687636158095,0.19228043084688104,2.2888192520519214e-06,2.3177772863903543e-06,-3.561700754343216e-05,0.9999999993604091,0.0,0.0,0.0,0.0,0.0,0.0,0.0,0.0,0.0,0.0,0.0,0.0,-1.515603320777978e-06,7.925083156322055e-07,9.127202957718943e-07,-8.80251957129897e-07,-7.494310738980545e-07,2.0121817286505636e-07
50730000000,ground_plane,lar_ufba_room,husky,0.0,0.0,0.0,0.0,0.0,0.0,1.0,0.0,0.0,0.0,0.0,0.0,0.0,1.0,4.649655673919872,2.999668763904918,0.19228043080311413,2.2887850137760535e-06,2.3177042730178843e-06,-3.561662611355144e-05,0.9999999993604229,0.0,0.0,0.0,0.0,0.0,0.0,0.0,0.0,0.0,0.0,0.0,0.0,-1.5155716160975772e-06,7.925047673324264e-07,9.127209764492072e-07,-8.802587960408057e-07,-7.494280938165595e-07,2.0122162568823964e-07
50750000000,ground_plane,lar_ufba_room,husky,0.0,0.0,0.0,0.0,0.0,0.0,1.0,0.0,0.0,0.0,0.0,0.0,0.0,1.0,4.649655659517837,2.999668764194033,0.19228043075934995,2.28875077778725e-06,2.3176312638173695e-06,-3.561624469873171e-05,0.9999999993604368,0.0,0.0,0.0,0.0,0.0,0.0,0.0,0.0,0.0,0.0,0.0,0.0,-1.515539912770434e-06,7.925012167728836e-07,9.127216578901752e-07,-8.802656303438936e-07,-7.494251141607258e-07,2.012250730519061e-07
50760000000,ground_plane,lar_ufba_room,husky,0.0,0.0,0.0,0.0,0.0,0.0,1.0,0.0,0.0,0.0,0.0,0.0,0.0,1.0,4.649655645116117,2.9996687644831543,0.19228043071558842,2.288716544035121e-06,2.317558258838136e-06,-3.561586329900812e-05,0.9999999993604505,0.0,0.0,0.0,0.0,0.0,0.0,0.0,0.0,0.0,0.0,0.0,0.0,-1.5155082279356532e-06,7.924976741885219e-07,9.127223393598821e-07,-8.802724742382882e-07,-7.494221247640685e-07,2.012285131189081e-07
50770000000,ground_plane,lar_ufba_room,husky,0.0,0.0,0.0,0.0,0.0,0.0,1.0,0.0,0.0,0.0,0.0,0.0,0.0,1.0,4.649655630714713,2.999668764772282,0.1922804306718295,2.2886823124531393e-06,2.317485257969887e-06,-3.561548191437341e-05,0.9999999993604644,0.0,0.0,0.0,0.0,0.0,0.0,0.0,0.0,0.0,0.0,0.0,0.0,-1.5154765402578378e-06,7.924941249045629e-07,9.127230190065273e-07,-8.802793309379963e-07,-7.494191575834523e-07,2.0123195440097664e-07
50780000000,ground_plane,lar_ufba_room,husky,0.0,0.0,0.0,0.0,0.0,0.0,1.0,0.0,0.0,0.0,0.0,0.0,0.0,1.0,4.649655616313627,2.9996687650614158,0.19228043062807337,2.288648083234563e-06,2.317412261330021e-06,-3.561510054490729e-05,0.9999999993604782,0.0,0.0,0.0,0.0,0.0,0.0,0.0,0.0,0.0,0.0,0.0,0.0,-1.5154448649591088e-06,7.924905797234715e-07,9.127237039694771e-07,-8.80286148257262e-07,-7.494161670171021e-07,2.0123537947589497e-07
50790000000,ground_plane,lar_ufba_room,husky,0.0,0.0,0.0,0.0,0.0,0.0,1.0,0.0,0.0,0.0,0.0,0.0,0.0,1.0,4.649655601912856,2.999668765350556,0.19228043058431982,2.288613856178465e-06,2.3173392688350343e-06,-3.561471919045655e-05,0.9999999993604921,0.0,0.0,0.0,0.0,0.0,0.0,0.0,0.0,0.0,0.0,0.0,0.0,-1.5154131973205739e-06,7.924870320778214e-07,9.127243807367771e-07,-8.802930052450263e-07,-7.494131933162994e-07,2.012388349544295e-07
50800000000,ground_plane,lar_ufba_room,husky,0.0,0.0,0.0,0.0,0.0,0.0,1.0,0.0,0.0,0.0,0.0,0.0,0.0,1.0,4.6496555875124,2.9996687656397025,0.19228043054056898,2.288579631376801e-06,2.31726628051611e-06,-3.5614337851088924e-05,0.999999999360506,0.0,0.0,0.0,0.0,0.0,0.0,0.0,0.0,0.0,0.0,0.0,0.0,-1.5153815412386234e-06,7.924834873836814e-07,9.127250650793838e-07,-8.802998432801851e-07,-7.494102135049087e-07,2.0124227663112173e-07
