%time,field.header.seq,field.header.stamp,field.header.frame_id,field.child_frame_id,field.pose.pose.position.x,field.pose.pose.position.y,field.pose.pose.position.z,field.pose.pose.orientation.x,field.pose.pose.orientation.y,field.pose.pose.orientation.z,field.pose.pose.orientation.w,field.pose.covariance0,field.pose.covariance1,field.pose.covariance2,field.pose.covariance3,field.pose.covariance4,field.pose.covariance5,field.pose.covariance6,field.pose.covariance7,field.pose.covariance8,field.pose.covariance9,field.pose.covariance10,field.pose.covariance11,field.pose.covariance12,field.pose.covariance13,field.pose.covariance14,field.pose.covariance15,field.pose.covariance16,field.pose.covariance17,field.pose.covariance18,field.pose.covariance19,field.pose.covariance20,field.pose.covariance21,field.pose.covariance22,field.pose.covariance23,field.pose.covariance24,field.pose.covariance25,field.pose.covariance26,field.pose.covariance27,field.pose.covariance28,field.pose.covariance29,field.pose.covariance30,field.pose.covariance31,field.pose.covariance32,field.pose.covariance33,field.pose.covariance34,field.pose.covariance35,field.twist.twist.linear.x,field.twist.twist.linear.y,field.twist.twist.linear.z,field.twist.twist.angular.x,field.twist.twist.angular.y,field.twist.twist.angular.z,field.twist.covariance0,field.twist.covariance1,field.twist.covariance2,field.twist.covariance3,field.twist.covariance4,field.twist.covariance5,field.twist.covariance6,field.twist.covariance7,field.twist.covariance8,field.twist.covariance9,field.twist.covariance10,field.twist.covariance11,field.twist.covariance12,field.twist.covariance13,field.twist.covariance14,field.twist.covariance15,field.twist.covariance16,field.twist.covariance17,field.twist.covariance18,field.twist.covariance19,field.twist.covariance20,field.twist.covariance21,field.twist.covariance22,field.twist.covariance23,field.twist.covariance24,field.twist.covariance25,field.twist.covariance26,field.twist.covariance27,field.twist.covariance28,field.twist.covariance29,field.twist.covariance30,field.twist.covariance31,field.twist.covariance32,field.twist.covariance33,field.twist.covariance34,field.twist.covariance35
208540000000,10417,208540000000,odom,base_link,-0.0006717222966819726,-7.548735118606214e-08,0.0,0.0,0.0,6.74098954931598e-05,0.999999997727953,10.421442882485046,-7.595672630518463e-11,0.0,0.0,0.0,2.6988608786822437e-07,-7.595672630518874e-11,10.421443563122523,0.0,0.0,0.0,-0.002318326746770728,0.0,0.0,4.995843713223107e-07,6.095374542055953e-30,2.4997472444719787e-20,0.0,0.0,0.0,6.095374542055951e-30,4.99170803751445e-07,-1.6156172921112977e-37,0.0,0.0,0.0,2.4997472444719787e-20,1.6082853169415946e-37,4.99170803751445e-07,0.0,2.698860878682275e-07,-0.0023183267467707584,0.0,0.0,0.0,12.500503718876093,-1.8193723962052068e-06,0.0,0.0,0.0,0.0,1.724214942397172e-07,0.0007641207008268566,0.0,0.0,0.0,0.0,0.0,0.0,0.0007641207008268566,0.0,0.0,0.0,0.0,0.0,0.0,4.993773312839096e-07,1.4775350381437908e-38,6.02944155067447e-29,0.0,0.0,0.0,1.477535038143791e-38,4.97536706696652e-07,-1.540529605716194e-45,0.0,0.0,0.0,6.02944155067447e-29,1.5330639046583966e-45,4.97536706696652e-07,0.0,0.0,0.0,0.0,0.0,0.0,9.999574935074395e-10
208560000000,10418,208560000000,odom,base_link,-0.0006717586852830644,-7.549225712105892e-08,0.0,0.0,0.0,6.741149072665703e-05,0.9999999977278454,10.422443307485173,-7.597792285980891e-11,0.0,0.0,0.0,2.699474159567508e-07,-7.597792285981302e-11,10.422443988291386,0.0,0.0,0.0,-0.002318781633219396,0.0,0.0,4.995843713223107e-07,4.2858303813908795e-29,2.499902310963276e-20,0.0,0.0,0.0,4.28583038139088e-29,4.99170803751445e-07,-4.5586688625934195e-37,0.0,0.0,0.0,2.4999023109632762e-20,4.5071124717352666e-37,4.99170803751445e-07,0.0,2.6994741595675394e-07,-0.0023187816332194263,0.0,0.0,0.0,12.501703728843268,-1.819485257977392e-06,0.0,0.0,0.0,0.0,1.2164605205783073e-07,0.0007641207008268917,0.0,0.0,0.0,0.0,0.0,0.0,0.0007641207008268917,0.0,0.0,0.0,0.0,0.0,0.0,4.993773312839096e-07,1.038896758588817e-37,6.029815574227386e-29,0.0,0.0,0.0,1.0388967585888166e-37,4.97536706696652e-07,-4.3141375972749814e-45,0.0,0.0,0.0,6.029815574227385e-29,4.254282494906186e-45,4.97536706696652e-07,0.0,0.0,0.0,0.0,0.0,0.0,9.999574935074395e-10
208580000000,10419,208580000000,odom,base_link,-0.0006717950761415787,-7.549716346726811e-08,0.0,0.0,0.0,6.741348772899376e-05,0.9999999977277109,10.4234437324853,-7.599912544111704e-11,0.0,0.0,0.0,2.7000875507331176e-07,-7.599912544112114e-11,10.423444413460293,0.0,0.0,0.0,-0.002319236591556255,0.0,0.0,4.995843713223119e-07,3.0250841137173165e-29,2.5000573947213178e-20,0.0,0.0,0.0,3.025084113717316e-29,4.991708037514474e-07,-3.776187531880916e-38,0.0,0.0,0.0,2.5000573947213175e-20,3.412262504120529e-38,4.991708037514474e-07,0.0,2.700087550733149e-07,-0.0023192365915562854,0.0,0.0,0.0,12.502903738810442,-1.8195981323281201e-06,0.0,0.0,0.0,0.0,4.355504835929995e-07,0.0007641207008274537,0.0,0.0,0.0,0.0,0.0,0.0,0.0007641207008274537,0.0,0.0,0.0,0.0,0.0,0.0,4.993773312839113e-07,7.332884856315322e-38,6.030189639427947e-29,0.0,0.0,0.0,7.332884856315322e-38,4.97536706696659e-07,-3.601694289979811e-46,0.0,0.0,0.0,6.030189639427944e-29,3.0046432579869172e-46,4.97536706696659e-07,0.0,0.0,0.0,0.0,0.0,0.0,9.999574935074393e-10
208600000000,10420,208600000000,odom,base_link,-0.0006718314692574423,-7.550207032029586e-08,0.0,0.0,0.0,6.741782961050488e-05,0.9999999977274181,10.424444157485425,-7.602033427241394e-11,0.0,0.0,0.0,2.700701064147138e-07,-7.602033427241805e-11,10.424444838629244,0.0,0.0,0.0,-0.0023196916217888396,0.0,0.0,0.0006009984372418835,7.849978499279323e-23,1.8136525631964315e-14,0.0,0.0,0.0,7.84997849927932e-23,0.0003009967822595707,-6.922767042899183e-31,0.0,0.0,0.0,1.8136525631964315e-14,6.922767042899183e-31,0.0003009967822595707,0.0,2.700701064147169e-07,-0.00231969162178887,0.0,0.0,0.0,12.504103758678584,-1.8197110110083574e-06,0.0,0.0,0.0,0.0,4.3282582654815567e-07,0.0007641207008268566,0.0,0.0,0.0,0.0,0.0,0.0,0.0007641207008268566,0.0,0.0,0.0,0.0,0.0,0.0,0.0004009976086776219,1.3303182215575945e-37,3.0245247142222036e-29,0.0,0.0,0.0,1.3303182215575939e-37,0.00010099014754404405,-1.5471795239687623e-44,0.0,0.0,0.0,3.0245247142222025e-29,1.5471789444060807e-44,0.00010099014754404405,0.0,0.0,0.0,0.0,0.0,0.0,0.00039867648344522693
208620000000,10421,208620000000,odom,base_link,-0.0006718678646309485,-7.550697778345148e-08,0.0,0.0,0.0,6.742081297827314e-05,0.999999997727217,10.425444582485552,-7.604154959491745e-11,0.0,0.0,0.0,2.701314712737154e-07,-7.604154959492153e-11,10.42544526379824,0.0,0.0,0.0,-0.0023201467239243006,0.0,0.0,4.995843713223107e-07,1.0083267148016117e-28,2.500367587313559e-20,0.0,0.0,0.0,1.0083267148016112e-28,4.99170803751445e-07,-1.6844998194552786e-36,0.0,0.0,0.0,2.500367587313558e-20,1.6723678970262478e-36,4.99170803751445e-07,0.0,2.701314712737185e-07,-0.002320146723924331,0.0,0.0,0.0,12.50530375874479,-1.8198238992238968e-06,0.0,0.0,0.0,0.0,4.097286040401637e-09,0.0007641207008268917,0.0,0.0,0.0,0.0,0.0,0.0,0.0007641207008268917,0.0,0.0,0.0,0.0,0.0,0.0,4.993773312839096e-07,2.444210964992949e-37,6.030937830313533e-29,0.0,0.0,0.0,2.444210964992949e-37,4.97536706696652e-07,-1.581750930463838e-44,0.0,0.0,0.0,6.030937830313532e-29,1.5698054455702767e-44,4.97536706696652e-07,0.0,0.0,0.0,0.0,0.0,0.0,9.999574935074395e-10
208640000000,10422,208640000000,odom,base_link,-0.0006719042622623903,-7.551188570003411e-08,0.0,0.0,0.0,6.742206021480658e-05,0.9999999977271329,10.426445007485677,-7.606277104669635e-11,0.0,0.0,0.0,2.701928476919776e-07,-7.60627710467004e-11,10.426445688967279,0.0,0.0,0.0,-0.002320601897970765,0.0,0.0,4.995843713223107e-07,1.0577070386445763e-30,2.500522706826891e-20,0.0,0.0,0.0,1.0577070386445759e-30,4.99170803751445e-07,-1.2445516892585664e-38,0.0,0.0,0.0,2.500522706826891e-20,1.2318248461928395e-38,4.99170803751445e-07,0.0,2.701928476919807e-07,-0.002320601897970795,0.0,0.0,0.0,12.506503768711962,-1.8199367995760384e-06,0.0,0.0,0.0,0.0,4.880726459204026e-07,0.0007641207008267162,0.0,0.0,0.0,0.0,0.0,0.0,0.0007641207008267162,0.0,0.0,0.0,0.0,0.0,0.0,4.993773312839096e-07,2.5639093709470293e-39,6.031311981756272e-29,0.0,0.0,0.0,2.56390937094703e-39,4.97536706696652e-07,-1.1915075648402751e-46,0.0,0.0,0.0,6.031311981756275e-29,1.1728160408083468e-46,4.97536706696652e-07,0.0,0.0,0.0,0.0,0.0,0.0,9.999574935074395e-10
208660000000,10423,208660000000,odom,base_link,-0.0006719406621520614,-7.55167941000028e-08,0.0,0.0,0.0,6.742692557846302e-05,0.9999999977268048,10.427445432485804,-7.608399869881125e-11,0.0,0.0,0.0,2.702542360452816e-07,-7.608399869881524e-11,10.427446114136362,0.0,0.0,0.0,-0.002321057143936851,0.0,0.0,0.0006009984372418835,8.797879008132874e-23,1.813990135286169e-14,0.0,0.0,0.0,8.797879008132874e-23,0.00030099678225957075,-7.390960976782969e-31,0.0,0.0,0.0,1.8139901352861693e-14,7.390960976782969e-31,0.00030099678225957075,0.0,2.702542360452847e-07,-0.0023210571439368816,0.0,0.0,0.0,12.507703788580105,-1.8200497133706002e-06,0.0,0.0,0.0,0.0,4.850001332148205e-07,0.0007641207008268566,0.0,0.0,0.0,0.0,0.0,0.0,0.0007641207008268566,0.0,0.0,0.0,0.0,0.0,0.0,0.0004009976086776219,1.4909855447934185e-37,3.0250876491518894e-29,0.0,0.0,0.0,1.4909855447934187e-37,0.00010099014754404407,6.599150612032675e-45,0.0,0.0,0.0,3.0250876491518894e-29,-6.71854853860218e-45,0.00010099014754404407,0.0,0.0,0.0,0.0,0.0,0.0,0.0003986764834457879
208680000000,10424,208680000000,odom,base_link,-0.0006719770642999614,-7.552170303607541e-08,0.0,0.0,0.0,6.742757557318626e-05,0.9999999977267611,10.428445857485931,-7.610523267526892e-11,0.0,0.0,0.0,2.7031563699447444e-07,-7.610523267527292e-11,10.428446539305488,0.0,0.0,0.0,-0.00232151246183049,0.0,0.0,0.0006009984372435888,2.689967340163562e-23,1.8141026788887077e-14,0.0,0.0,0.0,2.6899673401635623e-23,0.00030099678226042336,7.111179156580337e-33,0.0,0.0,0.0,1.814102678888708e-14,-7.111179156580337e-33,0.00030099678226042336,0.0,2.703156369944776e-07,-0.002321512461830521,0.0,0.0,0.0,12.50890379854728,-1.8201626337865733e-06,0.0,0.0,0.0,0.0,1.4828046426431114e-07,0.000764120700827445,0.0,0.0,0.0,0.0,0.0,0.0,0.000764120700827445,0.0,0.0,0.0,0.0,0.0,0.0,0.00040099760867875876,4.556429165145762e-38,3.0252753352347255e-29,0.0,0.0,0.0,4.556429165145761e-38,0.00010099014754432826,-3.087190873711051e-46,0.0,0.0,0.0,3.0252753352347255e-29,2.9879915465630106e-46,0.00010099014754432826,0.0,0.0,0.0,0.0,0.0,0.0,0.0003986764834457954
208700000000,10425,208700000000,odom,base_link,-0.0006720134687063839,-7.552661254133434e-08,0.0,0.0,0.0,6.743274817552094e-05,0.9999999977264122,10.429446282486056,-7.6126473054471e-11,0.0,0.0,0.0,2.703770509545116e-07,-7.612647305447503e-11,10.429446964474655,0.0,0.0,0.0,-0.0023219678516592647,0.0,0.0,4.995843713223107e-07,1.4386370166494524e-28,2.5009881536443387e-20,0.0,0.0,0.0,1.4386370166494515e-28,4.99170803751445e-07,-2.035309659165907e-36,0.0,0.0,0.0,2.5009881536443384e-20,2.017996060140396e-36,4.99170803751445e-07,0.0,2.7037705095451477e-07,-0.0023219678516592955,0.0,0.0,0.0,12.510103798613484,-1.820275564886426e-06,0.0,0.0,0.0,0.0,-9.539887125220089e-08,0.0007641207008268545,0.0,0.0,0.0,0.0,0.0,0.0,0.0007641207008268545,0.0,0.0,0.0,0.0,0.0,0.0,4.993773312839096e-07,3.487294665587395e-37,6.03243464901258e-29,0.0,0.0,0.0,3.4872946655873945e-37,4.97536706696652e-07,-1.9605968367254267e-44,0.0,0.0,0.0,6.032434649012582e-29,1.9367319816832364e-44,4.97536706696652e-07,0.0,0.0,0.0,0.0,0.0,0.0,9.999574935074395e-10
208720000000,10426,208720000000,odom,base_link,-0.000672049875371402,-7.553152252694841e-08,0.0,0.0,0.0,6.743179814435826e-05,0.9999999977264763,10.430446707486183,-7.614771963181715e-11,0.0,0.0,0.0,2.704384768155595e-07,-7.614771963182119e-11,10.430447389643868,0.0,0.0,0.0,-0.0023224233134308235,0.0,0.0,0.0006009984372418835,-1.7164920418854818e-23,1.8143277944698073e-14,0.0,0.0,0.0,-1.7164920418854818e-23,0.00030099678225957075,5.949362141707348e-32,0.0,0.0,0.0,1.814327794469807e-14,-5.949362141707348e-32,0.00030099678225957075,0.0,2.7043847681556266e-07,-0.0023224233134308547,0.0,0.0,0.0,12.511303818481627,-1.8203885030956509e-06,0.0,0.0,0.0,0.0,-9.460733998186358e-08,0.0007641207008268913,0.0,0.0,0.0,0.0,0.0,0.0,0.0007641207008268913,0.0,0.0,0.0,0.0,0.0,0.0,0.0004009976086776219,-2.9134885743993864e-38,3.025650747107177e-29,0.0,0.0,0.0,-2.913488574399387e-38,0.00010099014754404407,9.440568000602236e-46,0.0,0.0,0.0,3.025650747107178e-29,-9.490535956988385e-46,0.00010099014754404407,0.0,0.0,0.0,0.0,0.0,0.0,0.0003986764834457879
208740000000,10427,208740000000,odom,base_link,-0.0006720862842955293,-7.553643291567862e-08,0.0,0.0,0.0,6.743600139942604e-05,0.9999999977261929,10.43144713248631,-7.61689722293694e-11,0.0,0.0,0.0,2.7049991361198273e-07,-7.616897222937346e-11,10.431447814813126,0.0,0.0,0.0,-0.002322878847153542,0.0,0.0,4.995843713223119e-07,9.101599275435269e-29,2.5012985194144773e-20,0.0,0.0,0.0,9.101599275435268e-29,4.991708037514474e-07,-1.2570735349859931e-36,0.0,0.0,0.0,2.5012985194144773e-20,1.2461186523914107e-36,4.991708037514474e-07,0.0,2.704999136119859e-07,-0.0023228788471535734,0.0,0.0,0.0,12.512503818547833,-1.8205014578357632e-06,0.0,0.0,0.0,0.0,1.2513917016262453e-07,0.0007641207008274537,0.0,0.0,0.0,0.0,0.0,0.0,0.0007641207008274537,0.0,0.0,0.0,0.0,0.0,0.0,4.993773312839113e-07,2.206252041368769e-37,6.03318325760685e-29,0.0,0.0,0.0,2.2062520413687675e-37,4.97536706696659e-07,-1.1864160175672815e-44,0.0,0.0,0.0,6.033183257606845e-29,1.1762136214875352e-44,4.97536706696659e-07,0.0,0.0,0.0,0.0,0.0,0.0,9.999574935074393e-10
208760000000,10428,208760000000,odom,base_link,-0.0006721226954787652,-7.554134378770062e-08,0.0,0.0,0.0,6.743725905495845e-05,0.999999997726108,10.432447557486435,-7.619023103494411e-11,0.0,0.0,0.0,2.7056136234835455e-07,-7.619023103494814e-11,10.432448239982424,0.0,0.0,0.0,-0.002323334452835934,0.0,0.0,4.995843713223107e-07,3.113572111872797e-29,2.5014537248809233e-20,0.0,0.0,0.0,3.113572111872797e-29,4.99170803751445e-07,-3.5817482995310966e-38,0.0,0.0,0.0,2.5014537248809233e-20,3.206968744068403e-38,4.99170803751445e-07,0.0,2.7056136234835773e-07,-0.002323334452835965,0.0,0.0,0.0,12.513703828515006,-1.8206144207400436e-06,0.0,0.0,0.0,0.0,1.2832640283338667e-07,0.0007641207008268566,0.0,0.0,0.0,0.0,0.0,0.0,0.0007641207008268566,0.0,0.0,0.0,0.0,0.0,0.0,4.993773312839096e-07,7.547382138687173e-38,6.033557616370355e-29,0.0,0.0,0.0,7.547382138687173e-38,4.97536706696652e-07,-3.767801697000886e-46,0.0,0.0,0.0,6.033557616370355e-29,3.511448245732817e-46,4.97536706696652e-07,0.0,0.0,0.0,0.0,0.0,0.0,9.999574935074395e-10
208780000000,10429,208780000000,odom,base_link,-0.0006721591089212569,-7.554625505660603e-08,0.0,0.0,0.0,6.743909831969477e-05,0.999999997725984,10.433447982486562,-7.621149584929853e-11,0.0,0.0,0.0,2.706228219445495e-07,-7.621149584930257e-11,10.43344866515177,0.0,0.0,0.0,-0.002323790130485411,0.0,0.0,4.995843713223107e-07,3.192969389004162e-29,2.5016089409652485e-20,0.0,0.0,0.0,3.1929693890041604e-29,4.99170803751445e-07,-4.7950046372496855e-37,0.0,0.0,0.0,2.5016089409652485e-20,4.756568594691754e-37,4.99170803751445e-07,0.0,2.706228219445527e-07,-0.0023237901304854424,0.0,0.0,0.0,12.51490383848218,-1.8207273913688684e-06,0.0,0.0,0.0,0.0,3.521605240201195e-07,0.0007641207008268917,0.0,0.0,0.0,0.0,0.0,0.0,0.0007641207008268917,0.0,0.0,0.0,0.0,0.0,0.0,4.993773312839096e-07,7.73984326086541e-38,6.033932000745033e-29,0.0,0.0,0.0,7.739843260865405e-38,4.97536706696652e-07,-4.5672267473024384e-45,0.0,0.0,0.0,6.033932000745032e-29,4.503056965746366e-45,4.97536706696652e-07,0.0,0.0,0.0,0.0,0.0,0.0,9.999574935074395e-10
208800000000,10430,208800000000,odom,base_link,-0.000672195524623444,-7.55511668050003e-08,0.0,0.0,0.0,6.744270827801882e-05,0.9999999977257406,10.43444840748669,-7.623276686581174e-11,0.0,0.0,0.0,2.7068429343500065e-07,-7.623276686581574e-11,10.43444909032116,0.0,0.0,0.0,-0.0023242458801102316,0.0,0.0,4.995843713223119e-07,8.75589967058028e-29,2.5017641775806676e-20,0.0,0.0,0.0,8.755899670580283e-29,4.991708037514474e-07,-2.0126655951204577e-37,0.0,0.0,0.0,2.5017641775806667e-20,1.9072580649435035e-37,4.991708037514474e-07,0.0,2.706842934350038e-07,-0.002324245880110263,0.0,0.0,0.0,12.516103848449355,-1.8208403769596895e-06,0.0,0.0,0.0,0.0,3.898061025576512e-07,0.0007641207008274537,0.0,0.0,0.0,0.0,0.0,0.0,0.0007641207008274537,0.0,0.0,0.0,0.0,0.0,0.0,4.993773312839113e-07,2.1224535313592104e-37,6.034306434640644e-29,0.0,0.0,0.0,2.12245353135921e-37,4.97536706696659e-07,-1.903638646813353e-45,0.0,0.0,0.0,6.034306434640641e-29,1.7839278422030744e-45,4.97536706696659e-07,0.0,0.0,0.0,0.0,0.0,0.0,9.999574935074393e-10
208820000000,10431,208820000000,odom,base_link,-0.0006722319425852531,-7.555607912796185e-08,0.0,0.0,0.0,6.74465942300146e-05,0.9999999977254784,10.435448832486815,-7.625404430715663e-11,0.0,0.0,0.0,2.707457780113566e-07,-7.625404430716065e-11,10.435449515490589,0.0,0.0,0.0,-0.0023247017017183854,0.0,0.0,0.0006009984372418835,7.030621416971862e-23,1.8148907744742923e-14,0.0,0.0,0.0,7.030621416971861e-23,0.0003009967822595707,-1.0049715493470004e-31,0.0,0.0,0.0,1.8148907744742923e-14,1.0049715493470004e-31,0.0003009967822595707,0.0,2.7074577801135977e-07,-0.0023247017017184166,0.0,0.0,0.0,12.517303868317496,-1.8209533680706392e-06,0.0,0.0,0.0,0.0,3.873842982932324e-07,0.0007641207008268566,0.0,0.0,0.0,0.0,0.0,0.0,0.0007641207008268566,0.0,0.0,0.0,0.0,0.0,0.0,0.0004009976086776219,1.191468514710419e-37,3.02658958146979e-29,0.0,0.0,0.0,1.1914685147104186e-37,0.00010099014754404405,-1.0712580777382377e-45,0.0,0.0,0.0,3.026589581469789e-29,1.071246462059911e-45,0.00010099014754404405,0.0,0.0,0.0,0.0,0.0,0.0,0.00039867648344522693
208840000000,10432,208840000000,odom,base_link,-0.0006722683628070512,-7.556099194172602e-08,0.0,0.0,0.0,6.744682781494325e-05,0.9999999977254627,10.436449257486942,-7.627532798018712e-11,0.0,0.0,0.0,2.708072746261268e-07,-7.62753279801911e-11,10.436449940660063,0.0,0.0,0.0,-0.002325157595317487,0.0,0.0,4.995843713223107e-07,3.0253672195036477e-29,2.5020746825213944e-20,0.0,0.0,0.0,3.0253672195036465e-29,4.99170803751445e-07,-5.44035522377533e-38,0.0,0.0,0.0,2.5020746825213926e-20,5.07610245965828e-38,4.99170803751445e-07,0.0,2.7080727462612997e-07,-0.0023251575953175184,0.0,0.0,0.0,12.518503868383702,-1.8210663711790523e-06,0.0,0.0,0.0,0.0,-6.0748542677951105e-09,0.0007641207008268917,0.0,0.0,0.0,0.0,0.0,0.0,0.0007641207008268917,0.0,0.0,0.0,0.0,0.0,0.0,4.993773312839096e-07,7.333571116751572e-38,6.035055378917058e-29,0.0,0.0,0.0,7.333571116751571e-38,4.97536706696652e-07,-4.651273814675086e-46,0.0,0.0,0.0,6.035055378917058e-29,4.5427890086163626e-46,4.97536706696652e-07,0.0,0.0,0.0,0.0,0.0,0.0,9.999574935074395e-10
208860000000,10433,208860000000,odom,base_link,-0.0006723047852890582,-7.556590510239711e-08,0.0,0.0,0.0,6.744774009563661e-05,0.9999999977254012,10.437449682487069,-7.629661755184104e-11,0.0,0.0,0.0,2.70868781479108e-07,-7.629661755184503e-11,10.437450365829584,0.0,0.0,0.0,-0.002325613560915903,0.0,0.0,4.995843713223119e-07,-1.4700477739858296e-30,2.502229959021123e-20,0.0,0.0,0.0,-1.4700477739858303e-30,4.991708037514474e-07,-1.6259918925186184e-38,0.0,0.0,0.0,2.502229959021122e-20,1.6436922957335763e-38,4.991708037514474e-07,0.0,2.708687814791112e-07,-0.002325613560915934,0.0,0.0,0.0,12.519703878350876,-1.8211793857911033e-06,0.0,0.0,0.0,0.0,3.8422908300719163e-07,0.0007641207008274537,0.0,0.0,0.0,0.0,0.0,0.0,0.0007641207008274537,0.0,0.0,0.0,0.0,0.0,0.0,4.993773312839113e-07,-3.563436080184828e-39,6.035429909014541e-29,0.0,0.0,0.0,-3.563436080184829e-39,4.97536706696659e-07,-1.5618576781929335e-46,0.0,0.0,0.0,6.03542990901454e-29,1.5739875695842439e-46,4.97536706696659e-07,0.0,0.0,0.0,0.0,0.0,0.0,9.999574935074393e-10
208880000000,10434,208880000000,odom,base_link,-0.0006723412100314936,-7.557081870552917e-08,0.0,0.0,0.0,6.745157046209635e-05,0.9999999977251428,10.438450107487194,-7.631791324577133e-11,0.0,0.0,0.0,2.7093029976752406e-07,-7.631791324577536e-11,10.438450790999145,0.0,0.0,0.0,-0.0023260695985219057,0.0,0.0,0.0006009984372418835,6.93136448722121e-23,1.8152286866685724e-14,0.0,0.0,0.0,6.931364487221208e-23,0.0003009967822595707,-6.672341849636674e-31,0.0,0.0,0.0,1.8152286866685727e-14,6.672341849636674e-31,0.0003009967822595707,0.0,2.7093029976752724e-07,-0.002326069598521937,0.0,0.0,0.0,12.520903898219018,-1.8212924116584041e-06,0.0,0.0,0.0,0.0,3.818441879229844e-07,0.0007641207008268566,0.0,0.0,0.0,0.0,0.0,0.0,0.0007641207008268566,0.0,0.0,0.0,0.0,0.0,0.0,0.0004009976086776219,1.1745589765793808e-37,3.02715308416244e-29,0.0,0.0,0.0,1.1745589765793808e-37,0.00010099014754404405,-8.19500718512203e-45,0.0,0.0,0.0,3.0271530841624394e-29,8.195007307622607e-45,0.00010099014754404405,0.0,0.0,0.0,0.0,0.0,0.0,0.00039867648344522693
208900000000,10435,208900000000,odom,base_link,-0.0006723776370343578,-7.557573286432319e-08,0.0,0.0,0.0,6.745412819411671e-05,0.9999999977249703,10.43945053248732,-7.633921532689297e-11,0.0,0.0,0.0,2.7099183091010555e-07,-7.633921532689697e-11,10.439451216168752,0.0,0.0,0.0,-0.0023265257081430254,0.0,0.0,4.995843713223119e-07,7.590249168267863e-29,2.502540550575365e-20,0.0,0.0,0.0,7.590249168267863e-29,4.991708037514474e-07,-9.185873056081457e-37,0.0,0.0,0.0,2.5025405505753648e-20,9.094469804153982e-37,4.991708037514474e-07,0.0,2.709918309101087e-07,-0.0023265257081430566,0.0,0.0,0.0,12.522103898285224,-1.8214054430553604e-06,0.0,0.0,0.0,0.0,1.855054226431063e-07,0.000764120700827445,0.0,0.0,0.0,0.0,0.0,0.0,0.000764120700827445,0.0,0.0,0.0,0.0,0.0,0.0,4.993773312839113e-07,1.8398967269399903e-37,6.036179062204584e-29,0.0,0.0,0.0,1.8398967269399899e-37,4.97536706696659e-07,-8.684395754472402e-45,0.0,0.0,0.0,6.036179062204584e-29,8.564684509386809e-45,4.97536706696659e-07,0.0,0.0,0.0,0.0,0.0,0.0,9.999574935074393e-10
208920000000,10436,208920000000,odom,base_link,-0.0006724140662980907,-7.558064750659657e-08,0.0,0.0,0.0,6.745597790405326e-05,0.9999999977248455,10.440450957487446,-7.636052362881981e-11,0.0,0.0,0.0,2.710533740038633e-07,-7.636052362882383e-11,10.440451641338402,0.0,0.0,0.0,-0.0023269818897871126,0.0,0.0,0.0006009984372418835,3.3483703649710944e-23,1.8154540089295385e-14,0.0,0.0,0.0,3.348370364971094e-23,0.0003009967822595707,-2.9695269230179516e-32,0.0,0.0,0.0,1.8154540089295382e-14,2.9695269230179516e-32,0.0003009967822595707,0.0,2.710533740038665e-07,-0.002326981889787144,0.0,0.0,0.0,12.523303918153365,-1.8215184883254955e-06,0.0,0.0,0.0,0.0,1.8443656813052343e-07,0.0007641207008268545,0.0,0.0,0.0,0.0,0.0,0.0,0.0007641207008268545,0.0,0.0,0.0,0.0,0.0,0.0,0.0004009976086776219,5.672175691151271e-38,3.027528838016825e-29,0.0,0.0,0.0,5.672175691151268e-38,0.00010099014754404405,3.601945106852163e-45,0.0,0.0,0.0,3.0275288380168236e-29,-3.601956727327902e-45,0.00010099014754404405,0.0,0.0,0.0,0.0,0.0,0.0,0.00039867648344522693
208940000000,10437,208940000000,odom,base_link,-0.0006724504978228388,-7.558556261405783e-08,0.0,0.0,0.0,6.74580458560804e-05,0.999999997724706,10.441451382487573,-7.638183811058638e-11,0.0,0.0,0.0,2.711149288210632e-07,-7.638183811059039e-11,10.441452066508097,0.0,0.0,0.0,-0.0023274381434626574,0.0,0.0,4.995843713223107e-07,6.337902898721418e-29,2.5028512023736472e-20,0.0,0.0,0.0,6.337902898721414e-29,4.99170803751445e-07,-2.948475880841566e-37,0.0,0.0,0.0,2.5028512023736475e-20,2.8721441515948498e-37,4.99170803751445e-07,0.0,2.711149288210664e-07,-0.0023274381434626886,0.0,0.0,0.0,12.52450391821957,-1.8216315441675496e-06,0.0,0.0,0.0,0.0,-6.498897788300729e-09,0.0007641207008268913,0.0,0.0,0.0,0.0,0.0,0.0,0.0007641207008268913,0.0,0.0,0.0,0.0,0.0,0.0,4.993773312839096e-07,1.5363246353278947e-37,6.036928360704222e-29,0.0,0.0,0.0,1.5363246353278945e-37,4.97536706696652e-07,-2.744491498609753e-45,0.0,0.0,0.0,6.036928360704221e-29,2.6249089713205294e-45,4.97536706696652e-07,0.0,0.0,0.0,0.0,0.0,0.0,9.999574935074395e-10
208960000000,10438,208960000000,odom,base_link,-0.0006724869316088222,-7.559047811691732e-08,0.0,0.0,0.0,6.745846924096214e-05,0.9999999977246775,10.4424518074877,-7.640315861126841e-11,0.0,0.0,0.0,2.7117649448868445e-07,-7.640315861127247e-11,10.442452491677834,0.0,0.0,0.0,-0.002327894469177762,0.0,0.0,4.995843713223119e-07,-1.5759501424650592e-30,2.5030065503515358e-20,0.0,0.0,0.0,-1.5759501424650595e-30,4.991708037514474e-07,7.544152600292421e-39,0.0,0.0,0.0,2.5030065503515364e-20,-7.354338290976868e-39,4.991708037514474e-07,0.0,2.711764944886876e-07,-0.002327894469177793,0.0,0.0,0.0,12.525703928186745,-1.8217446108018674e-06,0.0,0.0,0.0,0.0,1.892957934446589e-07,0.0007641207008274537,0.0,0.0,0.0,0.0,0.0,0.0,0.0007641207008274537,0.0,0.0,0.0,0.0,0.0,0.0,4.993773312839113e-07,-3.820146231725753e-39,6.037303063208514e-29,0.0,0.0,0.0,-3.820146231725752e-39,4.97536706696659e-07,7.126517062026812e-47,0.0,0.0,0.0,6.037303063208513e-29,-6.939869048201595e-47,4.97536706696659e-07,0.0,0.0,0.0,0.0,0.0,0.0,9.999574935074393e-10
208980000000,10439,208980000000,odom,base_link,-0.0006725233676561138,-7.55953939913868e-08,0.0,0.0,0.0,6.746005645021144e-05,0.9999999977245704,10.443452232487825,-7.642448507695101e-11,0.0,0.0,0.0,2.712380707099177e-07,-7.642448507695502e-11,10.443452916847614,0.0,0.0,0.0,-0.0023283508669401025,0.0,0.0,4.995843713223107e-07,4.7110091512362246e-29,2.5031619081981758e-20,0.0,0.0,0.0,4.711009151236224e-29,4.99170803751445e-07,-9.413652799686358e-37,0.0,0.0,0.0,2.5031619081981752e-20,9.356907828600347e-37,4.99170803751445e-07,0.0,2.712380707099209e-07,-0.0023283508669401337,0.0,0.0,0.0,12.526903938153918,-1.8218576845983681e-06,0.0,0.0,0.0,0.0,6.769121654742508e-08,0.0007641207008268566,0.0,0.0,0.0,0.0,0.0,0.0,0.0007641207008268566,0.0,0.0,0.0,0.0,0.0,0.0,4.993773312839096e-07,1.1419612315350375e-37,6.037677789516201e-29,0.0,0.0,0.0,1.1419612315350386e-37,4.97536706696652e-07,-9.025252465541731e-45,0.0,0.0,0.0,6.037677789516203e-29,8.965440386074689e-45,4.97536706696652e-07,0.0,0.0,0.0,0.0,0.0,0.0,9.999574935074395e-10
209000000000,10440,209000000000,odom,base_link,-0.000672559805964934,-7.56003102644919e-08,0.0,0.0,0.0,6.74609497714042e-05,0.9999999977245101,10.444452657487952,-7.644581757195304e-11,0.0,0.0,0.0,2.7129965782409e-07,-7.644581757195707e-11,10.44445334201744,0.0,0.0,0.0,-0.0023288073367571426,0.0,0.0,4.995843713223107e-07,1.6873045905277923e-29,2.5033172785299826e-20,0.0,0.0,0.0,1.687304590527793e-29,4.99170803751445e-07,7.292342459244885e-38,0.0,0.0,0.0,2.5033172785299817e-20,-7.495594013375239e-38,4.99170803751445e-07,0.0,2.7129965782409315e-07,-0.002328807336757174,0.0,0.0,0.0,12.528103948121093,-1.8219707674828073e-06,0.0,0.0,0.0,0.0,1.5483299622678175e-07,0.0007641207008268917,0.0,0.0,0.0,0.0,0.0,0.0,0.0007641207008268917,0.0,0.0,0.0,0.0,0.0,0.0,4.993773312839096e-07,4.0900714486973126e-38,6.03805254593892e-29,0.0,0.0,0.0,4.0900714486973115e-38,4.97536706696652e-07,7.253112396879257e-46,0.0,0.0,0.0,6.038052545938921e-29,-7.573533560201412e-46,4.97536706696652e-07,0.0,0.0,0.0,0.0,0.0,0.0,9.999574935074395e-10
209020000000,10441,209020000000,odom,base_link,-0.0006725962465356493,-7.560522692375679e-08,0.0,0.0,0.0,6.746230666888439e-05,0.9999999977244186,10.44545308248808,-7.646715606862802e-11,0.0,0.0,0.0,2.7136125567563775e-07,-7.646715606863205e-11,10.44545376718731,0.0,0.0,0.0,-0.002329263878637173,0.0,0.0,4.995843713223119e-07,3.8545382162920045e-29,2.5034726677794057e-20,0.0,0.0,0.0,3.8545382162920056e-29,4.991708037514474e-07,-1.7180400567979713e-37,0.0,0.0,0.0,2.503472667779406e-20,1.6716056715347684e-37,4.991708037514474e-07,0.0,2.7136125567564093e-07,-0.002329263878637204,0.0,0.0,0.0,12.529303958088267,-1.8220838641513908e-06,0.0,0.0,0.0,0.0,7.887705864083848e-08,0.0007641207008274537,0.0,0.0,0.0,0.0,0.0,0.0,0.0007641207008274537,0.0,0.0,0.0,0.0,0.0,0.0,4.993773312839113e-07,9.343503822743052e-38,6.038427347990907e-29,0.0,0.0,0.0,9.343503822743048e-38,4.97536706696659e-07,-1.6257071124824257e-45,0.0,0.0,0.0,6.038427347990906e-29,1.5613858678322244e-45,4.97536706696659e-07,0.0,0.0,0.0,0.0,0.0,0.0,9.999574935074393e-10
209040000000,10442,209040000000,odom,base_link,-0.0006726326893683331,-7.561014397327049e-08,0.0,0.0,0.0,6.74630936256046e-05,0.9999999977243655,10.446453507488204,-7.64885005779872e-11,0.0,0.0,0.0,2.71422864316966e-07,-7.648850057799117e-11,10.446454192357223,0.0,0.0,0.0,-0.0023297204925884357,0.0,0.0,0.0006009984372418835,1.4259259978375894e-23,1.8161302260292823e-14,0.0,0.0,0.0,1.425925997837589e-23,0.0003009967822595707,-2.8247520469473202e-33,0.0,0.0,0.0,1.8161302260292823e-14,2.8247520469473202e-33,0.0003009967822595707,0.0,2.714228643169692e-07,-0.002329720492588467,0.0,0.0,0.0,12.530503977956409,-1.8221969694794302e-06,0.0,0.0,0.0,0.0,7.85143060625934e-08,0.0007641207008268566,0.0,0.0,0.0,0.0,0.0,0.0,0.0007641207008268566,0.0,0.0,0.0,0.0,0.0,0.0,0.0004009976086776219,2.4127703429401215e-38,3.0286565139602196e-29,0.0,0.0,0.0,2.4127703429401194e-38,0.00010099014754404405,-6.2624251063603344e-46,0.0,0.0,0.0,3.0286565139602196e-29,6.3011470681398664e-46,0.00010099014754404405,0.0,0.0,0.0,0.0,0.0,0.0,0.00039867648344522693
209060000000,10443,209060000000,odom,base_link,-0.0006726691344632786,-7.56150615457014e-08,0.0,0.0,0.0,6.746918703070455e-05,0.9999999977239544,10.447453932488331,-7.650985141058053e-11,0.0,0.0,0.0,2.7148448541132625e-07,-7.650985141058447e-11,10.44745461752718,0.0,0.0,0.0,-0.0023301771786189114,0.0,0.0,4.995843713223107e-07,1.2920480863480486e-28,2.5037834861846783e-20,0.0,0.0,0.0,1.2920480863480484e-28,4.99170803751445e-07,-7.328691533188077e-37,0.0,0.0,0.0,2.5037834861846783e-20,7.173023320822613e-37,4.99170803751445e-07,0.0,2.7148448541132943e-07,-0.0023301771786189427,0.0,0.0,0.0,12.531703978022614,-1.822310086510563e-06,0.0,0.0,0.0,0.0,4.431089324572647e-07,0.0007641207008268917,0.0,0.0,0.0,0.0,0.0,0.0,0.0007641207008268917,0.0,0.0,0.0,0.0,0.0,0.0,4.993773312839096e-07,3.131959170767762e-37,6.039177048350147e-29,0.0,0.0,0.0,3.131959170767761e-37,4.97536706696652e-07,-6.665295975454798e-45,0.0,0.0,0.0,6.039177048350146e-29,6.545323140501856e-45,4.97536706696652e-07,0.0,0.0,0.0,0.0,0.0,0.0,9.999574935074395e-10
209080000000,10444,209080000000,odom,base_link,-0.0006727055818206324,-7.561997977362559e-08,0.0,0.0,0.0,6.747365266611139e-05,0.9999999977236531,10.448454357488458,-7.653120887703855e-11,0.0,0.0,0.0,2.7154612062150685e-07,-7.653120887704248e-11,10.44845504269718,0.0,0.0,0.0,-0.002330633936736685,0.0,0.0,4.995843713223119e-07,1.1025725501333368e-28,2.503938916454841e-20,0.0,0.0,0.0,1.1025725501333363e-28,4.991708037514474e-07,-4.056881502945635e-37,0.0,0.0,0.0,2.5039389164548408e-20,3.9240333879568045e-37,4.991708037514474e-07,0.0,2.7154612062151003e-07,-0.0023306339367367163,0.0,0.0,0.0,12.532903987989789,-1.822423213030215e-06,0.0,0.0,0.0,0.0,4.597666204046068e-07,0.0007641207008274537,0.0,0.0,0.0,0.0,0.0,0.0,0.0007641207008274537,0.0,0.0,0.0,0.0,0.0,0.0,4.993773312839113e-07,2.672665395178219e-37,6.039551949345129e-29,0.0,0.0,0.0,2.6726653951782176e-37,4.97536706696659e-07,-3.699509845548692e-45,0.0,0.0,0.0,6.03955194934513e-29,3.5967972883642043e-45,4.97536706696659e-07,0.0,0.0,0.0,0.0,0.0,0.0,9.999574935074393e-10
209100000000,10445,209100000000,odom,base_link,-0.000672742031440761,-7.562489863546706e-08,0.0,0.0,0.0,6.747785727232057e-05,0.9999999977233693,10.449454782488584,-7.655257292883413e-11,0.0,0.0,0.0,2.71607769678444e-07,-7.655257292883809e-11,10.449455467867223,0.0,0.0,0.0,-0.0023310907669501254,0.0,0.0,4.995843713223107e-07,1.1440772744196768e-28,2.504094365936089e-20,0.0,0.0,0.0,1.1440772744196761e-28,4.99170803751445e-07,-2.105685690627521e-36,0.0,0.0,0.0,2.5040943659360886e-20,2.0918999361482817e-36,4.99170803751445e-07,0.0,2.716077696784472e-07,-0.0023310907669501567,0.0,0.0,0.0,12.534103997956962,-1.822536353532664e-06,0.0,0.0,0.0,0.0,3.0492450678762586e-07,0.0007641207008268566,0.0,0.0,0.0,0.0,0.0,0.0,0.0007641207008268566,0.0,0.0,0.0,0.0,0.0,0.0,4.993773312839096e-07,2.7732739587474026e-37,6.039926896677158e-29,0.0,0.0,0.0,2.7732739587474026e-37,4.97536706696652e-07,-2.0415221920690876e-44,0.0,0.0,0.0,6.039926896677159e-29,2.017597052443776e-44,4.97536706696652e-07,0.0,0.0,0.0,0.0,0.0,0.0,9.999574935074395e-10
209120000000,10446,209120000000,odom,base_link,-0.0006727784833235178,-7.56298180809592e-08,0.0,0.0,0.0,6.748084363436031e-05,0.9999999977231678,10.45045520748871,-7.657394345063194e-11,0.0,0.0,0.0,2.716694319541225e-07,-7.657394345063596e-11,10.450455893037311,0.0,0.0,0.0,-0.0023315476692668175,0.0,0.0,4.995843713223107e-07,7.589518544339785e-29,2.5042498197829568e-20,0.0,0.0,0.0,7.589518544339785e-29,4.99170803751445e-07,-1.4286832006583784e-37,0.0,0.0,0.0,2.5042498197829562e-20,1.337226323604527e-37,4.99170803751445e-07,0.0,2.716694319541257e-07,-0.0023315476692668488,0.0,0.0,0.0,12.535304007924136,-1.8226494971950713e-06,0.0,0.0,0.0,0.0,2.81559815710804e-07,0.0007641207008268917,0.0,0.0,0.0,0.0,0.0,0.0,0.0007641207008268917,0.0,0.0,0.0,0.0,0.0,0.0,4.993773312839096e-07,1.8397196218957608e-37,6.040301854540102e-29,0.0,0.0,0.0,1.8397196218957608e-37,4.97536706696652e-07,-1.3097041136449386e-45,0.0,0.0,0.0,6.040301854540103e-29,1.1900792808479009e-45,4.97536706696652e-07,0.0,0.0,0.0,0.0,0.0,0.0,9.999574935074395e-10
209140000000,10447,209140000000,odom,base_link,-0.0006728149374693427,-7.563473804534059e-08,0.0,0.0,0.0,6.748365070715036e-05,0.9999999977229784,10.451455632488836,-7.659532029301181e-11,0.0,0.0,0.0,2.7173110663765207e-07,-7.659532029301578e-11,10.451456318207443,0.0,0.0,0.0,-0.002332004643694174,0.0,0.0,0.0006009984372418835,5.084118541268606e-23,1.8166940224515454e-14,0.0,0.0,0.0,5.0841185412686054e-23,0.0003009967822595707,-4.557484109543418e-31,0.0,0.0,0.0,1.8166940224515457e-14,4.557484109543418e-31,0.0003009967822595707,0.0,2.7173110663765524e-07,-0.002332004643694205,0.0,0.0,0.0,12.536504027792278,-1.8227626535420747e-06,0.0,0.0,0.0,0.0,2.7985474499372657e-07,0.0007641207008267162,0.0,0.0,0.0,0.0,0.0,0.0,0.0007641207008267162,0.0,0.0,0.0,0.0,0.0,0.0,0.0004009976086776219,8.614732563422314e-38,3.0295967128396244e-29,0.0,0.0,0.0,8.614732563422314e-38,0.00010099014754404405,-2.1206230169392587e-45,0.0,0.0,0.0,3.029596712839624e-29,2.120611404851636e-45,0.00010099014754404405,0.0,0.0,0.0,0.0,0.0,0.0,0.00039867648344522693
209160000000,10448,209160000000,odom,base_link,-0.0006728513938784559,-7.563965838302462e-08,0.0,0.0,0.0,6.7482760424638e-05,0.9999999977230385,10.452456057488963,-7.661670311803365e-11,0.0,0.0,0.0,2.7179279190511086e-07,-7.661670311803763e-11,10.45245674337762,0.0,0.0,0.0,-0.002332461690240703,0.0,0.0,4.995843713223107e-07,-2.365417741596385e-29,2.5045607785895494e-20,0.0,0.0,0.0,-2.3654177415963846e-29,4.99170803751445e-07,6.554348579615564e-37,0.0,0.0,0.0,2.5045607785895482e-20,-6.52584076574508e-37,4.99170803751445e-07,0.0,2.7179279190511404e-07,-0.0023324616902407344,0.0,0.0,0.0,12.537704027858483,-1.8228758217393446e-06,0.0,0.0,0.0,0.0,3.0396640810840405e-07,0.0007641207008268566,0.0,0.0,0.0,0.0,0.0,0.0,0.0007641207008268566,0.0,0.0,0.0,0.0,0.0,0.0,4.993773312839096e-07,-5.733836068925103e-38,6.041051893550088e-29,0.0,0.0,0.0,-5.733836068925102e-38,4.97536706696652e-07,6.222257511265894e-45,0.0,0.0,0.0,6.041051893550089e-29,-6.182897904923362e-45,4.97536706696652e-07,0.0,0.0,0.0,0.0,0.0,0.0,9.999574935074395e-10
209180000000,10449,209180000000,odom,base_link,-0.0006728878525510038,-7.564457910219873e-08,0.0,0.0,0.0,6.748617262337601e-05,0.9999999977228082,10.45345648248909,-7.663809194623874e-11,0.0,0.0,0.0,2.718544878602053e-07,-7.663809194624271e-11,10.45345716854784,0.0,0.0,0.0,-0.0023329188089145215,0.0,0.0,4.995843713223119e-07,7.567092803079114e-29,2.504716279261777e-20,0.0,0.0,0.0,7.567092803079115e-29,4.991708037514474e-07,-1.2831584031915194e-36,0.0,0.0,0.0,2.504716279261777e-20,1.2740380409348403e-36,4.991708037514474e-07,0.0,2.7185448786020845e-07,-0.002332918808914553,0.0,0.0,0.0,12.538904037825658,-1.822988999496048e-06,0.0,0.0,0.0,0.0,4.55341361032215e-07,0.000764120700827445,0.0,0.0,0.0,0.0,0.0,0.0,0.000764120700827445,0.0,0.0,0.0,0.0,0.0,0.0,4.993773312839113e-07,1.8342835609943214e-37,6.041426964356295e-29,0.0,0.0,0.0,1.8342835609943206e-37,4.97536706696659e-07,-1.2099256676785646e-44,0.0,0.0,0.0,6.041426964356295e-29,1.203081573419368e-44,4.97536706696659e-07,0.0,0.0,0.0,0.0,0.0,0.0,9.999574935074393e-10
209200000000,10450,209200000000,odom,base_link,-0.0006729243134872064,-7.564950040331204e-08,0.0,0.0,0.0,6.749045199555621e-05,0.9999999977225195,10.454456907489215,-7.665948724677079e-11,0.0,0.0,0.0,2.719161970172772e-07,-7.665948724677472e-11,10.454457593718102,0.0,0.0,0.0,-0.0023333759997235495,0.0,0.0,4.995843713223107e-07,1.1334210350270357e-28,2.5048717940838744e-20,0.0,0.0,0.0,1.1334210350270357e-28,4.99170803751445e-07,-9.007517551051594e-37,0.0,0.0,0.0,2.504871794083874e-20,8.870901647169755e-37,4.99170803751445e-07,0.0,2.7191619701728036e-07,-0.002333375999723581,0.0,0.0,0.0,12.54010404779283,-1.8231021875405563e-06,0.0,0.0,0.0,0.0,3.4823551167175925e-07,0.0007641207008268545,0.0,0.0,0.0,0.0,0.0,0.0,0.0007641207008268545,0.0,0.0,0.0,0.0,0.0,0.0,4.993773312839096e-07,2.747442948657765e-37,6.041802069291906e-29,0.0,0.0,0.0,2.7474429486577637e-37,4.97536706696652e-07,-8.76108864737938e-45,0.0,0.0,0.0,6.041802069291907e-29,8.522183609419114e-45,4.97536706696652e-07,0.0,0.0,0.0,0.0,0.0,0.0,9.999574935074395e-10
209220000000,10451,209220000000,odom,base_link,-0.0006729607766872837,-7.565442230254284e-08,0.0,0.0,0.0,6.749392361742715e-05,0.9999999977222851,10.455457332489342,-7.668088905908785e-11,0.0,0.0,0.0,2.71977919580569e-07,-7.668088905909178e-11,10.455458018888411,0.0,0.0,0.0,-0.0023338332626758455,0.0,0.0,0.0006009984372418835,6.288954449401323e-23,1.817145244416677e-14,0.0,0.0,0.0,6.288954449401322e-23,0.00030099678225957075,-3.335643013978803e-33,0.0,0.0,0.0,1.817145244416677e-14,3.335643013978803e-33,0.00030099678225957075,0.0,2.7197791958057216e-07,-0.002333833262675877,0.0,0.0,0.0,12.541304067660974,-1.8232153862287394e-06,0.0,0.0,0.0,0.0,3.460888447873599e-07,0.0007641207008268913,0.0,0.0,0.0,0.0,0.0,0.0,0.0007641207008268913,0.0,0.0,0.0,0.0,0.0,0.0,0.0004009976086776219,1.0657599840644504e-37,3.030349177608274e-29,0.0,0.0,0.0,1.065759984064451e-37,0.00010099014754404407,-2.1881673076211866e-46,0.0,0.0,0.0,3.0303491776082756e-29,2.1879354388738873e-46,0.00010099014754404407,0.0,0.0,0.0,0.0,0.0,0.0,0.0003986764834457879
209240000000,10452,209240000000,odom,base_link,-0.0006729972421513823,-7.565934487091854e-08,0.0,0.0,0.0,6.749976080081716e-05,0.9999999977218912,10.456457757489469,-7.670229755072868e-11,0.0,0.0,0.0,2.7203965644242417e-07,-7.670229755073262e-11,10.456458444058763,0.0,0.0,0.0,-0.0023342905977793015,0.0,0.0,4.995843713223119e-07,1.6187034113707274e-28,2.5051828652745537e-20,0.0,0.0,0.0,1.6187034113707286e-28,4.991708037514474e-07,-3.444463736548464e-37,0.0,0.0,0.0,2.5051828652745528e-20,3.249330518794545e-37,4.991708037514474e-07,0.0,2.7203965644242735e-07,-0.002334290597779333,0.0,0.0,0.0,12.54250406772718,-1.8233285938801183e-06,0.0,0.0,0.0,0.0,8.310371768180724e-08,0.0007641207008274537,0.0,0.0,0.0,0.0,0.0,0.0,0.0007641207008274537,0.0,0.0,0.0,0.0,0.0,0.0,4.993773312839113e-07,3.923780431396578e-37,6.042552379375088e-29,0.0,0.0,0.0,3.923780431396578e-37,4.97536706696659e-07,-3.244541360262714e-45,0.0,0.0,0.0,6.042552379375089e-29,3.12457230350815e-45,4.97536706696659e-07,0.0,0.0,0.0,0.0,0.0,0.0,9.999574935074393e-10
209260000000,10453,209260000000,odom,base_link,-0.0006730337098797953,-7.566426801199358e-08,0.0,0.0,0.0,6.750092816279936e-05,0.9999999977218124,10.457458182489594,-7.672371249831361e-11,0.0,0.0,0.0,2.72101406394551e-07,-7.67237124983176e-11,10.457458869229159,0.0,0.0,0.0,-0.0023347480050419605,0.0,0.0,4.995843713223107e-07,2.0722433709277373e-29,2.5053384233160934e-20,0.0,0.0,0.0,2.072243370927736e-29,4.99170803751445e-07,-4.6991618257419175e-38,0.0,0.0,0.0,2.505338423316094e-20,4.4493392687467535e-38,4.99170803751445e-07,0.0,2.7210140639455417e-07,-0.002334748005041992,0.0,0.0,0.0,12.543704077694352,-1.8234418133811118e-06,0.0,0.0,0.0,0.0,2.1847410032614942e-07,0.0007641207008268566,0.0,0.0,0.0,0.0,0.0,0.0,0.0007641207008268566,0.0,0.0,0.0,0.0,0.0,0.0,4.993773312839096e-07,5.023173375633308e-38,6.042927588556834e-29,0.0,0.0,0.0,5.023173375633309e-38,4.97536706696652e-07,-4.693812597126477e-46,0.0,0.0,0.0,6.042927588556835e-29,4.500493766400913e-46,4.97536706696652e-07,0.0,0.0,0.0,0.0,0.0,0.0,9.999574935074395e-10
209280000000,10454,209280000000,odom,base_link,-0.0006730701798726698,-7.56691915686036e-08,0.0,0.0,0.0,6.750405515168228e-05,0.9999999977216013,10.458458607489721,-7.674513353654793e-11,0.0,0.0,0.0,2.721631674670087e-07,-7.674513353655188e-11,10.4584592943996,0.0,0.0,0.0,-0.002335205484471946,0.0,0.0,4.995843713223107e-07,5.441616336032633e-29,2.505493994499649e-20,0.0,0.0,0.0,5.441616336032633e-29,4.99170803751445e-07,-6.118913422320962e-37,0.0,0.0,0.0,2.5054939944996488e-20,6.0533070876087e-37,4.99170803751445e-07,0.0,2.7216316746701185e-07,-0.0023352054844719776,0.0,0.0,0.0,12.544904087661527,-1.8235550424495743e-06,0.0,0.0,0.0,0.0,5.979218186731854e-07,0.0007641207008268917,0.0,0.0,0.0,0.0,0.0,0.0,0.0007641207008268917,0.0,0.0,0.0,0.0,0.0,0.0,4.993773312839096e-07,1.3190623708602186e-37,6.043302829438069e-29,0.0,0.0,0.0,1.319062370860218e-37,4.97536706696652e-07,-5.781358626816205e-45,0.0,0.0,0.0,6.043302829438069e-29,5.72137407616331e-45,4.97536706696652e-07,0.0,0.0,0.0,0.0,0.0,0.0,9.999574935074395e-10
209300000000,10455,209300000000,odom,base_link,-0.0006731066521302255,-7.56741157282458e-08,0.0,0.0,0.0,6.750897095721149e-05,0.9999999977212695,10.459459032489848,-7.676656110483221e-11,0.0,0.0,0.0,2.7222494201297445e-07,-7.67665611048361e-11,10.459459719570082,0.0,0.0,0.0,-0.0023356630360771816,0.0,0.0,4.995843713223119e-07,1.4886645686512314e-28,2.5056495798041397e-20,0.0,0.0,0.0,1.4886645686512307e-28,4.991708037514474e-07,-1.2328670275760975e-37,0.0,0.0,0.0,2.505649579804138e-20,1.0533764411335618e-37,4.991708037514474e-07,0.0,2.722249420129776e-07,-0.0023356630360772132,0.0,0.0,0.0,12.546104097628701,-1.8236682818002691e-06,0.0,0.0,0.0,0.0,1.749687908498644e-07,0.0007641207008274537,0.0,0.0,0.0,0.0,0.0,0.0,0.0007641207008274537,0.0,0.0,0.0,0.0,0.0,0.0,4.993773312839113e-07,3.6085627921893457e-37,6.043678104379001e-29,0.0,0.0,0.0,3.608562792189345e-37,4.97536706696659e-07,-1.1056461108139034e-45,0.0,0.0,0.0,6.043678104379e-29,7.647169881516787e-46,4.97536706696659e-07,0.0,0.0,0.0,0.0,0.0,0.0,9.999574935074393e-10
209320000000,10456,209320000000,odom,base_link,-0.0006731431266526089,-7.567904047513233e-08,0.0,0.0,0.0,6.751061167343729e-05,0.9999999977211587,10.460459457489973,-7.678799516802571e-11,0.0,0.0,0.0,2.7228672983583115e-07,-7.678799516802962e-11,10.460460144740608,0.0,0.0,0.0,-0.0023361206598654944,0.0,0.0,4.995843713223107e-07,4.3593500884821986e-29,2.5058051772005107e-20,0.0,0.0,0.0,4.359350088482198e-29,4.99170803751445e-07,-6.699673575857579e-37,0.0,0.0,0.0,2.5058051772005098e-20,6.6471089543525275e-37,4.99170803751445e-07,0.0,2.7228672983583433e-07,-0.002336120659865526,0.0,0.0,0.0,12.547304107595874,-1.8237815299363249e-06,0.0,0.0,0.0,0.0,1.322411115464854e-07,0.0007641207008268566,0.0,0.0,0.0,0.0,0.0,0.0,0.0007641207008268566,0.0,0.0,0.0,0.0,0.0,0.0,4.993773312839096e-07,1.0567181337404387e-37,6.044053408485496e-29,0.0,0.0,0.0,1.0567181337404387e-37,4.97536706696652e-07,-6.403085987410852e-45,0.0,0.0,0.0,6.044053408485497e-29,6.364357453498523e-45,4.97536706696652e-07,0.0,0.0,0.0,0.0,0.0,0.0,9.999574935074395e-10
209340000000,10457,209340000000,odom,base_link,-0.0006731796034402602,-7.568396563977589e-08,0.0,0.0,0.0,6.751193050314639e-05,0.9999999977210696,10.4614598824901,-7.680943533177004e-11,0.0,0.0,0.0,2.7234852881001997e-07,-7.680943533177397e-11,10.46146056991118,0.0,0.0,0.0,-0.002336578355845366,0.0,0.0,0.0006009984372418835,2.390894406683453e-23,1.8178223846595498e-14,0.0,0.0,0.0,2.3908944066834535e-23,0.00030099678225957075,8.187087352508288e-32,0.0,0.0,0.0,1.8178223846595498e-14,-8.187087352508288e-32,0.00030099678225957075,0.0,2.7234852881002315e-07,-0.0023365783558453976,0.0,0.0,0.0,12.548504127464017,-1.8238947935651256e-06,0.0,0.0,0.0,0.0,1.3152482839716225e-07,0.0007641207008268917,0.0,0.0,0.0,0.0,0.0,0.0,0.0007641207008268917,0.0,0.0,0.0,0.0,0.0,0.0,0.0004009976086776219,4.0486961193329463e-38,3.031478384830701e-29,0.0,0.0,0.0,4.048696119332946e-38,0.00010099014754404407,-2.575113318185384e-46,0.0,0.0,0.0,3.031478384830701e-29,2.575075752367078e-46,0.00010099014754404407,0.0,0.0,0.0,0.0,0.0,0.0,0.0003986764834457879
209360000000,10458,209360000000,odom,base_link,-0.0006732160824928859,-7.568889114094344e-08,0.0,0.0,0.0,6.751142930895027e-05,0.9999999977211035,10.462460307490227,-7.683088140783045e-11,0.0,0.0,0.0,2.7241033791792256e-07,-7.683088140783441e-11,10.462460995081797,0.0,0.0,0.0,-0.002337036124024205,0.0,0.0,4.995843713223119e-07,-1.191310074031233e-29,2.5061164147971285e-20,0.0,0.0,0.0,-1.1913100740312328e-29,4.991708037514474e-07,1.970708176830958e-37,0.0,0.0,0.0,2.5061164147971282e-20,-1.9563416910985366e-37,4.991708037514474e-07,0.0,2.7241033791792573e-07,-0.002337036124024237,0.0,0.0,0.0,12.549704127530223,-1.824008057377033e-06,0.0,0.0,0.0,0.0,1.2259218569039408e-07,0.0007641207008274537,0.0,0.0,0.0,0.0,0.0,0.0,0.0007641207008274537,0.0,0.0,0.0,0.0,0.0,0.0,4.993773312839113e-07,-2.8877676274033276e-38,6.044804119943332e-29,0.0,0.0,0.0,-2.8877676274033276e-38,4.97536706696659e-07,1.8684360116745644e-45,0.0,0.0,0.0,6.044804119943331e-29,-1.8535149387757022e-45,4.97536706696659e-07,0.0,0.0,0.0,0.0,0.0,0.0,9.999574935074393e-10
209380000000,10459,209380000000,odom,base_link,-0.0006732525638111459,-7.569381697521539e-08,0.0,0.0,0.0,6.751301796459813e-05,0.9999999977209962,10.463460732490352,-7.685233338941822e-11,0.0,0.0,0.0,2.724721571166177e-07,-7.685233338942218e-11,10.463461420252456,0.0,0.0,0.0,-0.0023374939644095725,0.0,0.0,4.995843713223107e-07,3.056151274404202e-29,2.506272056810197e-20,0.0,0.0,0.0,3.0561512744041996e-29,4.99170803751445e-07,-1.848468819945606e-37,0.0,0.0,0.0,2.506272056810196e-20,1.811611177872201e-37,4.99170803751445e-07,0.0,2.7247215711662087e-07,-0.002337493964409604,0.0,0.0,0.0,12.550904137497396,-1.824121337989898e-06,0.0,0.0,0.0,0.0,2.6882459767177574e-07,0.0007641207008268566,0.0,0.0,0.0,0.0,0.0,0.0,0.0007641207008268566,0.0,0.0,0.0,0.0,0.0,0.0,4.993773312839096e-07,7.408192481681579e-38,6.045179531665973e-29,0.0,0.0,0.0,7.408192481681573e-38,4.97536706696652e-07,-1.820193596827545e-45,0.0,0.0,0.0,6.045179531665972e-29,1.76048870448607e-45,4.97536706696652e-07,0.0,0.0,0.0,0.0,0.0,0.0,9.999574935074395e-10
209400000000,10460,209400000000,odom,base_link,-0.0006732890473951138,-7.56987432580063e-08,0.0,0.0,0.0,6.75153143308012e-05,0.9999999977208411,10.46446115749048,-7.687379154781254e-11,0.0,0.0,0.0,2.7253398785583317e-07,-7.687379154781652e-11,10.464461845423159,0.0,0.0,0.0,-0.0023379518770102947,0.0,0.0,4.995843713223119e-07,6.697287656952881e-29,2.506427712782659e-20,0.0,0.0,0.0,6.69728765695288e-29,4.991708037514474e-07,1.7656725513503368e-37,0.0,0.0,0.0,2.5064277127826577e-20,-1.846447860231001e-37,4.991708037514474e-07,0.0,2.7253398785583635e-07,-0.0023379518770103263,0.0,0.0,0.0,12.55210414746457,-1.8242346287721828e-06,0.0,0.0,0.0,0.0,1.1318326294205804e-07,0.000764120700827445,0.0,0.0,0.0,0.0,0.0,0.0,0.000764120700827445,0.0,0.0,0.0,0.0,0.0,0.0,4.993773312839113e-07,1.6234404635086663e-37,6.045554977059793e-29,0.0,0.0,0.0,1.6234404635086657e-37,4.97536706696659e-07,1.7013827020518586e-45,0.0,0.0,0.0,6.045554977059793e-29,-1.8204918697099372e-45,4.97536706696659e-07,0.0,0.0,0.0,0.0,0.0,0.0,9.999574935074393e-10
209420000000,10461,209420000000,odom,base_link,-0.000673325533245009,-7.570366998593538e-08,0.0,0.0,0.0,6.751644321311958e-05,0.999999997720765,10.465461582490605,-7.689525587662723e-11,0.0,0.0,0.0,2.725958300941656e-07,-7.689525587663113e-11,10.465462270593903,0.0,0.0,0.0,-0.002338409861834414,0.0,0.0,0.0006009984372418835,2.0472578136521448e-23,1.818274009214366e-14,0.0,0.0,0.0,2.0472578136521442e-23,0.0003009967822595707,-2.7204132875773726e-31,0.0,0.0,0.0,1.818274009214366e-14,2.7204132875773726e-31,0.0003009967822595707,0.0,2.725958300941688e-07,-0.0023384098618344454,0.0,0.0,0.0,12.553304167332712,-1.8243479301446043e-06,0.0,0.0,0.0,0.0,1.125931583089916e-07,0.0007641207008268545,0.0,0.0,0.0,0.0,0.0,0.0,0.0007641207008268545,0.0,0.0,0.0,0.0,0.0,0.0,0.0004009976086776219,3.4663574259698216e-38,3.0322315285600996e-29,0.0,0.0,0.0,3.4663574259698184e-38,0.00010099014754404405,-5.9110150252349926e-46,0.0,0.0,0.0,3.032231528560098e-29,5.910899414537605e-46,0.00010099014754404405,0.0,0.0,0.0,0.0,0.0,0.0,0.00039867648344522693
209440000000,10462,209440000000,odom,base_link,-0.0006733620213609786,-7.570859714440743e-08,0.0,0.0,0.0,6.751862831032888e-05,0.9999999977206174,10.466462007490732,-7.691672634325838e-11,0.0,0.0,0.0,2.7265768364956036e-07,-7.691672634326226e-11,10.466462695764696,0.0,0.0,0.0,-0.0023388679188898203,0.0,0.0,4.995843713223107e-07,5.697795069998225e-29,2.506739066127501e-20,0.0,0.0,0.0,5.697795069998224e-29,4.99170803751445e-07,4.791665808275741e-38,0.0,0.0,0.0,2.5067390661275017e-20,-5.478956472894459e-38,4.99170803751445e-07,0.0,2.7265768364956354e-07,-0.002338867918889852,0.0,0.0,0.0,12.554504167398918,-1.8244612404494427e-06,0.0,0.0,0.0,0.0,7.324790312520422e-08,0.0007641207008268913,0.0,0.0,0.0,0.0,0.0,0.0,0.0007641207008268913,0.0,0.0,0.0,0.0,0.0,0.0,4.993773312839096e-07,1.3811607824255328e-37,6.046305967704252e-29,0.0,0.0,0.0,1.3811607824255322e-37,4.97536706696652e-07,5.527273673044461e-46,0.0,0.0,0.0,6.046305967704254e-29,-6.638543122747219e-46,4.97536706696652e-07,0.0,0.0,0.0,0.0,0.0,0.0,9.999574935074395e-10
209460000000,10463,209460000000,odom,base_link,-0.0006733985117433157,-7.571352471892814e-08,0.0,0.0,0.0,6.751989598740042e-05,0.9999999977205318,10.467462432490859,-7.69382029152716e-11,0.0,0.0,0.0,2.7271954834091416e-07,-7.693820291527555e-11,10.467463120935532,0.0,0.0,0.0,-0.002339326048184559,0.0,0.0,4.995843713223119e-07,1.8280892808911357e-29,2.5068947651865955e-20,0.0,0.0,0.0,1.8280892808911343e-29,4.991708037514474e-07,2.370848958921559e-39,0.0,0.0,0.0,2.5068947651865943e-20,-4.5760997997269983e-39,4.991708037514474e-07,0.0,2.7271954834091734e-07,-0.0023393260481845905,0.0,0.0,0.0,12.555704177366092,-1.8245745625914017e-06,0.0,0.0,0.0,0.0,2.883664842872815e-07,0.0007641207008274537,0.0,0.0,0.0,0.0,0.0,0.0,0.0007641207008274537,0.0,0.0,0.0,0.0,0.0,0.0,4.993773312839113e-07,4.4313373110339973e-38,6.046681517023571e-29,0.0,0.0,0.0,4.431337311033993e-38,4.97536706696659e-07,4.770243124104835e-47,0.0,0.0,0.0,6.046681517023566e-29,-6.265619864040712e-47,4.97536706696659e-07,0.0,0.0,0.0,0.0,0.0,0.0,9.999574935074393e-10
209480000000,10464,209480000000,odom,base_link,-0.000673435004392167,-7.571845273128698e-08,0.0,0.0,0.0,6.75227709008123e-05,0.9999999977203377,10.468462857490984,-7.695968564515428e-11,0.0,0.0,0.0,2.7278142444295404e-07,-7.695968564515822e-11,10.468463546106411,0.0,0.0,0.0,-0.0023397842497267555,0.0,0.0,0.0006009984372418835,5.212453398420612e-23,1.8186128389644265e-14,0.0,0.0,0.0,5.212453398420613e-23,0.0003009967822595707,4.972819089368679e-32,0.0,0.0,0.0,1.8186128389644265e-14,-4.972819089368679e-32,0.0003009967822595707,0.0,2.727814244429572e-07,-0.002339784249726787,0.0,0.0,0.0,12.556904197234234,-1.824687894291952e-06,0.0,0.0,0.0,0.0,2.86616195200897e-07,0.0007641207008268566,0.0,0.0,0.0,0.0,0.0,0.0,0.0007641207008268566,0.0,0.0,0.0,0.0,0.0,0.0,0.0004009976086776219,8.831757589432186e-38,3.0327965686818375e-29,0.0,0.0,0.0,8.831757589432179e-38,0.00010099014754404405,-2.665148461714366e-46,0.0,0.0,0.0,3.0327965686818364e-29,2.3135404567401825e-46,0.00010099014754404405,0.0,0.0,0.0,0.0,0.0,0.0,0.00039867648344522693
209500000000,10465,209500000000,odom,base_link,-0.0006734714993076791,-7.572338123035429e-08,0.0,0.0,0.0,6.752423585496694e-05,0.9999999977202387,10.46946328249111,-7.698117464878864e-11,0.0,0.0,0.0,2.7284331257044603e-07,-7.698117464879254e-11,10.469463971277335,0.0,0.0,0.0,-0.0023402425235241084,0.0,0.0,4.995843713223107e-07,5.166664443747828e-29,2.5072062011688025e-20,0.0,0.0,0.0,5.166664443747825e-29,4.99170803751445e-07,-1.055275384304141e-36,0.0,0.0,0.0,2.5072062011688022e-20,1.049041987118764e-36,4.99170803751445e-07,0.0,2.728433125704492e-07,-0.00234024252352414,0.0,0.0,0.0,12.55810419730044,-1.8248012344065412e-06,0.0,0.0,0.0,0.0,4.3869780051631606e-08,0.0007641207008268917,0.0,0.0,0.0,0.0,0.0,0.0,0.0007641207008268917,0.0,0.0,0.0,0.0,0.0,0.0,4.993773312839096e-07,1.2524132958978564e-37,6.047432706991096e-29,0.0,0.0,0.0,1.2524132958978552e-37,4.97536706696652e-07,-9.972288422690168e-45,0.0,0.0,0.0,6.047432706991093e-29,9.924975133809505e-45,4.97536706696652e-07,0.0,0.0,0.0,0.0,0.0,0.0,9.999574935074395e-10
209520000000,10466,209520000000,odom,base_link,-0.0006735079964901453,-7.572831012710616e-08,0.0,0.0,0.0,6.752494128867678e-05,0.9999999977201911,10.470463707491238,-7.70026697193417e-11,0.0,0.0,0.0,2.729052116063903e-07,-7.700266971934563e-11,10.470464396448302,0.0,0.0,0.0,-0.002340700869584567,0.0,0.0,4.995843713223119e-07,1.0966896997604657e-29,2.5073619408385808e-20,0.0,0.0,0.0,1.096689699760466e-29,4.991708037514474e-07,-6.683291656276861e-38,0.0,0.0,0.0,2.5073619408385808e-20,6.550971719518258e-38,4.991708037514474e-07,0.0,2.729052116063935e-07,-0.0023407008695845986,0.0,0.0,0.0,12.559304207267614,-1.8249145861006246e-06,0.0,0.0,0.0,0.0,1.5105067870502707e-07,0.0007641207008274537,0.0,0.0,0.0,0.0,0.0,0.0,0.0007641207008274537,0.0,0.0,0.0,0.0,0.0,0.0,4.993773312839113e-07,2.658405129213225e-38,6.047808354264226e-29,0.0,0.0,0.0,2.6584051292132245e-38,4.97536706696659e-07,-6.2605877155223345e-46,0.0,0.0,0.0,6.047808354264223e-29,6.11094578351723e-46,4.97536706696659e-07,0.0,0.0,0.0,0.0,0.0,0.0,9.999574935074393e-10
209540000000,10467,209540000000,odom,base_link,-0.0006735444959397858,-7.573323940109346e-08,0.0,0.0,0.0,6.752695384745847e-05,0.9999999977200552,10.471464132491363,-7.702417081040411e-11,0.0,0.0,0.0,2.729671212949408e-07,-7.702417081040804e-11,10.471464821619312,0.0,0.0,0.0,-0.002341159287916445,0.0,0.0,4.995843713223107e-07,3.766546402538088e-29,2.5075176960418288e-20,0.0,0.0,0.0,3.7665464025380877e-29,4.99170803751445e-07,-6.505474297475809e-39,0.0,0.0,0.0,2.5075176960418282e-20,1.9607052446470827e-39,4.99170803751445e-07,0.0,2.72967121294944e-07,-0.0023411592879164765,0.0,0.0,0.0,12.560504217234786,-1.8250279490927086e-06,0.0,0.0,0.0,0.0,3.533854160110015e-07,0.0007641207008268566,0.0,0.0,0.0,0.0,0.0,0.0,0.0007641207008268566,0.0,0.0,0.0,0.0,0.0,0.0,4.993773312839096e-07,9.130209308087303e-38,6.048184039004058e-29,0.0,0.0,0.0,9.130209308087304e-38,4.97536706696652e-07,-1.3090015524437695e-46,0.0,0.0,0.0,6.048184039004061e-29,6.67732697908793e-47,4.97536706696652e-07,0.0,0.0,0.0,0.0,0.0,0.0,9.999574935074395e-10
209560000000,10468,209560000000,odom,base_link,-0.0006735809976567468,-7.573816916513577e-08,0.0,0.0,0.0,6.753059030525174e-05,0.9999999977198096,10.47246455749149,-7.704567818760338e-11,0.0,0.0,0.0,2.730290430542167e-07,-7.704567818760744e-11,10.47246524679037,0.0,0.0,0.0,-0.0023416177785277694,0.0,0.0,4.995843713223107e-07,8.807086577121926e-29,2.5076734639944023e-20,0.0,0.0,0.0,8.807086577121924e-29,4.99170803751445e-07,-1.394891422530178e-36,0.0,0.0,0.0,2.5076734639944014e-20,1.3842640050996094e-36,4.99170803751445e-07,0.0,2.730290430542199e-07,-0.002341617778527801,0.0,0.0,0.0,12.561704227201961,-1.825141321365645e-06,0.0,0.0,0.0,0.0,3.967587173473058e-07,0.0007641207008268917,0.0,0.0,0.0,0.0,0.0,0.0,0.0007641207008268917,0.0,0.0,0.0,0.0,0.0,0.0,4.993773312839096e-07,2.1348613746951143e-37,6.048559754496205e-29,0.0,0.0,0.0,2.134861374695113e-37,4.97536706696652e-07,-1.3125635500372705e-44,0.0,0.0,0.0,6.048559754496208e-29,1.300618335668766e-44,4.97536706696652e-07,0.0,0.0,0.0,0.0,0.0,0.0,9.999574935074395e-10
209580000000,10469,209580000000,odom,base_link,-0.0006736175016412484,-7.574309950882885e-08,0.0,0.0,0.0,6.753345532058129e-05,0.9999999977196162,10.473464982491617,-7.706719206235226e-11,0.0,0.0,0.0,2.7309097801084675e-07,-7.70671920623563e-11,10.47346567196147,0.0,0.0,0.0,-0.0023420763414264225,0.0,0.0,4.995843713223119e-07,9.888161289017621e-29,2.507829245886971e-20,0.0,0.0,0.0,9.888161289017617e-29,4.991708037514474e-07,-1.984589164023491e-36,0.0,0.0,0.0,2.5078292458869717e-20,1.9726564840192117e-36,4.991708037514474e-07,0.0,2.7309097801084993e-07,-0.002342076341426454,0.0,0.0,0.0,12.562904237169136,-1.8252547037888012e-06,0.0,0.0,0.0,0.0,-4.325113473615492e-08,0.0007641207008274537,0.0,0.0,0.0,0.0,0.0,0.0,0.0007641207008274537,0.0,0.0,0.0,0.0,0.0,0.0,4.993773312839113e-07,2.396916781844851e-37,6.048935503611617e-29,0.0,0.0,0.0,2.3969167818448507e-37,4.97536706696659e-07,-1.887245888194172e-44,0.0,0.0,0.0,6.048935503611618e-29,1.8752918523751583e-44,4.97536706696659e-07,0.0,0.0,0.0,0.0,0.0,0.0,9.999574935074393e-10
209600000000,10470,209600000000,odom,base_link,-0.0006736540078932906,-7.57480302876487e-08,0.0,0.0,0.0,6.7533025038328e-05,0.9999999977196453,10.474465407491742,-7.708871209783624e-11,0.0,0.0,0.0,2.73152924350758e-07,-7.708871209784034e-11,10.474466097132613,0.0,0.0,0.0,-0.0023425349766197485,0.0,0.0,0.0006009984372418835,-7.787553945149866e-24,1.8192907662111604e-14,0.0,0.0,0.0,-7.787553945149864e-24,0.0003009967822595707,3.8526509872890255e-32,0.0,0.0,0.0,1.8192907662111604e-14,-3.8526509872890255e-32,0.0003009967822595707,0.0,2.7315292435076116e-07,-0.00234253497661978,0.0,0.0,0.0,12.564104257037277,-1.8253680911886053e-06,0.0,0.0,0.0,0.0,-4.2805319376129014e-08,0.0007641207008268566,0.0,0.0,0.0,0.0,0.0,0.0,0.0007641207008268566,0.0,0.0,0.0,0.0,0.0,0.0,0.0004009976086776219,-1.3241945985024686e-38,3.033927103593321e-29,0.0,0.0,0.0,-1.324194598502468e-38,0.00010099014754404405,-1.5262785273373574e-46,0.0,0.0,0.0,3.033927103593319e-29,1.526162476574737e-46,0.00010099014754404405,0.0,0.0,0.0,0.0,0.0,0.0,0.00039867648344522693
209620000000,10471,209620000000,odom,base_link,-0.0006736905164134602,-7.575296140426698e-08,0.0,0.0,0.0,6.753492339157603e-05,0.9999999977195171,10.475465832491869,-7.7110238067414e-11,0.0,0.0,0.0,2.7321488085154066e-07,-7.71102380674181e-11,10.475466522303801,0.0,0.0,0.0,-0.0023429936841159894,0.0,0.0,4.995843713223107e-07,3.229430569525617e-29,2.508140847197182e-20,0.0,0.0,0.0,3.2294305695256167e-29,4.99170803751445e-07,-6.130320171591576e-37,0.0,0.0,0.0,2.508140847197181e-20,6.091343714172517e-37,4.99170803751445e-07,0.0,2.7321488085154384e-07,-0.002342993684116021,0.0,0.0,0.0,12.565304257103483,-1.8254814959192898e-06,0.0,0.0,0.0,0.0,2.0021901881081468e-07,0.0007641207008268917,0.0,0.0,0.0,0.0,0.0,0.0,0.0007641207008268917,0.0,0.0,0.0,0.0,0.0,0.0,4.993773312839096e-07,7.828226135891545e-38,6.049687092353536e-29,0.0,0.0,0.0,7.828226135891545e-38,4.97536706696652e-07,-5.813681287657113e-45,0.0,0.0,0.0,6.049687092353535e-29,5.744982478374123e-45,4.97536706696652e-07,0.0,0.0,0.0,0.0,0.0,0.0,9.999574935074395e-10
