%time,field.header.seq,field.header.stamp,field.header.frame_id,field.child_frame_id,field.pose.pose.position.x,field.pose.pose.position.y,field.pose.pose.position.z,field.pose.pose.orientation.x,field.pose.pose.orientation.y,field.pose.pose.orientation.z,field.pose.pose.orientation.w,field.pose.covariance0,field.pose.covariance1,field.pose.covariance2,field.pose.covariance3,field.pose.covariance4,field.pose.covariance5,field.pose.covariance6,field.pose.covariance7,field.pose.covariance8,field.pose.covariance9,field.pose.covariance10,field.pose.covariance11,field.pose.covariance12,field.pose.covariance13,field.pose.covariance14,field.pose.covariance15,field.pose.covariance16,field.pose.covariance17,field.pose.covariance18,field.pose.covariance19,field.pose.covariance20,field.pose.covariance21,field.pose.covariance22,field.pose.covariance23,field.pose.covariance24,field.pose.covariance25,field.pose.covariance26,field.pose.covariance27,field.pose.covariance28,field.pose.covariance29,field.pose.covariance30,field.pose.covariance31,field.pose.covariance32,field.pose.covariance33,field.pose.covariance34,field.pose.covariance35,field.twist.twist.linear.x,field.twist.twist.linear.y,field.twist.twist.linear.z,field.twist.twist.angular.x,field.twist.twist.angular.y,field.twist.twist.angular.z,field.twist.covariance0,field.twist.covariance1,field.twist.covariance2,field.twist.covariance3,field.twist.covariance4,field.twist.covariance5,field.twist.covariance6,field.twist.covariance7,field.twist.covariance8,field.twist.covariance9,field.twist.covariance10,field.twist.covariance11,field.twist.covariance12,field.twist.covariance13,field.twist.covariance14,field.twist.covariance15,field.twist.covariance16,field.twist.covariance17,field.twist.covariance18,field.twist.covariance19,field.twist.covariance20,field.twist.covariance21,field.twist.covariance22,field.twist.covariance23,field.twist.covariance24,field.twist.covariance25,field.twist.covariance26,field.twist.covariance27,field.twist.covariance28,field.twist.covariance29,field.twist.covariance30,field.twist.covariance31,field.twist.covariance32,field.twist.covariance33,field.twist.covariance34,field.twist.covariance35
50880000000,2534,50880000000,odom,base_link,-0.00043185862760451726,1.5200143393946663e-07,0.0,0.0,0.0,-0.0001896105961239291,0.9999999820239107,2.5350916258688976,4.3902425789163155e-11,0.0,0.0,0.0,-1.4852295127313858e-07,4.39024257891625e-11,2.535091745499296,0.0,0.0,0.0,-0.00040213354853412025,0.0,0.0,4.995843713223112e-07,-3.431483449206613e-29,1.9739017337397038e-20,0.0,0.0,0.0,-3.431483449206614e-29,4.991708037514462e-07,6.061554799313809e-37,0.0,0.0,0.0,1.9739017337397038e-20,-6.028961229765329e-37,4.991708037514462e-07,0.0,-1.485229512731396e-07,-0.00040213354853412675,0.0,0.0,0.0,3.040825177534105,-1.4366119409423638e-06,0.0,0.0,0.0,0.0,-1.338599020922411e-07,0.0007641207008271616,0.0,0.0,0.0,0.0,0.0,0.0,0.0007641207008271616,0.0,0.0,0.0,0.0,0.0,0.0,4.993773312839106e-07,-8.318007945379457e-38,4.7610914113185425e-29,0.0,0.0,0.0,-8.318007945379458e-38,4.975367066966557e-07,5.653231022674279e-45,0.0,0.0,0.0,4.761091411318541e-29,-5.593504528051641e-45,4.975367066966557e-07,0.0,0.0,0.0,0.0,0.0,0.0,9.999574935074393e-10
50900000000,2535,50900000000,odom,base_link,-0.00043188735928068636,1.520123296197739e-07,0.0,0.0,0.0,-0.00018961208210102154,0.999999982023629,2.536092050869023,4.3911075554095955e-11,0.0,0.0,0.0,-1.485560863281485e-07,4.391107555409532e-11,2.5360921705225317,0.0,0.0,0.0,-0.0004022209249661715,0.0,0.0,4.995843713223111e-07,-2.6195645092210294e-29,1.9738160517934292e-20,0.0,0.0,0.0,-2.619564509221028e-29,4.991708037514456e-07,-1.6838790501310602e-37,0.0,0.0,0.0,1.973816051793429e-20,1.7087596165990072e-37,4.991708037514456e-07,0.0,-1.4855608632814953e-07,-0.000402220924966178,0.0,0.0,0.0,3.0420251875012805,-1.4365495872815225e-06,0.0,0.0,0.0,0.0,-1.9415923684894372e-07,0.0007641207008270141,0.0,0.0,0.0,0.0,0.0,0.0,0.0007641207008270141,0.0,0.0,0.0,0.0,0.0,0.0,4.993773312839101e-07,-6.349894680547808e-38,4.760884744708583e-29,0.0,0.0,0.0,-6.349894680547808e-38,4.97536706696654e-07,-1.6777520974284828e-45,0.0,0.0,0.0,4.760884744708583e-29,1.6734802689403608e-45,4.97536706696654e-07,0.0,0.0,0.0,0.0,0.0,0.0,9.999574935074395e-10
50920000000,2536,50920000000,odom,base_link,-0.00043191608970977034,1.5202322492120678e-07,0.0,0.0,0.0,-0.0001896142136197225,0.9999999820232248,2.5370924758691484,4.391972688578606e-11,0.0,0.0,0.0,-1.4858923330563625e-07,4.391972688578544e-11,2.5370925955457717,0.0,0.0,0.0,-0.0004023083320830359,0.0,0.0,4.995843713223112e-07,-3.8017189251291105e-29,1.9737303966279113e-20,0.0,0.0,0.0,-3.80171892512911e-29,4.991708037514462e-07,1.2944309253028528e-36,0.0,0.0,0.0,1.9737303966279107e-20,-1.2908202176618064e-36,4.991708037514462e-07,0.0,-1.485892333056373e-07,-0.0004023083320830424,0.0,0.0,0.0,3.0432251974684563,-1.4364872530922414e-06,0.0,0.0,0.0,0.0,-2.7193639820732094e-07,0.0007641207008271616,0.0,0.0,0.0,0.0,0.0,0.0,0.0007641207008271616,0.0,0.0,0.0,0.0,0.0,0.0,4.993773312839106e-07,-9.215468659739815e-38,4.760678142694875e-29,0.0,0.0,0.0,-9.21546865973981e-38,4.975367066966557e-07,1.2144634792320091e-44,0.0,0.0,0.0,4.7606781426948714e-29,-1.2084778123607479e-44,4.975367066966557e-07,0.0,0.0,0.0,0.0,0.0,0.0,9.999574935074393e-10
50940000000,2537,50940000000,odom,base_link,-0.00043194481889257584,1.5203411988366533e-07,0.0,0.0,0.0,-0.00018961726953252366,0.9999999820226454,2.5380929008692736,4.392837980084297e-11,0.0,0.0,0.0,-1.4862239232577013e-07,4.3928379800842295e-11,2.5380930205690153,0.0,0.0,0.0,-0.0004023957698832264,0.0,0.0,4.995843713223111e-07,-5.326437544220697e-29,1.9736447827084413e-20,0.0,0.0,0.0,-5.326437544220695e-29,4.991708037514456e-07,5.722744062585047e-38,0.0,0.0,0.0,1.9736447827084404e-20,-5.216884084051127e-38,4.991708037514456e-07,0.0,-1.4862239232577119e-07,-0.0004023957698832329,0.0,0.0,0.0,3.0444252074356317,-1.4364249489313678e-06,0.0,0.0,0.0,0.0,-4.0907592833232407e-07,0.0007641207008270141,0.0,0.0,0.0,0.0,0.0,0.0,0.0007641207008270141,0.0,0.0,0.0,0.0,0.0,0.0,4.993773312839101e-07,-1.2911427448057431e-37,4.760471640167025e-29,0.0,0.0,0.0,-1.291142744805743e-37,4.97536706696654e-07,4.984999212480427e-46,0.0,0.0,0.0,4.7604716401670246e-29,-4.5179953900375565e-46,4.97536706696654e-07,0.0,0.0,0.0,0.0,0.0,0.0,9.999574935074395e-10
50960000000,2538,50960000000,odom,base_link,-0.00043197354682946934,1.520450145689152e-07,0.0,0.0,0.0,-0.00018962090891658562,0.9999999820219553,2.5390933258693993,4.393703432477181e-11,0.0,0.0,0.0,-1.4865556357600107e-07,4.393703432477114e-11,2.539093445592264,0.0,0.0,0.0,-0.0004024832383654003,0.0,0.0,4.995843713223111e-07,-8.014820050031482e-29,1.973559201914037e-20,0.0,0.0,0.0,-8.014820050031485e-29,4.991708037514456e-07,1.7057845533149074e-36,0.0,0.0,0.0,1.9735592019140365e-20,-1.6981730853622845e-36,4.991708037514456e-07,0.0,-1.4865556357600213e-07,-0.0004024832383654068,0.0,0.0,0.0,3.0456252174028076,-1.4363626688729323e-06,0.0,0.0,0.0,0.0,-2.309128775724028e-07,0.0007641207008270232,0.0,0.0,0.0,0.0,0.0,0.0,0.0007641207008270232,0.0,0.0,0.0,0.0,0.0,0.0,4.993773312839101e-07,-1.942813867832086e-37,4.7602652175378145e-29,0.0,0.0,0.0,-1.942813867832087e-37,4.97536706696654e-07,1.6293776634597608e-44,0.0,0.0,0.0,4.7602652175378145e-29,-1.6191750960949657e-44,4.97536706696654e-07,0.0,0.0,0.0,0.0,0.0,0.0,9.999574935074395e-10
50980000000,2539,50980000000,odom,base_link,-0.00043200227352111083,1.5205590896542502e-07,0.0,0.0,0.0,-0.0001896232640026694,0.9999999820215087,2.5400937508695245,4.394569045354276e-11,0.0,0.0,0.0,-1.486887470203718e-07,4.39456904535421e-11,2.5400938706155154,0.0,0.0,0.0,-0.0004025707375281727,0.0,0.0,4.995843713223111e-07,-4.521747276686423e-29,1.9734736604202983e-20,0.0,0.0,0.0,-4.521747276686422e-29,4.991708037514456e-07,8.432515778826172e-37,0.0,0.0,0.0,1.973473660420298e-20,-8.38957577183943e-37,4.991708037514456e-07,0.0,-1.4868874702037286e-07,-0.0004025707375281792,0.0,0.0,0.0,3.046825227369983,-1.4363004174246272e-06,0.0,0.0,0.0,0.0,-2.5115602424529604e-07,0.0007641207008269794,0.0,0.0,0.0,0.0,0.0,0.0,0.0007641207008269794,0.0,0.0,0.0,0.0,0.0,0.0,4.993773312839101e-07,-1.096083668139091e-37,4.760058889702362e-29,0.0,0.0,0.0,-1.0960836681390909e-37,4.97536706696654e-07,7.837146204167785e-45,0.0,0.0,0.0,4.760058889702364e-29,-7.828130912562533e-45,4.97536706696654e-07,0.0,0.0,0.0,0.0,0.0,0.0,9.999574935074395e-10
51000000000,2540,51000000000,odom,base_link,-0.00043203099896786684,1.5206680302802976e-07,0.0,0.0,0.0,-0.00018962475739627355,0.9999999820212255,2.54109417586965,4.395434816962215e-11,0.0,0.0,0.0,-1.4872194252075308e-07,4.3954348169621414e-11,2.5410942956387714,0.0,0.0,0.0,-0.00040265826737013994,0.0,0.0,4.995843713223111e-07,-4.918383074762887e-29,1.9733881510799302e-20,0.0,0.0,0.0,-4.9183830747628865e-29,4.991708037514456e-07,3.1105160846174414e-38,0.0,0.0,0.0,1.9733881510799308e-20,-2.6434704054279605e-38,4.991708037514456e-07,0.0,-1.4872194252075414e-07,-0.0004026582673701465,0.0,0.0,0.0,3.048025237337159,-1.4362381893683541e-06,0.0,0.0,0.0,0.0,1.5553001475907055e-07,0.0007641207008270146,0.0,0.0,0.0,0.0,0.0,0.0,0.0007641207008270146,0.0,0.0,0.0,0.0,0.0,0.0,4.993773312839101e-07,-1.1922292480864576e-37,4.759852639421779e-29,0.0,0.0,0.0,-1.1922292480864566e-37,4.97536706696654e-07,2.477077722005799e-46,0.0,0.0,0.0,4.759852639421779e-29,-2.4723480382823877e-46,4.97536706696654e-07,0.0,0.0,0.0,0.0,0.0,0.0,9.999574935074395e-10
51020000000,2541,51020000000,odom,base_link,-0.00043205972317054406,1.5207769664620589e-07,0.0,0.0,0.0,-0.00018962331299303585,0.9999999820214994,2.542094600869776,4.3963007429079916e-11,0.0,0.0,0.0,-1.487551497391194e-07,4.3963007429079115e-11,2.5420947206620315,0.0,0.0,0.0,-0.00040274582789000214,0.0,0.0,4.995843713223112e-07,3.053851372515877e-29,1.973302685668939e-20,0.0,0.0,0.0,3.0538513725158766e-29,4.991708037514462e-07,-6.47697869512624e-38,0.0,0.0,0.0,1.9733026856689387e-20,6.186999997837809e-38,4.991708037514462e-07,0.0,-1.4875514973912047e-07,-0.0004027458278900087,0.0,0.0,0.0,3.0492252473043346,-1.4361759933025256e-06,0.0,0.0,0.0,0.0,1.1180095916927648e-07,0.0007641207008271616,0.0,0.0,0.0,0.0,0.0,0.0,0.0007641207008271616,0.0,0.0,0.0,0.0,0.0,0.0,4.993773312839106e-07,7.402617434243731e-38,4.759646495099425e-29,0.0,0.0,0.0,7.402617434243729e-38,4.975367066966557e-07,-4.457703102157348e-46,0.0,0.0,0.0,4.759646495099426e-29,4.158853364057296e-46,4.975367066966557e-07,0.0,0.0,0.0,0.0,0.0,0.0,9.999574935074393e-10
51040000000,2542,51040000000,odom,base_link,-0.00043208844612928896,1.520885897159277e-07,0.0,0.0,0.0,-0.00018962309093333588,0.9999999820215415,2.543095025869901,4.3971668190654324e-11,0.0,0.0,0.0,-1.4878836835762153e-07,4.397166819065359e-11,2.5430951456852955,0.0,0.0,0.0,-0.00040283341908634387,0.0,0.0,4.995843713223111e-07,2.1965615853048655e-29,1.9732172470553442e-20,0.0,0.0,0.0,2.1965615853048653e-29,4.991708037514456e-07,-2.325099145150662e-37,0.0,0.0,0.0,1.9732172470553433e-20,2.30424258049558e-37,4.991708037514456e-07,0.0,-1.4878836835762258e-07,-0.00040283341908635043,0.0,0.0,0.0,3.05042525727151,-1.4361138167163845e-06,0.0,0.0,0.0,0.0,-2.472843109277955e-07,0.0007641207008270141,0.0,0.0,0.0,0.0,0.0,0.0,0.0007641207008270141,0.0,0.0,0.0,0.0,0.0,0.0,4.993773312839101e-07,5.324524025606485e-38,4.759440415413263e-29,0.0,0.0,0.0,5.324524025606482e-38,4.97536706696654e-07,-2.1553203358007246e-45,0.0,0.0,0.0,4.7594404154132616e-29,2.1551265814713004e-45,4.97536706696654e-07,0.0,0.0,0.0,0.0,0.0,0.0,9.999574935074395e-10
51060000000,2543,51060000000,odom,base_link,-0.0004321171678447615,1.5209948235295412e-07,0.0,0.0,0.0,-0.00018962481877850506,0.9999999820212139,2.5440954508700266,4.398033050150753e-11,0.0,0.0,0.0,-1.4882159872787373e-07,4.3980330501506774e-11,2.5440955707085635,0.0,0.0,0.0,-0.0004029210409575761,0.0,0.0,4.995843713223112e-07,-4.8418569073270856e-29,1.973131844575223e-20,0.0,0.0,0.0,-4.8418569073270873e-29,4.991708037514462e-07,2.116739361662918e-37,0.0,0.0,0.0,1.9731318445752225e-20,-2.07076745187031e-37,4.991708037514462e-07,0.0,-1.488215987278748e-07,-0.00040292104095758264,0.0,0.0,0.0,3.051625267238686,-1.43605166643025e-06,0.0,0.0,0.0,0.0,4.979708344427077e-08,0.0007641207008271616,0.0,0.0,0.0,0.0,0.0,0.0,0.0007641207008271616,0.0,0.0,0.0,0.0,0.0,0.0,4.993773312839106e-07,-1.1736790994935225e-37,4.7592344228816963e-29,0.0,0.0,0.0,-1.1736790994935223e-37,4.975367066966557e-07,1.8782666823363787e-45,0.0,0.0,0.0,4.7592344228816946e-29,-1.8007654023372548e-45,4.975367066966557e-07,0.0,0.0,0.0,0.0,0.0,0.0,9.999574935074393e-10
51080000000,2544,51080000000,odom,base_link,-0.00043214588831776824,1.5211037457536654e-07,0.0,0.0,0.0,-0.00018962380549417796,0.999999982021406,2.545095875870152,4.3988994369496263e-11,0.0,0.0,0.0,-1.488548409037481e-07,4.398899436949548e-11,2.5450959957318355,0.0,0.0,0.0,-0.0004030086935025374,0.0,0.0,4.995843713223111e-07,9.811040007276039e-30,1.9730464880173467e-20,0.0,0.0,0.0,9.811040007276041e-30,4.991708037514456e-07,2.420055414040401e-38,0.0,0.0,0.0,1.9730464880173458e-20,-2.5132041259280495e-38,4.991708037514456e-07,0.0,-1.4885484090374916e-07,-0.00040300869350254397,0.0,0.0,0.0,3.0528252772058613,-1.4359895495864845e-06,0.0,0.0,0.0,0.0,2.5667981754537293e-07,0.0007641207008270141,0.0,0.0,0.0,0.0,0.0,0.0,0.0007641207008270141,0.0,0.0,0.0,0.0,0.0,0.0,4.993773312839101e-07,2.3782222660711967e-38,4.759028541115175e-29,0.0,0.0,0.0,2.378222266071197e-38,4.97536706696654e-07,2.480571848834401e-46,0.0,0.0,0.0,4.759028541115177e-29,-2.5765294942880045e-46,4.97536706696654e-07,0.0,0.0,0.0,0.0,0.0,0.0,9.999574935074395e-10
51100000000,2545,51100000000,odom,base_link,-0.0004321746075484557,1.52121266238722e-07,0.0,0.0,0.0,-0.00018962214587354468,0.9999999820217207,2.5460963008702775,4.399765973705344e-11,0.0,0.0,0.0,-1.48888094443702e-07,4.399765973705262e-11,2.546096420755112,0.0,0.0,0.0,-0.00040309637671988486,0.0,0.0,4.995843713223111e-07,5.035757148297269e-29,1.972961159249807e-20,0.0,0.0,0.0,5.035757148297267e-29,4.991708037514456e-07,-4.6967305177868495e-37,0.0,0.0,0.0,1.972961159249807e-20,4.648921722195039e-37,4.991708037514456e-07,0.0,-1.4888809444370307e-07,-0.0004030963767198914,0.0,0.0,0.0,3.054025287173037,-1.4359274529503673e-06,0.0,0.0,0.0,0.0,-1.059455753226612e-07,0.0007641207008270232,0.0,0.0,0.0,0.0,0.0,0.0,0.0007641207008270232,0.0,0.0,0.0,0.0,0.0,0.0,4.993773312839101e-07,1.2206810144589662e-37,4.758822726380049e-29,0.0,0.0,0.0,1.220681014458966e-37,4.97536706696654e-07,-4.492144037680134e-45,0.0,0.0,0.0,4.7588227263800473e-29,4.469885508822254e-45,4.97536706696654e-07,0.0,0.0,0.0,0.0,0.0,0.0,9.999574935074395e-10
51120000000,2546,51120000000,odom,base_link,-0.00043220332553755707,1.5213215738795715e-07,0.0,0.0,0.0,-0.00018962330034826195,0.9999999820215019,2.5470967258704027,4.400632662281176e-11,0.0,0.0,0.0,-1.4892135948338674e-07,4.40063266228109e-11,2.547096845778392,0.0,0.0,0.0,-0.000403184090608125,0.0,0.0,4.995843713223111e-07,-2.0712507680240077e-29,1.9728758696709433e-20,0.0,0.0,0.0,-2.071250768024007e-29,4.991708037514456e-07,1.2106641510344577e-37,0.0,0.0,0.0,1.9728758696709445e-20,-1.1910008271596239e-37,4.991708037514456e-07,0.0,-1.489213594833878e-07,-0.0004031840906081316,0.0,0.0,0.0,3.0552252971402125,-1.4358653848427022e-06,0.0,0.0,0.0,0.0,-1.4504544171777895e-07,0.0007641207008269794,0.0,0.0,0.0,0.0,0.0,0.0,0.0007641207008269794,0.0,0.0,0.0,0.0,0.0,0.0,4.993773312839101e-07,-5.020767472785482e-38,4.7586170061684374e-29,0.0,0.0,0.0,-5.02076747278548e-38,4.97536706696654e-07,1.0853885786311793e-45,0.0,0.0,0.0,4.7586170061684386e-29,-1.0597105339448125e-45,4.97536706696654e-07,0.0,0.0,0.0,0.0,0.0,0.0,9.999574935074395e-10
51140000000,2547,51140000000,odom,base_link,-0.0004322320422855857,1.521430481384412e-07,0.0,0.0,0.0,-0.00018962448395012384,0.9999999820212774,2.5480971508705283,4.4014995073877174e-11,0.0,0.0,0.0,-1.4895463637411699e-07,4.4014995073876256e-11,2.548097270801676,0.0,0.0,0.0,-0.00040327183516597736,0.0,0.0,4.995843713223111e-07,-2.837413841962979e-29,1.972790617308092e-20,0.0,0.0,0.0,-2.8374138419629804e-29,4.991708037514456e-07,-2.0794468699398333e-37,0.0,0.0,0.0,1.9727906173080913e-20,2.1063825638778976e-37,4.991708037514456e-07,0.0,-1.4895463637411804e-07,-0.0004032718351659839,0.0,0.0,0.0,3.0564253071073884,-1.4358033438231998e-06,0.0,0.0,0.0,0.0,-3.91761590246908e-08,0.0007641207008270146,0.0,0.0,0.0,0.0,0.0,0.0,0.0007641207008270146,0.0,0.0,0.0,0.0,0.0,0.0,4.993773312839101e-07,-6.877967299095483e-38,4.758411375722767e-29,0.0,0.0,0.0,-6.877967299095482e-38,4.97536706696654e-07,-1.946906804900129e-45,0.0,0.0,0.0,4.7584113757227645e-29,1.972629260616745e-45,4.97536706696654e-07,0.0,0.0,0.0,0.0,0.0,0.0,9.999574935074395e-10
51160000000,2548,51160000000,odom,base_link,-0.0004322607577929813,1.5215393847119388e-07,0.0,0.0,0.0,-0.00018962543613288378,0.9999999820210969,2.5490975758706536,4.402366508320385e-11,0.0,0.0,0.0,-1.4898792505699905e-07,4.4023665083202966e-11,2.549097695824964,0.0,0.0,0.0,-0.00040335961039204035,0.0,0.0,4.995843713223111e-07,-7.626278888854124e-30,1.9727053986161604e-20,0.0,0.0,0.0,-7.626278888854121e-30,4.991708037514456e-07,5.189213876997033e-38,0.0,0.0,0.0,1.9727053986161592e-20,-5.116820404982006e-38,4.991708037514456e-07,0.0,-1.489879250570001e-07,-0.0004033596103920469,0.0,0.0,0.0,3.0576253170745638,-1.435741327303703e-06,0.0,0.0,0.0,0.0,-2.646103122524403e-07,0.0007641207008269773,0.0,0.0,0.0,0.0,0.0,0.0,0.0007641207008269773,0.0,0.0,0.0,0.0,0.0,0.0,4.993773312839101e-07,-1.848630555774808e-38,4.758205826492011e-29,0.0,0.0,0.0,-1.8486305557748078e-38,4.97536706696654e-07,4.690431439249923e-46,0.0,0.0,0.0,4.758205826492011e-29,-4.6794846223208965e-46,4.97536706696654e-07,0.0,0.0,0.0,0.0,0.0,0.0,9.999574935074395e-10
51180000000,2549,51180000000,odom,base_link,-0.00043228947206033064,1.521648284207079e-07,0.0,0.0,0.0,-0.00018962840236653357,0.9999999820205343,2.550098000870779,4.4032336665290135e-11,0.0,0.0,0.0,-1.4902122563643776e-07,4.403233666528923e-11,2.5500981208482565,0.0,0.0,0.0,-0.00040344741628490935,0.0,0.0,4.995843713223111e-07,-5.18011701522723e-29,1.972620216939506e-20,0.0,0.0,0.0,-5.180117015227231e-29,4.991708037514456e-07,9.371676325740927e-37,0.0,0.0,0.0,1.972620216939506e-20,-9.3225054955965e-37,4.991708037514456e-07,0.0,-1.4902122563643882e-07,-0.0004034474162849159,0.0,0.0,0.0,3.0588253270417396,-1.4356793377258833e-06,0.0,0.0,0.0,0.0,-3.951115991126332e-07,0.0007641207008270141,0.0,0.0,0.0,0.0,0.0,0.0,0.0007641207008270141,0.0,0.0,0.0,0.0,0.0,0.0,4.993773312839101e-07,-1.2556742562479062e-37,4.758000366542903e-29,0.0,0.0,0.0,-1.255674256247906e-37,4.97536706696654e-07,8.961985080515299e-45,0.0,0.0,0.0,4.7580003665429024e-29,-8.961726787255255e-45,4.97536706696654e-07,0.0,0.0,0.0,0.0,0.0,0.0,9.999574935074395e-10
51200000000,2550,51200000000,odom,base_link,-0.00043231818508807345,1.521757180891722e-07,0.0,0.0,0.0,-0.00018963139902229207,0.9999999820199661,2.551098425870905,4.404100986198645e-11,0.0,0.0,0.0,-1.490545384242044e-07,4.40410098619856e-11,2.551098545871553,0.0,0.0,0.0,-0.0004035352528431797,0.0,0.0,4.995843713223112e-07,-7.737036824872924e-29,1.972535068830331e-20,0.0,0.0,0.0,-7.737036824872927e-29,4.991708037514462e-07,-1.468321387717596e-36,0.0,0.0,0.0,1.9725350688303316e-20,1.4756652392706646e-36,4.991708037514462e-07,0.0,-1.4905453842420548e-07,-0.0004035352528431863,0.0,0.0,0.0,3.0600253370089154,-1.435617372573624e-06,0.0,0.0,0.0,0.0,-1.4952381586006767e-08,0.0007641207008271616,0.0,0.0,0.0,0.0,0.0,0.0,0.0007641207008271616,0.0,0.0,0.0,0.0,0.0,0.0,4.993773312839106e-07,-1.875478469707595e-37,4.75779498755927e-29,0.0,0.0,0.0,-1.8754784697075957e-37,4.975367066966557e-07,-1.4191302368997922e-44,0.0,0.0,0.0,4.75779498755927e-29,1.434490436431836e-44,4.975367066966557e-07,0.0,0.0,0.0,0.0,0.0,0.0,9.999574935074393e-10
51220000000,2551,51220000000,odom,base_link,-0.00043234689687686977,1.5218660740525943e-07,0.0,0.0,0.0,-0.00018963160836194502,0.9999999820199263,2.55209885087103,4.404968464511537e-11,0.0,0.0,0.0,-1.4908786320116683e-07,4.404968464511456e-11,2.552098970894853,0.0,0.0,0.0,-0.0004036231200655042,0.0,0.0,4.995843713223111e-07,-2.878911308882553e-30,1.97244996024711e-20,0.0,0.0,0.0,-2.878911308882554e-30,4.991708037514456e-07,-1.9720596937514555e-38,0.0,0.0,0.0,1.97244996024711e-20,1.9993846054813774e-38,4.991708037514456e-07,0.0,-1.4908786320116791e-07,-0.0004036231200655108,0.0,0.0,0.0,3.061225346976091,-1.4355554361940269e-06,0.0,0.0,0.0,0.0,-3.931735113813388e-08,0.0007641207008270141,0.0,0.0,0.0,0.0,0.0,0.0,0.0007641207008270141,0.0,0.0,0.0,0.0,0.0,0.0,4.993773312839101e-07,-6.978559378520186e-39,4.7575897039128374e-29,0.0,0.0,0.0,-6.978559378520186e-39,4.97536706696654e-07,-1.8787619522432255e-46,0.0,0.0,0.0,4.757589703912839e-29,1.921778559241974e-46,4.97536706696654e-07,0.0,0.0,0.0,0.0,0.0,0.0,9.999574935074395e-10
51240000000,2552,51240000000,odom,base_link,-0.00043237560742715933,1.521974962671454e-07,0.0,0.0,0.0,-0.00018963221090883547,0.9999999820198121,2.5530992758711557,4.40583609741993e-11,0.0,0.0,0.0,-1.4912119965487797e-07,4.405836097419856e-11,2.5530993959181574,0.0,0.0,0.0,-0.00040371101795056634,0.0,0.0,4.995843713223112e-07,-7.65263884667762e-30,1.9723648864837905e-20,0.0,0.0,0.0,-7.652638846677623e-30,4.991708037514462e-07,1.8402502973006588e-37,0.0,0.0,0.0,1.972364886483791e-20,-1.8329871815010302e-37,4.991708037514462e-07,0.0,-1.4912119965487906e-07,-0.00040371101795057295,0.0,0.0,0.0,3.0624253569432667,-1.4354935251553333e-06,0.0,0.0,0.0,0.0,-1.2386662725605325e-07,0.0007641207008271616,0.0,0.0,0.0,0.0,0.0,0.0,0.0007641207008271616,0.0,0.0,0.0,0.0,0.0,0.0,4.993773312839106e-07,-1.855020278040597e-38,4.7573845042529606e-29,0.0,0.0,0.0,-1.8550202780405963e-38,4.975367066966557e-07,1.7226711204040726e-45,0.0,0.0,0.0,4.75738450425296e-29,-1.7215604577240223e-45,4.975367066966557e-07,0.0,0.0,0.0,0.0,0.0,0.0,9.999574935074393e-10
51260000000,2553,51260000000,odom,base_link,-0.00043240431673952887,1.5220838470626753e-07,0.0,0.0,0.0,-0.00018963320769347234,0.9999999820196231,2.554099700871281,4.4067038862508914e-11,0.0,0.0,0.0,-1.4915454788046596e-07,4.4067038862508164e-11,2.554099820941466,0.0,0.0,0.0,-0.00040379894649700764,0.0,0.0,4.995843713223111e-07,-2.42174072038708e-29,1.9722798503153384e-20,0.0,0.0,0.0,-2.4217407203870798e-29,4.991708037514456e-07,5.4450189335144e-37,0.0,0.0,0.0,1.9722798503153387e-20,-5.422035195034104e-37,4.991708037514456e-07,0.0,-1.4915454788046704e-07,-0.00040379894649701425,0.0,0.0,0.0,3.063625366910442,-1.4354316414794384e-06,0.0,0.0,0.0,0.0,-2.787772074843966e-08,0.0007641207008270141,0.0,0.0,0.0,0.0,0.0,0.0,0.0007641207008270141,0.0,0.0,0.0,0.0,0.0,0.0,4.993773312839101e-07,-5.870364513328654e-38,4.7571793952724835e-29,0.0,0.0,0.0,-5.870364513328653e-38,4.97536706696654e-07,5.1233117940319584e-45,0.0,0.0,0.0,4.7571793952724835e-29,-5.1189330468575994e-45,4.97536706696654e-07,0.0,0.0,0.0,0.0,0.0,0.0,9.999574935074395e-10
51280000000,2554,51280000000,odom,base_link,-0.00043243302481441823,1.5221927271951013e-07,0.0,0.0,0.0,-0.00018963363607523914,0.9999999820195419,2.5551001258714066,4.407571830939048e-11,0.0,0.0,0.0,-1.491879078674549e-07,4.4075718309389694e-11,2.5551002459647782,0.0,0.0,0.0,-0.00040388690570345055,0.0,0.0,4.995843713223111e-07,-5.410802368956633e-30,1.9721948480036924e-20,0.0,0.0,0.0,-5.410802368956637e-30,4.991708037514456e-07,-7.749026890925349e-38,0.0,0.0,0.0,1.9721948480036924e-20,7.800376362984033e-38,4.991708037514456e-07,0.0,-1.4918790786745598e-07,-0.00040388690570345717,0.0,0.0,0.0,3.064825376877618,-1.4353697824403135e-06,0.0,0.0,0.0,0.0,-8.836373302472936e-08,0.0007641207008270232,0.0,0.0,0.0,0.0,0.0,0.0,0.0007641207008270232,0.0,0.0,0.0,0.0,0.0,0.0,4.993773312839101e-07,-1.3115931105903103e-38,4.756974367955515e-29,0.0,0.0,0.0,-1.3115931105903103e-38,4.97536706696654e-07,-7.330211998371526e-46,0.0,0.0,0.0,4.756974367955515e-29,7.341320096692558e-46,4.97536706696654e-07,0.0,0.0,0.0,0.0,0.0,0.0,9.999574935074395e-10
51300000000,2555,51300000000,odom,base_link,-0.000432461731652414,1.5223016029691703e-07,0.0,0.0,0.0,-0.00018963436223014006,0.9999999820194042,2.5561005508715318,4.408439931140227e-11,0.0,0.0,0.0,-1.492212795842312e-07,4.408439931140141e-11,2.5561006709880947,0.0,0.0,0.0,-0.000403974895568508,0.0,0.0,4.995843713223111e-07,-1.7260114436341232e-29,1.9721098828001416e-20,0.0,0.0,0.0,-1.7260114436341223e-29,4.991708037514456e-07,3.2994491415164996e-37,0.0,0.0,0.0,1.972109882800141e-20,-3.283069693136934e-37,4.991708037514456e-07,0.0,-1.4922127958423228e-07,-0.0004039748955685146,0.0,0.0,0.0,3.0660253868447933,-1.4353079504106849e-06,0.0,0.0,0.0,0.0,-2.6009912704848413e-08,0.0007641207008269794,0.0,0.0,0.0,0.0,0.0,0.0,0.0007641207008269794,0.0,0.0,0.0,0.0,0.0,0.0,4.993773312839101e-07,-4.1838981042766496e-38,4.7567694301438484e-29,0.0,0.0,0.0,-4.183898104276648e-38,4.97536706696654e-07,3.0815780209250365e-45,0.0,0.0,0.0,4.756769430143846e-29,-3.051736270516381e-45,4.97536706696654e-07,0.0,0.0,0.0,0.0,0.0,0.0,9.999574935074395e-10
51320000000,2556,51320000000,odom,base_link,-0.00043249043725402926,1.5224104743814495e-07,0.0,0.0,0.0,-0.00018963519143149938,0.9999999820192469,2.5571009758716574,4.409308186899938e-11,0.0,0.0,0.0,-1.4925466302871383e-07,4.409308186899855e-11,2.5571010960114156,0.0,0.0,0.0,-0.00040406291609084696,0.0,0.0,4.995843713223111e-07,-5.0444443591819546e-30,1.9720249537707483e-20,0.0,0.0,0.0,-5.0444443591819546e-30,4.991708037514456e-07,6.022764066311425e-38,0.0,0.0,0.0,1.9720249537707486e-20,-5.97489552063923e-38,4.991708037514456e-07,0.0,-1.492546630287149e-07,-0.0004040629160908536,0.0,0.0,0.0,3.067225396811969,-1.4352461447086766e-06,0.0,0.0,0.0,0.0,-2.548402251150357e-07,0.0007641207008270146,0.0,0.0,0.0,0.0,0.0,0.0,0.0007641207008270146,0.0,0.0,0.0,0.0,0.0,0.0,4.993773312839101e-07,-1.2227869467729755e-38,4.756564579585126e-29,0.0,0.0,0.0,-1.222786946772976e-38,4.97536706696654e-07,5.694440504514501e-46,0.0,0.0,0.0,4.7565645795851246e-29,-5.6567628193897256e-46,4.97536706696654e-07,0.0,0.0,0.0,0.0,0.0,0.0,9.999574935074395e-10
51340000000,2557,51340000000,odom,base_link,-0.00043251914161985074,1.5225193419111975e-07,0.0,0.0,0.0,-0.0001896377828032366,0.9999999820187555,2.558101400871783,4.410176600213633e-11,0.0,0.0,0.0,-1.4928805834683107e-07,4.4101766002135477e-11,2.5581015210347404,0.0,0.0,0.0,-0.000404150967269162,0.0,0.0,4.995843713223112e-07,-4.9869485266486154e-29,1.9719400630077784e-20,0.0,0.0,0.0,-4.986948526648616e-29,4.991708037514462e-07,2.770157758744506e-37,0.0,0.0,0.0,1.9719400630077787e-20,-2.7228368488411453e-37,4.991708037514462e-07,0.0,-1.4928805834683215e-07,-0.0004041509672691686,0.0,0.0,0.0,3.068425406779145,-1.435184366862813e-06,0.0,0.0,0.0,0.0,-2.740434357522969e-07,0.0007641207008271616,0.0,0.0,0.0,0.0,0.0,0.0,0.0007641207008271616,0.0,0.0,0.0,0.0,0.0,0.0,4.993773312839106e-07,-1.2088496969916588e-37,4.756359821325702e-29,0.0,0.0,0.0,-1.2088496969916584e-37,4.975367066966557e-07,2.4049460833024293e-45,0.0,0.0,0.0,4.756359821325703e-29,-2.4048601299613298e-45,4.975367066966557e-07,0.0,0.0,0.0,0.0,0.0,0.0,9.999574935074393e-10
51360000000,2558,51360000000,odom,base_link,-0.00043254784475017154,1.5226282062702053e-07,0.0,0.0,0.0,-0.00018963928030377768,0.9999999820184715,2.5591018258719083,4.4110451740213536e-11,0.0,0.0,0.0,-1.49321465756301e-07,4.411045174021273e-11,2.559101946058069,0.0,0.0,0.0,-0.0004042390491019914,0.0,0.0,4.995843713223111e-07,-5.362887087301642e-29,1.9718552013271345e-20,0.0,0.0,0.0,-5.362887087301642e-29,4.991708037514456e-07,7.187649864334593e-37,0.0,0.0,0.0,1.9718552013271342e-20,-7.1367638819498455e-37,4.991708037514456e-07,0.0,-1.493214657563021e-07,-0.000404239049101998,0.0,0.0,0.0,3.0696254167463204,-1.4351226101649875e-06,0.0,0.0,0.0,0.0,2.2269607613026264e-07,0.0007641207008270141,0.0,0.0,0.0,0.0,0.0,0.0,0.0007641207008270141,0.0,0.0,0.0,0.0,0.0,0.0,4.993773312839101e-07,-1.2999782117840208e-37,4.7561551332135824e-29,0.0,0.0,0.0,-1.2999782117840208e-37,4.97536706696654e-07,6.750218809555643e-45,0.0,0.0,0.0,4.7561551332135824e-29,-6.750132460791355e-45,4.97536706696654e-07,0.0,0.0,0.0,0.0,0.0,0.0,9.999574935074395e-10
51380000000,2559,51380000000,odom,base_link,-0.0004325765466458717,1.522737066093348e-07,0.0,0.0,0.0,-0.00018963705942877818,0.9999999820188927,2.560102250872034,4.411913902860556e-11,0.0,0.0,0.0,-1.4935488483685755e-07,4.411913902860468e-11,2.5601023710814017,0.0,0.0,0.0,-0.00040432716158802357,0.0,0.0,0.0006009984372427361,3.167868323495537e-23,1.4303209964277446e-14,0.0,0.0,0.0,3.1678683234955367e-23,0.000300996782259997,-3.464131379084593e-31,0.0,0.0,0.0,1.430320996427745e-14,3.464131379084593e-31,0.000300996782259997,0.0,-1.4935488483685863e-07,-0.0004043271615880302,0.0,0.0,0.0,3.070825436614466,-1.4350608862029387e-06,0.0,0.0,0.0,0.0,2.2147892254867176e-07,0.0007641207008271616,0.0,0.0,0.0,0.0,0.0,0.0,0.0007641207008271616,0.0,0.0,0.0,0.0,0.0,0.0,0.00040099760867819037,5.363916871022393e-38,2.3853886410775666e-29,0.0,0.0,0.0,5.363916871022392e-38,0.00010099014754418616,-3.787387952309677e-45,0.0,0.0,0.0,2.385388641077567e-29,3.747847845448358e-45,0.00010099014754418616,0.0,0.0,0.0,0.0,0.0,0.0,0.0003986764834456514
51400000000,2560,51400000000,odom,base_link,-0.0004326052473072444,1.522845919590202e-07,0.0,0.0,0.0,-0.00018963493751572667,0.9999999820192951,2.561102675872159,4.412782779553663e-11,0.0,0.0,0.0,-1.4938831503788145e-07,4.41278277955358e-11,2.5611027961047386,0.0,0.0,0.0,-0.00040441530472602586,0.0,0.0,4.995843713223111e-07,6.883911327609793e-29,1.9716856002897166e-20,0.0,0.0,0.0,6.883911327609788e-29,4.991708037514456e-07,-3.3021043741515317e-37,0.0,0.0,0.0,1.9716856002897163e-20,3.236791706771493e-37,4.991708037514456e-07,0.0,-1.4938831503788253e-07,-0.0004044153047260325,0.0,0.0,0.0,3.0720254366806716,-1.434999185830397e-06,0.0,0.0,0.0,0.0,-3.343444067698081e-07,0.0007641207008270141,0.0,0.0,0.0,0.0,0.0,0.0,0.0007641207008270141,0.0,0.0,0.0,0.0,0.0,0.0,4.993773312839101e-07,1.6686785399283518e-37,4.755746052036715e-29,0.0,0.0,0.0,1.6686785399283525e-37,4.97536706696654e-07,-3.050392611971722e-45,0.0,0.0,0.0,4.7557460520367166e-29,2.9308971351406975e-45,4.97536706696654e-07,0.0,0.0,0.0,0.0,0.0,0.0,9.999574935074395e-10
51420000000,2561,51420000000,odom,base_link,-0.0004326339467348029,1.5229547683588613e-07,0.0,0.0,0.0,-0.00018963860992892302,0.9999999820185986,2.5621031008722848,4.413651810617664e-11,0.0,0.0,0.0,-1.4942175684884236e-07,4.41365181061758e-11,2.5621032211280794,0.0,0.0,0.0,-0.00040450347851451687,0.0,0.0,4.995843713223112e-07,-6.543220483239879e-29,1.971600849812795e-20,0.0,0.0,0.0,-6.54322048323988e-29,4.991708037514462e-07,-3.0969266355431513e-37,0.0,0.0,0.0,1.9716008498127962e-20,3.1590042533268653e-37,4.991708037514462e-07,0.0,-1.4942175684884344e-07,-0.0004045034785145235,0.0,0.0,0.0,3.0732254466478475,-1.4349375100750587e-06,0.0,0.0,0.0,0.0,-4.68857624146028e-07,0.0007641207008271616,0.0,0.0,0.0,0.0,0.0,0.0,0.0007641207008271616,0.0,0.0,0.0,0.0,0.0,0.0,4.993773312839106e-07,-1.586094188671967e-37,4.755541632150272e-29,0.0,0.0,0.0,-1.5860941886719672e-37,4.975367066966557e-07,-3.2293101187489274e-45,0.0,0.0,0.0,4.755541632150273e-29,3.289295686696557e-45,4.975367066966557e-07,0.0,0.0,0.0,0.0,0.0,0.0,9.999574935074393e-10
51440000000,2562,51440000000,odom,base_link,-0.000432662644929207,1.523063614751354e-07,0.0,0.0,0.0,-0.00018964231093369238,0.9999999820178967,2.56310352587241,4.414521005624818e-11,0.0,0.0,0.0,-1.494552109913372e-07,4.414521005624734e-11,2.5631036461514243,0.0,0.0,0.0,-0.00040459168295217874,0.0,0.0,4.995843713223111e-07,-9.177334101679018e-29,1.971516138993206e-20,0.0,0.0,0.0,-9.177334101679014e-29,4.991708037514456e-07,1.7928948767894715e-36,0.0,0.0,0.0,1.9715161389932057e-20,-1.784188421588974e-36,4.991708037514456e-07,0.0,-1.4945521099133828e-07,-0.0004045916829521854,0.0,0.0,0.0,3.074425456615023,-1.4348758631883543e-06,0.0,0.0,0.0,0.0,-7.590142454511331e-08,0.0007641207008270141,0.0,0.0,0.0,0.0,0.0,0.0,0.0007641207008270141,0.0,0.0,0.0,0.0,0.0,0.0,4.993773312839101e-07,-2.224610388961874e-37,4.7553373079178614e-29,0.0,0.0,0.0,-2.224610388961874e-37,4.97536706696654e-07,1.6739449251834815e-44,0.0,0.0,0.0,4.755337307917862e-29,-1.6832592640943595e-44,4.97536706696654e-07,0.0,0.0,0.0,0.0,0.0,0.0,9.999574935074395e-10
51460000000,2563,51460000000,odom,base_link,-0.00043269134189097,1.5231724580290188e-07,0.0,0.0,0.0,-0.00018964324632943642,0.9999999820177194,2.5641039508725356,4.415390361651307e-11,0.0,0.0,0.0,-1.4948867723770817e-07,4.415390361651225e-11,2.5641040711747736,0.0,0.0,0.0,-0.0004046799180377777,0.0,0.0,4.995843713223111e-07,-1.4813606938487257e-29,1.971431465618538e-20,0.0,0.0,0.0,-1.4813606938487252e-29,4.991708037514456e-07,2.723002363313283e-37,0.0,0.0,0.0,1.9714314656185373e-20,-2.70894942981736e-37,4.991708037514456e-07,0.0,-1.4948867723770925e-07,-0.0004046799180377844,0.0,0.0,0.0,3.0756254665821987,-1.4348142435580197e-06,0.0,0.0,0.0,0.0,-1.4745380422109317e-07,0.0007641207008270232,0.0,0.0,0.0,0.0,0.0,0.0,0.0007641207008270232,0.0,0.0,0.0,0.0,0.0,0.0,4.993773312839101e-07,-3.590858138394531e-38,4.755133074003548e-29,0.0,0.0,0.0,-3.590858138394532e-38,4.97536706696654e-07,2.6048029543949862e-45,0.0,0.0,0.0,4.755133074003547e-29,-2.606874190437006e-45,4.97536706696654e-07,0.0,0.0,0.0,0.0,0.0,0.0,9.999574935074395e-10
51480000000,2564,51480000000,odom,base_link,-0.00043272003762045833,1.5232812972723526e-07,0.0,0.0,0.0,-0.0001896455935362675,0.9999999820172742,2.565104375872661,4.416259875039148e-11,0.0,0.0,0.0,-1.4952215530455142e-07,4.4162598750390715e-11,2.5651044961981264,0.0,0.0,0.0,-0.0004047681837698929,0.0,0.0,4.995843713223111e-07,-2.8825054540386704e-29,1.9713468234733228e-20,0.0,0.0,0.0,-2.88250545403867e-29,4.991708037514456e-07,1.2901682481266044e-37,0.0,0.0,0.0,1.9713468234733216e-20,-1.262824523988159e-37,4.991708037514456e-07,0.0,-1.495221553045525e-07,-0.0004047681837698996,0.0,0.0,0.0,3.076825476549374,-1.434752646645323e-06,0.0,0.0,0.0,0.0,-4.989236885258091e-07,0.0007641207008269794,0.0,0.0,0.0,0.0,0.0,0.0,0.0007641207008269794,0.0,0.0,0.0,0.0,0.0,0.0,4.993773312839101e-07,-6.987270574290746e-38,4.7549289154153364e-29,0.0,0.0,0.0,-6.987270574290747e-38,4.97536706696654e-07,1.0960248577149051e-45,0.0,0.0,0.0,4.754928915415337e-29,-1.0960243761267815e-45,4.97536706696654e-07,0.0,0.0,0.0,0.0,0.0,0.0,9.999574935074395e-10
51500000000,2565,51500000000,odom,base_link,-0.000432748732118112,1.5233901336947828e-07,0.0,0.0,0.0,-0.00018964953984214523,0.9999999820165258,2.5661048008727865,4.417129550759809e-11,0.0,0.0,0.0,-1.495556455643124e-07,4.417129550759733e-11,2.5661049212214837,0.0,0.0,0.0,-0.0004048564801469529,0.0,0.0,4.995843713223111e-07,-9.764910560884761e-29,1.971262212006715e-20,0.0,0.0,0.0,-9.76491056088476e-29,4.991708037514456e-07,-3.905852337076474e-37,0.0,0.0,0.0,1.9712622120067146e-20,3.9984792428977906e-37,4.991708037514456e-07,0.0,-1.495556455643135e-07,-0.00040485648014695956,0.0,0.0,0.0,3.07802548651655,-1.4346910720482517e-06,0.0,0.0,0.0,0.0,-8.395036854434786e-08,0.0007641207008270146,0.0,0.0,0.0,0.0,0.0,0.0,0.0007641207008270146,0.0,0.0,0.0,0.0,0.0,0.0,4.993773312839101e-07,-2.367040496773618e-37,4.754724830824678e-29,0.0,0.0,0.0,-2.367040496773619e-37,4.97536706696654e-07,-3.7353002506318934e-45,0.0,0.0,0.0,4.7547248308246767e-29,3.718476337699211e-45,4.97536706696654e-07,0.0,0.0,0.0,0.0,0.0,0.0,9.999574935074395e-10
51520000000,2566,51520000000,odom,base_link,-0.00043277742538503104,1.5234989671184263e-07,0.0,0.0,0.0,-0.00018965115979806325,0.9999999820162186,2.5671052258729117,4.4179993881496735e-11,0.0,0.0,0.0,-1.495891479609493e-07,4.4179993881495946e-11,2.5671053462448445,0.0,0.0,0.0,-0.00040494480716788496,0.0,0.0,4.995843713223112e-07,-1.6387796063687394e-29,1.9711776539614044e-20,0.0,0.0,0.0,-1.6387796063687394e-29,4.991708037514462e-07,2.566676586393911e-37,0.0,0.0,0.0,1.9711776539614044e-20,-2.5511322993538736e-37,4.991708037514462e-07,0.0,-1.495891479609504e-07,-0.0004049448071678916,0.0,0.0,0.0,3.079225496483726,-1.434629536371642e-06,0.0,0.0,0.0,0.0,-3.979877086826472e-07,0.0007641207008271616,0.0,0.0,0.0,0.0,0.0,0.0,0.0007641207008271616,0.0,0.0,0.0,0.0,0.0,0.0,4.993773312839106e-07,-3.9724458008108533e-38,4.754520875086722e-29,0.0,0.0,0.0,-3.972445800810853e-38,4.975367066966557e-07,2.3634527043707438e-45,0.0,0.0,0.0,4.754520875086722e-29,-2.3634527091336996e-45,4.975367066966557e-07,0.0,0.0,0.0,0.0,0.0,0.0,9.999574935074393e-10
51540000000,2567,51540000000,odom,base_link,-0.0004328061174210684,1.523607797253448e-07,0.0,0.0,0.0,-0.00018965450037626165,0.999999982015585,2.5681056508730364,4.418869386108254e-11,0.0,0.0,0.0,-1.4962266240532894e-07,4.41886938610817e-11,2.5681057712682094,0.0,0.0,0.0,-0.0004050331648314119,0.0,0.0,4.995843713223111e-07,-7.787701746364975e-29,1.9710931172318685e-20,0.0,0.0,0.0,-7.787701746364975e-29,4.991708037514456e-07,2.9584599141248085e-37,0.0,0.0,0.0,1.9710931172318682e-20,-2.884594533160608e-37,4.991708037514456e-07,0.0,-1.4962266240533002e-07,-0.00040503316483141854,0.0,0.0,0.0,3.080425506450901,-1.4345680161727835e-06,0.0,0.0,0.0,0.0,-1.4433080051593239e-07,0.0007641207008270141,0.0,0.0,0.0,0.0,0.0,0.0,0.0007641207008270141,0.0,0.0,0.0,0.0,0.0,0.0,4.993773312839101e-07,-1.887759782119134e-37,4.754316970763506e-29,0.0,0.0,0.0,-1.887759782119133e-37,4.97536706696654e-07,2.6121851161105166e-45,0.0,0.0,0.0,4.7543169707635065e-29,-2.534297838067219e-45,4.97536706696654e-07,0.0,0.0,0.0,0.0,0.0,0.0,9.999574935074395e-10
51560000000,2568,51560000000,odom,base_link,-0.00043283480822703076,1.5237166242757458e-07,0.0,0.0,0.0,-0.00018965642468449532,0.9999999820152201,2.5691060758731616,4.4197395454027595e-11,0.0,0.0,0.0,-1.4965618895039012e-07,4.419739545402677e-11,2.569106196291578,0.0,0.0,0.0,-0.00040512155313591943,0.0,0.0,4.995843713223112e-07,-2.8208649844616757e-29,1.9710086190075607e-20,0.0,0.0,0.0,-2.8208649844616757e-29,4.991708037514462e-07,-1.6770048596775531e-37,0.0,0.0,0.0,1.971008619007561e-20,1.7037592657133874e-37,4.991708037514462e-07,0.0,-1.496561889503912e-07,-0.0004051215531359261,0.0,0.0,0.0,3.081625516418077,-1.4345065240056499e-06,0.0,0.0,0.0,0.0,-3.385916865957706e-07,0.0007641207008271616,0.0,0.0,0.0,0.0,0.0,0.0,0.0007641207008271616,0.0,0.0,0.0,0.0,0.0,0.0,4.993773312839106e-07,-6.837852429511661e-38,4.754113159315428e-29,0.0,0.0,0.0,-6.837852429511661e-38,4.975367066966557e-07,-1.7037582425700372e-45,0.0,0.0,0.0,4.7541131593154265e-29,1.7338141727647696e-45,4.975367066966557e-07,0.0,0.0,0.0,0.0,0.0,0.0,9.999574935074393e-10
51580000000,2569,51580000000,odom,base_link,-0.0004328634978035781,1.5238254480175624e-07,0.0,0.0,0.0,-0.00018965942947130504,0.9999999820146502,2.5701065008732864,4.420609865415393e-11,0.0,0.0,0.0,-1.4968972754361886e-07,4.4206098654153096e-11,2.570106621314951,0.0,0.0,0.0,-0.0004052099720802614,0.0,0.0,4.995843713223111e-07,-6.624133747040172e-29,1.9709241627789553e-20,0.0,0.0,0.0,-6.624133747040172e-29,4.991708037514456e-07,4.057285891412797e-37,0.0,0.0,0.0,1.9709241627789547e-20,-3.994462193108013e-37,4.991708037514456e-07,0.0,-1.4968972754361995e-07,-0.0004052099720802681,0.0,0.0,0.0,3.0828255263852524,-1.4344450624143554e-06,0.0,0.0,0.0,0.0,-1.8814952054127915e-07,0.0007641207008270141,0.0,0.0,0.0,0.0,0.0,0.0,0.0007641207008270141,0.0,0.0,0.0,0.0,0.0,0.0,4.993773312839101e-07,-1.6057077814090084e-37,4.7539094491616337e-29,0.0,0.0,0.0,-1.605707781409008e-37,4.97536706696654e-07,3.823758801627435e-45,0.0,0.0,0.0,4.7539094491616326e-29,-3.781674753213646e-45,4.97536706696654e-07,0.0,0.0,0.0,0.0,0.0,0.0,9.999574935074395e-10
51600000000,2570,51600000000,odom,base_link,-0.00043289218615100356,1.5239342686053946e-07,0.0,0.0,0.0,-0.00018966130344891109,0.9999999820142949,2.5711069258734116,4.421480346724297e-11,0.0,0.0,0.0,-1.4972327822349062e-07,4.4214803467242115e-11,2.5711070463383283,0.0,0.0,0.0,-0.0004052984216631243,0.0,0.0,0.0006009984372423098,-2.6683843605213154e-23,1.4296459056019057e-14,0.0,0.0,0.0,-2.6683843605213154e-23,0.00030099678225978385,-4.834832950313436e-32,0.0,0.0,0.0,1.429645905601906e-14,4.834832950313436e-32,0.00030099678225978385,0.0,-1.497232782234917e-07,-0.00040529842166313096,0.0,0.0,0.0,3.084025546253398,-1.4343836233308712e-06,0.0,0.0,0.0,0.0,-1.8664600274194535e-07,0.0007641207008270232,0.0,0.0,0.0,0.0,0.0,0.0,0.0007641207008270232,0.0,0.0,0.0,0.0,0.0,0.0,0.00040099760867790614,-4.530717420637442e-38,2.3842625635047713e-29,0.0,0.0,0.0,-4.5307174206374415e-38,0.00010099014754411512,-4.2159459764724364e-45,0.0,0.0,0.0,2.3842625635047708e-29,4.215950062061691e-45,0.00010099014754411512,0.0,0.0,0.0,0.0,0.0,0.0,0.00039867648344564955
51620000000,2571,51620000000,odom,base_link,-0.0004329208732700404,1.524043084961109e-07,0.0,0.0,0.0,-0.00018966052485995403,0.9999999820144425,2.5721073508735364,4.4223509850176137e-11,0.0,0.0,0.0,-1.497568406564671e-07,4.422350985017528e-11,2.572107471361709,0.0,0.0,0.0,-0.00040538690188316747,0.0,0.0,4.995843713223111e-07,7.643618658707915e-30,1.9707553529700386e-20,0.0,0.0,0.0,7.643618658707914e-30,4.991708037514456e-07,-9.619836434140862e-38,0.0,0.0,0.0,1.9707553529700377e-20,9.547350086354285e-38,4.991708037514456e-07,0.0,-1.4975684065646817e-07,-0.00040538690188317414,0.0,0.0,0.0,3.0852255463196037,-1.4343222139282253e-06,0.0,0.0,0.0,0.0,-2.982947985639409e-08,0.0007641207008269794,0.0,0.0,0.0,0.0,0.0,0.0,0.0007641207008269794,0.0,0.0,0.0,0.0,0.0,0.0,4.993773312839101e-07,1.8528335248722108e-38,4.753502276444243e-29,0.0,0.0,0.0,1.85283352487221e-38,4.97536706696654e-07,-8.92431699915886e-46,0.0,0.0,0.0,4.753502276444243e-29,8.913694132326722e-46,4.97536706696654e-07,0.0,0.0,0.0,0.0,0.0,0.0,9.999574935074395e-10
51640000000,2572,51640000000,odom,base_link,-0.0004329495591609085,1.5241518966321052e-07,0.0,0.0,0.0,-0.0001896612208176774,0.9999999820143105,2.5731077758736616,4.4232217785232363e-11,0.0,0.0,0.0,-1.497904147022203e-07,4.423221778523154e-11,2.5731078963850944,0.0,0.0,0.0,-0.00040547541273898245,0.0,0.0,4.995843713223111e-07,-5.78875900884424e-30,1.970670996221482e-20,0.0,0.0,0.0,-5.78875900884424e-30,4.991708037514456e-07,9.553206827075258e-38,0.0,0.0,0.0,1.9706709962214817e-20,-9.498312927645484e-38,4.991708037514456e-07,0.0,-1.497904147022214e-07,-0.0004054754127389891,0.0,0.0,0.0,3.0864255562867795,-1.434260824719371e-06,0.0,0.0,0.0,0.0,-1.898813347064349e-07,0.0007641207008270146,0.0,0.0,0.0,0.0,0.0,0.0,0.0007641207008270146,0.0,0.0,0.0,0.0,0.0,0.0,4.993773312839101e-07,-1.4032108099945965e-38,4.753298806238809e-29,0.0,0.0,0.0,-1.4032108099945963e-38,4.97536706696654e-07,9.177415121007938e-46,0.0,0.0,0.0,4.7532988062388073e-29,-9.102861886009584e-46,4.97536706696654e-07,0.0,0.0,0.0,0.0,0.0,0.0,9.999574935074395e-10
51660000000,2573,51660000000,odom,base_link,-0.0004329782438244879,1.5242607042765516e-07,0.0,0.0,0.0,-0.0001896639347031893,0.9999999820137958,2.5741082008737863,4.4240927299629503e-11,0.0,0.0,0.0,-1.4982400056237215e-07,4.424092729962872e-11,2.5741083214084837,0.0,0.0,0.0,-0.0004055639542292399,0.0,0.0,4.995843713223111e-07,-3.7119334291797244e-29,1.9705866837711368e-20,0.0,0.0,0.0,-3.7119334291797244e-29,4.991708037514456e-07,1.8670921243272263e-37,0.0,0.0,0.0,1.970586683771137e-20,-1.8318939438241943e-37,4.991708037514456e-07,0.0,-1.4982400056237326e-07,-0.00040556395422924657,0.0,0.0,0.0,3.087625566253955,-1.4341994677695017e-06,0.0,0.0,0.0,0.0,-5.18518760322103e-07,0.0007641207008269773,0.0,0.0,0.0,0.0,0.0,0.0,0.0007641207008269773,0.0,0.0,0.0,0.0,0.0,0.0,4.993773312839101e-07,-8.997826209609753e-38,4.753095442881079e-29,0.0,0.0,0.0,-8.997826209609749e-38,4.97536706696654e-07,1.6451744477315986e-45,0.0,0.0,0.0,4.7530954428810814e-29,-1.6152889990971076e-45,4.97536706696654e-07,0.0,0.0,0.0,0.0,0.0,0.0,9.999574935074395e-10
51680000000,2574,51680000000,odom,base_link,-0.0004330069272610716,1.524369509294897e-07,0.0,0.0,0.0,-0.00018966790506715542,0.9999999820130427,2.5751086258739115,4.424963845081973e-11,0.0,0.0,0.0,-1.498575986687219e-07,4.424963845081886e-11,2.5751087464318774,0.0,0.0,0.0,-0.00040565252635271174,0.0,0.0,4.995843713223111e-07,-1.014471486621978e-28,1.9705024034183862e-20,0.0,0.0,0.0,-1.0144714866219774e-28,4.991708037514456e-07,2.8054569680026408e-36,0.0,0.0,0.0,1.9705024034183862e-20,-2.7958377159527083e-36,4.991708037514456e-07,0.0,-1.4985759866872302e-07,-0.00040565252635271846,0.0,0.0,0.0,3.0888255762211307,-1.434138134171097e-06,0.0,0.0,0.0,0.0,-3.46904949136308e-08,0.0007641207008270141,0.0,0.0,0.0,0.0,0.0,0.0,0.0007641207008270141,0.0,0.0,0.0,0.0,0.0,0.0,4.993773312839101e-07,-2.4591060781234632e-37,4.7528921569438e-29,0.0,0.0,0.0,-2.459106078123463e-37,4.97536706696654e-07,2.678844937552297e-44,0.0,0.0,0.0,4.7528921569437987e-29,-2.6788278177081227e-44,4.97536706696654e-07,0.0,0.0,0.0,0.0,0.0,0.0,9.999574935074395e-10
51700000000,2575,51700000000,odom,base_link,-0.00043303560947124633,1.5244783112448257e-07,0.0,0.0,0.0,-0.00018966916761808538,0.9999999820128033,2.5761090508740367,4.42583512214721e-11,0.0,0.0,0.0,-1.498912088838585e-07,4.425835122147131e-11,2.576109171455275,0.0,0.0,0.0,-0.00040574112910798905,0.0,0.0,4.995843713223112e-07,-6.739508300292922e-30,1.9704181592905978e-20,0.0,0.0,0.0,-6.739508300292923e-30,4.991708037514462e-07,1.5217921015435438e-37,0.0,0.0,0.0,1.9704181592905972e-20,-1.5154019507608895e-37,4.991708037514462e-07,0.0,-1.498912088838596e-07,-0.00040574112910799577,0.0,0.0,0.0,3.0900255861883066,-1.4340768269385751e-06,0.0,0.0,0.0,0.0,-4.026565902536689e-07,0.0007641207008271616,0.0,0.0,0.0,0.0,0.0,0.0,0.0007641207008271616,0.0,0.0,0.0,0.0,0.0,0.0,4.993773312839106e-07,-1.633674994681672e-38,4.752688958381726e-29,0.0,0.0,0.0,-1.6336749946816703e-38,4.975367066966557e-07,1.414625334182785e-45,0.0,0.0,0.0,4.752688958381723e-29,-1.4071111821328927e-45,4.975367066966557e-07,0.0,0.0,0.0,0.0,0.0,0.0,9.999574935074393e-10
51720000000,2576,51720000000,odom,base_link,-0.000433064290455672,1.524587109796941e-07,0.0,0.0,0.0,-0.00018967220574844464,0.9999999820122271,2.5771094758741615,4.426706559883197e-11,0.0,0.0,0.0,-1.4992483110517575e-07,4.426706559883119e-11,2.5771095964786763,0.0,0.0,0.0,-0.00040582976249386196,0.0,0.0,4.995843713223111e-07,-7.876088725781025e-29,1.970333956016806e-20,0.0,0.0,0.0,-7.876088725781025e-29,4.991708037514456e-07,-8.840918678469475e-37,0.0,0.0,0.0,1.970333956016806e-20,8.915593627134305e-37,4.991708037514456e-07,0.0,-1.4992483110517686e-07,-0.0004058297624938687,0.0,0.0,0.0,3.091225596155482,-1.4340155494483722e-06,0.0,0.0,0.0,0.0,-8.911870732258447e-09,0.0007641207008270141,0.0,0.0,0.0,0.0,0.0,0.0,0.0007641207008270141,0.0,0.0,0.0,0.0,0.0,0.0,4.993773312839101e-07,-1.90918502266977e-37,4.752485858360149e-29,0.0,0.0,0.0,-1.90918502266977e-37,4.97536706696654e-07,-8.619405691173999e-45,0.0,0.0,0.0,4.7524858583601477e-29,8.637437768324671e-45,4.97536706696654e-07,0.0,0.0,0.0,0.0,0.0,0.0,9.999574935074395e-10
51740000000,2577,51740000000,odom,base_link,-0.000433092970214495,1.524695904877892e-07,0.0,0.0,0.0,-0.00018967224025173314,0.9999999820122205,2.5781099008742867,4.427578158058013e-11,0.0,0.0,0.0,-1.499584653095386e-07,4.4275781580579404e-11,2.5781100215020825,0.0,0.0,0.0,-0.0004059184265088766,0.0,0.0,4.995843713223112e-07,-1.6935278521570426e-30,1.970249777997924e-20,0.0,0.0,0.0,-1.6935278521570433e-30,4.991708037514462e-07,3.952054961584684e-39,0.0,0.0,0.0,1.970249777997924e-20,-3.791494679909499e-39,4.991708037514462e-07,0.0,-1.499584653095397e-07,-0.00040591842650888334,0.0,0.0,0.0,3.092425606122658,-1.4339542903160608e-06,0.0,0.0,0.0,0.0,1.268838884172297e-08,0.0007641207008271616,0.0,0.0,0.0,0.0,0.0,0.0,0.0007641207008271616,0.0,0.0,0.0,0.0,0.0,0.0,4.993773312839106e-07,-4.105158115175317e-39,4.75228281925441e-29,0.0,0.0,0.0,-4.105158115175319e-39,4.975367066966557e-07,2.9584351900713945e-47,0.0,0.0,0.0,4.752282819254411e-29,-2.9855316932813737e-47,4.975367066966557e-07,0.0,0.0,0.0,0.0,0.0,0.0,9.999574935074393e-10
51760000000,2578,51760000000,odom,base_link,-0.0004331216487488154,1.524804695302578e-07,0.0,0.0,0.0,-0.00018967168506651202,0.9999999820123258,2.5791103258744115,4.428449911913231e-11,0.0,0.0,0.0,-1.4999211112897026e-07,4.42844991191316e-11,2.5791104465254917,0.0,0.0,0.0,-0.00040600712115180067,0.0,0.0,4.995843713223111e-07,2.5339790516964563e-30,1.970165650693504e-20,0.0,0.0,0.0,2.5339790516964567e-30,4.991708037514456e-07,-5.399589688875792e-38,0.0,0.0,0.0,1.9701656506935042e-20,5.375566522305358e-38,4.991708037514456e-07,0.0,-1.4999211112897137e-07,-0.0004060071211518074,0.0,0.0,0.0,3.093625616089833,-1.4338930681250604e-06,0.0,0.0,0.0,0.0,1.8440375699608915e-07,0.0007641207008270141,0.0,0.0,0.0,0.0,0.0,0.0,0.0007641207008270141,0.0,0.0,0.0,0.0,0.0,0.0,4.993773312839101e-07,6.142431958728548e-39,4.7520799024723e-29,0.0,0.0,0.0,6.142431958728546e-39,4.97536706696654e-07,-5.085528191596502e-46,0.0,0.0,0.0,4.7520799024723004e-29,5.04811931392727e-46,4.97536706696654e-07,0.0,0.0,0.0,0.0,0.0,0.0,9.999574935074395e-10
51780000000,2579,51780000000,odom,base_link,-0.00043315032605863315,1.5249134805175483e-07,0.0,0.0,0.0,-0.00018967072146755095,0.9999999820125085,2.5801107508745367,4.4293218192682127e-11,0.0,0.0,0.0,-1.5002576839176005e-07,4.4293218192681454e-11,2.580110871548906,0.0,0.0,0.0,-0.00040609584642140327,0.0,0.0,4.995843713223111e-07,3.6139252577330316e-29,1.9700815484631716e-20,0.0,0.0,0.0,3.613925257733031e-29,4.991708037514456e-07,-1.5624812538733546e-36,0.0,0.0,0.0,1.9700815484631716e-20,1.5590552499144526e-36,4.991708037514456e-07,0.0,-1.5002576839176116e-07,-0.00040609584642141,0.0,0.0,0.0,3.094825626057009,-1.433831864158803e-06,0.0,0.0,0.0,0.0,-1.6797178787358138e-07,0.0007641207008270232,0.0,0.0,0.0,0.0,0.0,0.0,0.0007641207008270232,0.0,0.0,0.0,0.0,0.0,0.0,4.993773312839101e-07,8.760251543807719e-38,4.751877046170093e-29,0.0,0.0,0.0,8.760251543807712e-38,4.97536706696654e-07,-1.4889985850061175e-44,0.0,0.0,0.0,4.7518770461700927e-29,1.485984328819556e-44,4.97536706696654e-07,0.0,0.0,0.0,0.0,0.0,0.0,9.999574935074395e-10
51800000000,2580,51800000000,odom,base_link,-0.00043317900214475465,1.5250222610431025e-07,0.0,0.0,0.0,-0.0001896716641050576,0.9999999820123298,2.5811111758746614,4.430193882287067e-11,0.0,0.0,0.0,-1.5005943725733423e-07,4.430193882287001e-11,2.5811112965723235,0.0,0.0,0.0,-0.0004061846023162191,0.0,0.0,4.995843713223111e-07,-3.282065452541383e-29,1.9699974866201226e-20,0.0,0.0,0.0,-3.282065452541383e-29,4.991708037514456e-07,3.732262577682531e-37,0.0,0.0,0.0,1.969997486620122e-20,-3.7011498993643643e-37,4.991708037514456e-07,0.0,-1.5005943725733534e-07,-0.00040618460231622584,0.0,0.0,0.0,3.0960256360241845,-1.4337706895962866e-06,0.0,0.0,0.0,0.0,1.2646131340493425e-07,0.0007641207008269794,0.0,0.0,0.0,0.0,0.0,0.0,0.0007641207008269794,0.0,0.0,0.0,0.0,0.0,0.0,4.993773312839101e-07,-7.955814712441427e-38,4.7516742872823853e-29,0.0,0.0,0.0,-7.955814712441422e-38,4.97536706696654e-07,3.4860072644519654e-45,0.0,0.0,0.0,4.751674287282385e-29,-3.447235861488154e-45,4.97536706696654e-07,0.0,0.0,0.0,0.0,0.0,0.0,9.999574935074395e-10
51820000000,2581,51820000000,odom,base_link,-0.0004332076770074733,1.5251310370462406e-07,0.0,0.0,0.0,-0.00018967161153044722,0.9999999820123397,2.5821116008747866,4.431066101709347e-11,0.0,0.0,0.0,-1.500931177765036e-07,4.431066101709278e-11,2.5821117215957456,0.0,0.0,0.0,-0.00040627338883490114,0.0,0.0,4.995843713223111e-07,2.4797562270142862e-29,1.969913454921571e-20,0.0,0.0,0.0,2.4797562270142867e-29,4.991708037514456e-07,-3.3844050275109035e-37,0.0,0.0,0.0,1.9699134549215708e-20,3.3608989249835895e-37,4.991708037514456e-07,0.0,-1.5009311777650472e-07,-0.0004062733888349079,0.0,0.0,0.0,3.0972256459913603,-1.4337095369594467e-06,0.0,0.0,0.0,0.0,-3.593813018434243e-07,0.0007641207008270146,0.0,0.0,0.0,0.0,0.0,0.0,0.0007641207008270146,0.0,0.0,0.0,0.0,0.0,0.0,4.993773312839101e-07,6.010995420531656e-38,4.751471601104166e-29,0.0,0.0,0.0,6.010995420531658e-38,4.97536706696654e-07,-3.248969355244474e-45,0.0,0.0,0.0,4.751471601104166e-29,3.219041013627646e-45,4.97536706696654e-07,0.0,0.0,0.0,0.0,0.0,0.0,9.999574935074395e-10
51840000000,2582,51840000000,odom,base_link,-0.00043323635064759563,1.525239809077928e-07,0.0,0.0,0.0,-0.00018967435173046477,0.9999999820118199,2.583112025874912,4.4319384798282084e-11,0.0,0.0,0.0,-1.5012681011855981e-07,4.431938479828137e-11,2.583112146619172,0.0,0.0,0.0,-0.0004063622059761599,0.0,0.0,4.995843713223112e-07,-7.027267627551099e-29,1.9698294661453196e-20,0.0,0.0,0.0,-7.027267627551108e-29,4.991708037514462e-07,-4.749104082136589e-37,0.0,0.0,0.0,1.9698294661453196e-20,4.815714109850303e-37,4.991708037514462e-07,0.0,-1.5012681011856093e-07,-0.0004063622059761667,0.0,0.0,0.0,3.098425655958536,-1.433648415578134e-06,0.0,0.0,0.0,0.0,-1.9456376007982796e-08,0.0007641207008271616,0.0,0.0,0.0,0.0,0.0,0.0,0.0007641207008271616,0.0,0.0,0.0,0.0,0.0,0.0,4.993773312839106e-07,-1.703428513784952e-37,4.7512690184550774e-29,0.0,0.0,0.0,-1.7034285137849523e-37,4.975367066966557e-07,-4.818279574115087e-45,0.0,0.0,0.0,4.751269018455078e-29,4.839934655086427e-45,4.975367066966557e-07,0.0,0.0,0.0,0.0,0.0,0.0,9.999574935074393e-10
51860000000,2583,51860000000,odom,base_link,-0.00043326502306563475,1.5253485775577488e-07,0.0,0.0,0.0,-0.00018967424249295882,0.9999999820118407,2.5841124508750366,4.432811018411193e-11,0.0,0.0,0.0,-1.5016051441262776e-07,4.432811018411125e-11,2.5841125716426023,0.0,0.0,0.0,-0.00040645105373891106,0.0,0.0,4.995843713223111e-07,-3.756362984379177e-30,1.969745516454846e-20,0.0,0.0,0.0,-3.756362984379176e-30,4.991708037514456e-07,4.600158162548735e-38,0.0,0.0,0.0,1.9697455164548465e-20,-4.5645538862916555e-38,4.991708037514456e-07,0.0,-1.5016051441262887e-07,-0.00040645105373891783,0.0,0.0,0.0,3.0996256659257115,-1.4335873226481694e-06,0.0,0.0,0.0,0.0,1.0207929173974735e-07,0.0007641207008270141,0.0,0.0,0.0,0.0,0.0,0.0,0.0007641207008270141,0.0,0.0,0.0,0.0,0.0,0.0,4.993773312839101e-07,-9.105525741427765e-39,4.751066530081701e-29,0.0,0.0,0.0,-9.105525741427767e-39,4.97536706696654e-07,4.302089850564976e-46,0.0,0.0,0.0,4.7510665300816997e-29,-4.307104722724929e-46,4.97536706696654e-07,0.0,0.0,0.0,0.0,0.0,0.0,9.999574935074395e-10
51880000000,2584,51880000000,odom,base_link,-0.00043329369426181054,1.5254573411655836e-07,0.0,0.0,0.0,-0.0001896737684987901,0.9999999820119306,2.585112875875162,4.4336837121557495e-11,0.0,0.0,0.0,-1.5019423024894342e-07,4.433683712155676e-11,2.585112996666037,0.0,0.0,0.0,-0.0004065399321217115,0.0,0.0,4.995843713223112e-07,2.0023740387575226e-29,1.9696615936949177e-20,0.0,0.0,0.0,2.0023740387575215e-29,4.991708037514462e-07,-4.798404672687304e-37,0.0,0.0,0.0,1.9696615936949177e-20,4.779426197714874e-37,4.991708037514462e-07,0.0,-1.5019423024894453e-07,-0.0004065399321217183,0.0,0.0,0.0,3.1008256758928874,-1.4335262492994295e-06,0.0,0.0,0.0,0.0,-1.1694545129794592e-07,0.0007641207008271616,0.0,0.0,0.0,0.0,0.0,0.0,0.0007641207008271616,0.0,0.0,0.0,0.0,0.0,0.0,4.993773312839106e-07,4.853808207214471e-38,4.75086410666575e-29,0.0,0.0,0.0,4.853808207214464e-38,4.975367066966557e-07,-4.4635692928832084e-45,0.0,0.0,0.0,4.750864106665751e-29,4.453026817877966e-45,4.975367066966557e-07,0.0,0.0,0.0,0.0,0.0,0.0,9.999574935074393e-10
51900000000,2585,51900000000,odom,base_link,-0.00043332236423692977,1.5255661001835435e-07,0.0,0.0,0.0,-0.00018967478805165833,0.9999999820117372,2.5861133008752866,4.434556562261204e-11,0.0,0.0,0.0,-1.5022795771347506e-07,4.434556562261133e-11,2.586113421689475,0.0,0.0,0.0,-0.00040662884112316826,0.0,0.0,4.995843713223111e-07,-2.283017208817276e-29,1.9695777122559986e-20,0.0,0.0,0.0,-2.2830172088172748e-29,4.991708037514456e-07,2.149018176890953e-37,0.0,0.0,0.0,1.9695777122559986e-20,-2.1273806910375315e-37,4.991708037514456e-07,0.0,-1.5022795771347617e-07,-0.00040662884112317504,0.0,0.0,0.0,3.1020256858600628,-1.4334652060341224e-06,0.0,0.0,0.0,0.0,-5.782418933643389e-08,0.0007641207008270141,0.0,0.0,0.0,0.0,0.0,0.0,0.0007641207008270141,0.0,0.0,0.0,0.0,0.0,0.0,4.993773312839101e-07,-5.534095001526261e-38,4.7506617829164695e-29,0.0,0.0,0.0,-5.534095001526259e-38,4.97536706696654e-07,1.9847516708371826e-45,0.0,0.0,0.0,4.75066178291647e-29,-1.9889585467805043e-45,4.97536706696654e-07,0.0,0.0,0.0,0.0,0.0,0.0,9.999574935074395e-10
51920000000,2586,51920000000,odom,base_link,-0.00043335103299135884,1.5256748550706797e-07,0.0,0.0,0.0,-0.0001896757938821702,0.9999999820115465,2.5871137258754118,4.435429570655687e-11,0.0,0.0,0.0,-1.5026169694772746e-07,4.435429570655616e-11,2.5871138467129176,0.0,0.0,0.0,-0.00040671778074203305,0.0,0.0,4.995843713223112e-07,-1.1262387179448816e-29,1.969493863980178e-20,0.0,0.0,0.0,-1.1262387179448812e-29,4.991708037514462e-07,9.765657445591919e-38,0.0,0.0,0.0,1.9694938639801776e-20,-9.658921776855208e-38,4.991708037514462e-07,0.0,-1.5026169694772858e-07,-0.00040671778074203983,0.0,0.0,0.0,3.1032256958272386,-1.4334041869003256e-06,0.0,0.0,0.0,0.0,-2.3007246701110116e-07,0.0007641207008271616,0.0,0.0,0.0,0.0,0.0,0.0,0.0007641207008271616,0.0,0.0,0.0,0.0,0.0,0.0,4.993773312839106e-07,-2.730032947405534e-38,4.750459539157574e-29,0.0,0.0,0.0,-2.730032947405532e-38,4.975367066966557e-07,8.972781469063682e-46,0.0,0.0,0.0,4.750459539157573e-29,-8.972565374530488e-46,4.975367066966557e-07,0.0,0.0,0.0,0.0,0.0,0.0,9.999574935074393e-10
51940000000,2587,51940000000,odom,base_link,-0.00043337970052583104,1.5257836061534957e-07,0.0,0.0,0.0,-0.0001896776487672712,0.9999999820111947,2.5881141508755365,4.4363027387242224e-11,0.0,0.0,0.0,-1.5029544805183105e-07,4.4363027387241436e-11,2.588114271736364,0.0,0.0,0.0,-0.00040680675097707085,0.0,0.0,4.995843713223111e-07,-4.496009861505974e-29,1.9694100575843794e-20,0.0,0.0,0.0,-4.4960098615059726e-29,4.991708037514456e-07,-7.033883583964704e-37,0.0,0.0,0.0,1.9694100575843788e-20,7.076491264831709e-37,4.991708037514456e-07,0.0,-1.5029544805183216e-07,-0.0004068067509770776,0.0,0.0,0.0,3.104425705794414,-1.4333431982580089e-06,0.0,0.0,0.0,0.0,-5.2936733463053964e-08,0.0007641207008270141,0.0,0.0,0.0,0.0,0.0,0.0,0.0007641207008270141,0.0,0.0,0.0,0.0,0.0,0.0,4.993773312839101e-07,-1.0898448491077735e-37,4.7502573964138245e-29,0.0,0.0,0.0,-1.089844849107774e-37,4.97536706696654e-07,-6.712322427198662e-45,0.0,0.0,0.0,4.7502573964138245e-29,6.71232243839483e-45,4.97536706696654e-07,0.0,0.0,0.0,0.0,0.0,0.0,9.999574935074395e-10
51960000000,2588,51960000000,odom,base_link,-0.0004334083668404929,1.5258923534184955e-07,0.0,0.0,0.0,-0.00018967858541490268,0.9999999820110169,2.5891145758756617,4.4371760664769224e-11,0.0,0.0,0.0,-1.5032921102107348e-07,4.4371760664768565e-11,2.589114696759815,0.0,0.0,0.0,-0.0004068957518268829,0.0,0.0,4.995843713223111e-07,-1.0305307081835743e-29,1.9693262769589996e-20,0.0,0.0,0.0,-1.0305307081835738e-29,4.991708037514456e-07,1.3010207233075834e-37,0.0,0.0,0.0,1.9693262769589996e-20,-1.291255029510853e-37,4.991708037514456e-07,0.0,-1.503292110210746e-07,-0.0004068957518268897,0.0,0.0,0.0,3.10562571576159,-1.4332822283489734e-06,0.0,0.0,0.0,0.0,-2.1700217323945663e-07,0.0007641207008270232,0.0,0.0,0.0,0.0,0.0,0.0,0.0007641207008270232,0.0,0.0,0.0,0.0,0.0,0.0,4.993773312839101e-07,-2.498034169050587e-38,4.750055315829341e-29,0.0,0.0,0.0,-2.4980341690505864e-38,4.97536706696654e-07,1.2349637906180538e-45,0.0,0.0,0.0,4.750055315829339e-29,-1.2199784483160525e-45,4.97536706696654e-07,0.0,0.0,0.0,0.0,0.0,0.0,9.999574935074395e-10
