%time,field.header.seq,field.header.stamp,field.header.frame_id,field.child_frame_id,field.pose.pose.position.x,field.pose.pose.position.y,field.pose.pose.position.z,field.pose.pose.orientation.x,field.pose.pose.orientation.y,field.pose.pose.orientation.z,field.pose.pose.orientation.w,field.pose.covariance0,field.pose.covariance1,field.pose.covariance2,field.pose.covariance3,field.pose.covariance4,field.pose.covariance5,field.pose.covariance6,field.pose.covariance7,field.pose.covariance8,field.pose.covariance9,field.pose.covariance10,field.pose.covariance11,field.pose.covariance12,field.pose.covariance13,field.pose.covariance14,field.pose.covariance15,field.pose.covariance16,field.pose.covariance17,field.pose.covariance18,field.pose.covariance19,field.pose.covariance20,field.pose.covariance21,field.pose.covariance22,field.pose.covariance23,field.pose.covariance24,field.pose.covariance25,field.pose.covariance26,field.pose.covariance27,field.pose.covariance28,field.pose.covariance29,field.pose.covariance30,field.pose.covariance31,field.pose.covariance32,field.pose.covariance33,field.pose.covariance34,field.pose.covariance35,field.twist.twist.linear.x,field.twist.twist.linear.y,field.twist.twist.linear.z,field.twist.twist.angular.x,field.twist.twist.angular.y,field.twist.twist.angular.z,field.twist.covariance0,field.twist.covariance1,field.twist.covariance2,field.twist.covariance3,field.twist.covariance4,field.twist.covariance5,field.twist.covariance6,field.twist.covariance7,field.twist.covariance8,field.twist.covariance9,field.twist.covariance10,field.twist.covariance11,field.twist.covariance12,field.twist.covariance13,field.twist.covariance14,field.twist.covariance15,field.twist.covariance16,field.twist.covariance17,field.twist.covariance18,field.twist.covariance19,field.twist.covariance20,field.twist.covariance21,field.twist.covariance22,field.twist.covariance23,field.twist.covariance24,field.twist.covariance25,field.twist.covariance26,field.twist.covariance27,field.twist.covariance28,field.twist.covariance29,field.twist.covariance30,field.twist.covariance31,field.twist.covariance32,field.twist.covariance33,field.twist.covariance34,field.twist.covariance35
160760000000,8027,160760000000,odom,base_link,-0.0005900217696658888,2.7291853239713285e-08,0.0,0.0,0.0,-3.189630502778821e-05,0.9999999994913129,8.030432505430666,2.254736854439235e-11,0.0,0.0,0.0,-8.677104741597104e-08,2.2547368544392278e-11,8.030432886009036,0.0,0.0,0.0,-0.0014184026534639872,0.0,0.0,4.995843713223107e-07,6.951120816751651e-29,2.175711919270602e-20,0.0,0.0,0.0,6.951120816751649e-29,4.99170803751445e-07,-3.6310464327611808e-37,0.0,0.0,0.0,2.175711919270602e-20,3.55827168351347e-37,4.99170803751445e-07,0.0,-8.677104741597223e-08,-0.0014184026534640095,0.0,0.0,0.0,9.632479907296972,-1.5835282062678327e-06,0.0,0.0,0.0,0.0,3.2835543289082435e-07,0.0007641207008274322,0.0,0.0,0.0,0.0,0.0,0.0,0.0007641207008274322,0.0,0.0,0.0,0.0,0.0,0.0,4.993773312839096e-07,1.6849703018420078e-37,5.247861709992026e-29,0.0,0.0,0.0,1.684970301842008e-37,4.97536706696652e-07,-3.628204865427459e-45,0.0,0.0,0.0,5.247861709992025e-29,3.5001665964608956e-45,4.97536706696652e-07,0.0,0.0,0.0,0.0,0.0,0.0,9.999574935074395e-10
160780000000,8028,160780000000,odom,base_link,-0.0005900534410933471,2.7293873590739897e-08,0.0,0.0,0.0,-3.1892938990785245e-05,0.9999999994914203,8.031432930430789,2.2552982988666733e-11,0.0,0.0,0.0,-8.679050899096096e-08,2.255298298866668e-11,8.031433311099015,0.0,0.0,0.0,-0.0014187077370127667,0.0,0.0,4.995843713223107e-07,7.101119161683281e-29,2.1758256789234674e-20,0.0,0.0,0.0,7.10111916168328e-29,4.99170803751445e-07,-3.131190468458832e-37,0.0,0.0,0.0,2.1758256789234665e-20,3.056841424385269e-37,4.99170803751445e-07,0.0,-8.679050899096215e-08,-0.001418707737012789,0.0,0.0,0.0,9.633679917264146,-1.5836110055632593e-06,0.0,0.0,0.0,0.0,3.634633962162443e-07,0.000764120700827453,0.0,0.0,0.0,0.0,0.0,0.0,0.000764120700827453,0.0,0.0,0.0,0.0,0.0,0.0,4.993773312839096e-07,1.7213303027293674e-37,5.248136100604737e-29,0.0,0.0,0.0,1.7213303027293672e-37,4.97536706696652e-07,-3.0071551257754466e-45,0.0,0.0,0.0,5.248136100604734e-29,2.8877881273476284e-45,4.97536706696652e-07,0.0,0.0,0.0,0.0,0.0,0.0,9.999574935074395e-10
160800000000,8029,160800000000,odom,base_link,-0.0005900851141769377,2.7295893828627716e-08,0.0,0.0,0.0,-3.189022789632658e-05,0.9999999994915066,8.03243335543091,2.255859864899178e-11,0.0,0.0,0.0,-8.680997190041056e-08,2.2558598648991707e-11,8.032433736189017,0.0,0.0,0.0,-0.0014190128745226985,0.0,0.0,4.995843713223119e-07,7.860361246843068e-29,2.175939458979065e-20,0.0,0.0,0.0,7.860361246843063e-29,4.991708037514474e-07,-1.9928169617955557e-36,0.0,0.0,0.0,2.1759394589790653e-20,1.9845866970723547e-36,4.991708037514474e-07,0.0,-8.680997190041175e-08,-0.0014190128745227208,0.0,0.0,0.0,9.63487992723132,-1.5836938197123182e-06,0.0,0.0,0.0,0.0,-4.94082401999383e-09,0.0007641207008280007,0.0,0.0,0.0,0.0,0.0,0.0,0.0007641207008280007,0.0,0.0,0.0,0.0,0.0,0.0,4.993773312839113e-07,1.9053726184662533e-37,5.24841054042903e-29,0.0,0.0,0.0,1.905372618466252e-37,4.97536706696659e-07,-1.8895950951257427e-44,0.0,0.0,0.0,5.248410540429028e-29,1.8776067333309575e-44,4.97536706696659e-07,0.0,0.0,0.0,0.0,0.0,0.0,9.999574935074393e-10
160820000000,8030,160820000000,odom,base_link,-0.0005901167889171741,2.7297914058782425e-08,0.0,0.0,0.0,-3.188944879043607e-05,0.9999999994915315,8.03343378043103,2.2564215675135563e-11,0.0,0.0,0.0,-8.682943715957956e-08,2.2564215675135476e-11,8.03343416127904,0.0,0.0,0.0,-0.0014193180660011476,0.0,0.0,4.995843713223107e-07,-1.0283125410533516e-30,2.176053266993077e-20,0.0,0.0,0.0,-1.0283125410533516e-30,4.99170803751445e-07,1.2157268870732695e-38,0.0,0.0,0.0,2.1760532669930757e-20,-1.2049592813361448e-38,4.99170803751445e-07,0.0,-8.682943715958076e-08,-0.00141931806600117,0.0,0.0,0.0,9.636079937198494,-1.5837766542176646e-06,0.0,0.0,0.0,0.0,3.2734939306786385e-07,0.0007641207008273902,0.0,0.0,0.0,0.0,0.0,0.0,0.0007641207008273902,0.0,0.0,0.0,0.0,0.0,0.0,4.993773312839096e-07,-2.49265799495456e-39,5.248685047689119e-29,0.0,0.0,0.0,-2.49265799495456e-39,4.97536706696652e-07,1.1808367742301331e-46,0.0,0.0,0.0,5.248685047689119e-29,-1.1621520458005259e-46,4.97536706696652e-07,0.0,0.0,0.0,0.0,0.0,0.0,9.999574935074395e-10
160840000000,8031,160840000000,odom,base_link,-0.0005901484653139828,2.7299934292606587e-08,0.0,0.0,0.0,-3.188686314962481e-05,0.999999999491614,8.034434205431154,2.2569834083584424e-11,0.0,0.0,0.0,-8.684890487850579e-08,2.2569834083584352e-11,8.034434586369091,0.0,0.0,0.0,-0.0014196233114548433,0.0,0.0,4.995843713223107e-07,7.080484507771287e-29,2.1761670862582116e-20,0.0,0.0,0.0,7.080484507771286e-29,4.99170803751445e-07,-8.456723098194276e-37,0.0,0.0,0.0,2.1761670862582113e-20,8.38257846775161e-37,4.99170803751445e-07,0.0,-8.684890487850698e-08,-0.0014196233114548657,0.0,0.0,0.0,9.637279947165668,-1.5838594968951055e-06,0.0,0.0,0.0,0.0,5.329225746261278e-08,0.0007641207008274119,0.0,0.0,0.0,0.0,0.0,0.0,0.0007641207008274119,0.0,0.0,0.0,0.0,0.0,0.0,4.993773312839096e-07,1.716328406754484e-37,5.248959582088057e-29,0.0,0.0,0.0,1.7163284067544843e-37,4.97536706696652e-07,-8.059752004724042e-45,0.0,0.0,0.0,5.248959582088055e-29,7.948583948135816e-45,4.97536706696652e-07,0.0,0.0,0.0,0.0,0.0,0.0,9.999574935074395e-10
160860000000,8032,160860000000,odom,base_link,-0.0005901801433679505,2.730195451171194e-08,0.0,0.0,0.0,-3.188606400620711e-05,0.9999999994916394,8.035434630431277,2.2575453848478032e-11,0.0,0.0,0.0,-8.686837487982171e-08,2.257545384847796e-11,8.035435011459166,0.0,0.0,0.0,-0.0014199286108903658,0.0,0.0,4.995843713223119e-07,1.1560836040811402e-29,2.1762809314466855e-20,0.0,0.0,0.0,1.1560836040811401e-29,4.991708037514474e-07,-8.025264577364046e-38,0.0,0.0,0.0,2.1762809314466855e-20,7.904196767006497e-38,4.991708037514474e-07,0.0,-8.68683748798229e-08,-0.0014199286108903882,0.0,0.0,0.0,9.638479957132843,-1.5839423584566595e-06,0.0,0.0,0.0,0.0,1.6030609576320951e-07,0.0007641207008279608,0.0,0.0,0.0,0.0,0.0,0.0,0.0007641207008279608,0.0,0.0,0.0,0.0,0.0,0.0,4.993773312839113e-07,2.802377546952752e-38,5.249234179014055e-29,0.0,0.0,0.0,2.8023775469527527e-38,4.97536706696659e-07,-7.63120840419915e-46,0.0,0.0,0.0,5.249234179014055e-29,7.652882644771498e-46,4.97536706696659e-07,0.0,0.0,0.0,0.0,0.0,0.0,9.999574935074393e-10
160880000000,8033,160880000000,odom,base_link,-0.0005902118230791504,2.730397476892087e-08,0.0,0.0,0.0,-3.188573990190832e-05,0.9999999994916497,8.036435055431395,2.2581075045118998e-11,0.0,0.0,0.0,-8.68878476727492e-08,2.2581075045118926e-11,8.036435436549258,0.0,0.0,0.0,-0.0014202339643145908,0.0,0.0,4.995843713223107e-07,3.469769680200835e-29,2.1763947920105128e-20,0.0,0.0,0.0,3.469769680200834e-29,4.99170803751445e-07,-1.8304646675283583e-37,0.0,0.0,0.0,2.1763947920105122e-20,1.794126517473672e-37,4.99170803751445e-07,0.0,-8.688784767275039e-08,-0.001420233964314613,0.0,0.0,0.0,9.639679967100015,-1.584025231187931e-06,0.0,0.0,0.0,0.0,-3.520917408983954e-07,0.0007641207008273512,0.0,0.0,0.0,0.0,0.0,0.0,0.0007641207008273512,0.0,0.0,0.0,0.0,0.0,0.0,4.993773312839096e-07,8.410814582550234e-38,5.249508813025658e-29,0.0,0.0,0.0,8.410814582550235e-38,4.97536706696652e-07,-1.7924436238157988e-45,0.0,0.0,0.0,5.249508813025659e-29,1.766980169156106e-45,4.97536706696652e-07,0.0,0.0,0.0,0.0,0.0,0.0,9.999574935074395e-10
160900000000,8034,160900000000,odom,base_link,-0.0005902435044481693,2.7305995192482634e-08,0.0,0.0,0.0,-3.188861682305261e-05,0.999999999491558,8.037435480431519,2.2586697855980104e-11,0.0,0.0,0.0,-8.690732449357286e-08,2.2586697855980033e-11,8.03743586163938,0.0,0.0,0.0,-0.0014205393717345357,0.0,0.0,4.995843713223119e-07,-7.608605950034568e-29,2.1765086805471407e-20,0.0,0.0,0.0,-7.608605950034569e-29,4.991708037514474e-07,8.187206992146242e-37,0.0,0.0,0.0,2.1765086805471404e-20,-8.107519531833886e-37,4.991708037514474e-07,0.0,-8.690732449357405e-08,-0.001420539371734558,0.0,0.0,0.0,9.64087997706719,-1.5841081243039917e-06,0.0,0.0,0.0,0.0,-9.616807801644905e-08,0.000764120700827927,0.0,0.0,0.0,0.0,0.0,0.0,0.000764120700827927,0.0,0.0,0.0,0.0,0.0,0.0,4.993773312839113e-07,-1.8443464772644742e-37,5.249783514508501e-29,0.0,0.0,0.0,-1.844346477264475e-37,4.97536706696659e-07,7.681496536249528e-45,0.0,0.0,0.0,5.249783514508499e-29,-7.639585299661768e-45,4.97536706696659e-07,0.0,0.0,0.0,0.0,0.0,0.0,9.999574935074393e-10
160920000000,8035,160920000000,odom,base_link,-0.0005902751874749334,2.730801586352085e-08,0.0,0.0,0.0,-3.1890029076699254e-05,0.999999999491513,8.038435905431637,2.2592322396784235e-11,0.0,0.0,0.0,-8.69268061249936e-08,2.2592322396784144e-11,8.038436286729523,0.0,0.0,0.0,-0.001420844833156936,0.0,0.0,4.995843713223107e-07,-2.075387605408965e-29,2.1766225803681994e-20,0.0,0.0,0.0,-2.0753876054089644e-29,4.99170803751445e-07,5.226614512237456e-37,0.0,0.0,0.0,2.176622580368199e-20,-5.204877150228607e-37,4.99170803751445e-07,0.0,-8.692680612499479e-08,-0.0014208448331569582,0.0,0.0,0.0,9.642079987034363,-1.5841910256030747e-06,0.0,0.0,0.0,0.0,-2.778209301110443e-07,0.0007641207008273246,0.0,0.0,0.0,0.0,0.0,0.0,0.0007641207008273246,0.0,0.0,0.0,0.0,0.0,0.0,4.993773312839096e-07,-5.030795259606173e-38,5.250058243209444e-29,0.0,0.0,0.0,-5.030795259606172e-38,4.97536706696652e-07,5.022477339137091e-45,0.0,0.0,0.0,5.250058243209443e-29,-4.992549444359559e-45,4.97536706696652e-07,0.0,0.0,0.0,0.0,0.0,0.0,9.999574935074395e-10
160940000000,8036,160940000000,odom,base_link,-0.000590306872160103,2.731003675860024e-08,0.0,0.0,0.0,-3.1892797174226816e-05,0.9999999994914247,8.03943633043176,2.2597948634695868e-11,0.0,0.0,0.0,-8.69462923414307e-08,2.2597948634695758e-11,8.039436711819695,0.0,0.0,0.0,-0.0014211503485885583,0.0,0.0,0.0006009984372418835,-4.354880777187259e-23,1.579003293878039e-14,0.0,0.0,0.0,-4.35488077718726e-23,0.00030099678225957075,1.6256215904026674e-31,0.0,0.0,0.0,1.5790032938780398e-14,-1.6256215904026674e-31,0.00030099678225957075,0.0,-8.694629234143189e-08,-0.0014211503485885807,0.0,0.0,0.0,9.643280006902506,-1.5842739476605797e-06,0.0,0.0,0.0,0.0,-2.7579858044819076e-07,0.0007641207008273496,0.0,0.0,0.0,0.0,0.0,0.0,0.0007641207008273496,0.0,0.0,0.0,0.0,0.0,0.0,0.0004009976086776219,-7.387800243457609e-38,2.633225906733069e-29,0.0,0.0,0.0,-7.387800243457609e-38,0.00010099014754404407,-1.797172974940943e-46,0.0,0.0,0.0,2.633225906733071e-29,1.7972020262113367e-46,0.00010099014754404407,0.0,0.0,0.0,0.0,0.0,0.0,0.0003986764834457879
160960000000,8037,160960000000,odom,base_link,-0.0005903385585036046,2.731205774025445e-08,0.0,0.0,0.0,-3.188789301959137e-05,0.9999999994915811,8.040436755431884,2.2603576374827493e-11,0.0,0.0,0.0,-8.696578181794382e-08,2.2603576374827396e-11,8.04043713690989,0.0,0.0,0.0,-0.0014214559180361955,0.0,0.0,0.0006009984372435888,5.311181209753225e-23,1.5790859457740495e-14,0.0,0.0,0.0,5.311181209753225e-23,0.00030099678226042336,-2.2826119364582497e-31,0.0,0.0,0.0,1.57908594577405e-14,2.2826119364582497e-31,0.00030099678226042336,0.0,-8.696578181794501e-08,-0.0014214559180362179,0.0,0.0,0.0,9.64448001686968,-1.5843568780914578e-06,0.0,0.0,0.0,0.0,3.363443564062204e-07,0.0007641207008279006,0.0,0.0,0.0,0.0,0.0,0.0,0.0007641207008279006,0.0,0.0,0.0,0.0,0.0,0.0,0.00040099760867875876,8.998472831845202e-38,2.6333637433639854e-29,0.0,0.0,0.0,8.998472831845201e-38,0.00010099014754432826,-3.684622282277898e-45,0.0,0.0,0.0,2.633363743363984e-29,3.624929219930688e-45,0.00010099014754432826,0.0,0.0,0.0,0.0,0.0,0.0,0.0003986764834457954
160980000000,8038,160980000000,odom,base_link,-0.0005903702465060249,2.7314078695520783e-08,0.0,0.0,0.0,-3.188845540817123e-05,0.9999999994915632,8.041437180432002,2.2609205456896675e-11,0.0,0.0,0.0,-8.698527346507689e-08,2.2609205456896572e-11,8.041437562000104,0.0,0.0,0.0,-0.0014217615415064628,0.0,0.0,4.995843713223107e-07,1.7206677423502376e-29,2.1769644144346178e-20,0.0,0.0,0.0,1.7206677423502373e-29,4.99170803751445e-07,-8.548956794828157e-38,0.0,0.0,0.0,2.1769644144346184e-20,8.368707805927021e-38,4.99170803751445e-07,0.0,-8.698527346507808e-08,-0.0014217615415064852,0.0,0.0,0.0,9.645680016935884,-1.5844398275059048e-06,0.0,0.0,0.0,0.0,-2.0759970300083836e-07,0.0007641207008272924,0.0,0.0,0.0,0.0,0.0,0.0,0.0007641207008272924,0.0,0.0,0.0,0.0,0.0,0.0,4.993773312839096e-07,4.170944625551064e-38,5.250882753978148e-29,0.0,0.0,0.0,4.1709446255510647e-38,4.97536706696652e-07,-8.433413471666004e-46,0.0,0.0,0.0,5.25088275397815e-29,8.30502182400023e-46,4.97536706696652e-07,0.0,0.0,0.0,0.0,0.0,0.0,9.999574935074395e-10
161000000000,8039,161000000000,odom,base_link,-0.0005904019361677304,2.7316099797146366e-08,0.0,0.0,0.0,-3.1890556802784036e-05,0.9999999994914962,8.042437605432122,2.2614836126823532e-11,0.0,0.0,0.0,-8.700476894910233e-08,2.2614836126823415e-11,8.042437987090343,0.0,0.0,0.0,-0.0014220672190069763,0.0,0.0,4.995843713223107e-07,-4.4857177081175884e-29,2.1770784060081806e-20,0.0,0.0,0.0,-4.485717708117587e-29,4.99170803751445e-07,-7.421701045458964e-38,0.0,0.0,0.0,2.17707840600818e-20,7.891628154904788e-38,4.99170803751445e-07,0.0,-8.700476894910352e-08,-0.0014220672190069987,0.0,0.0,0.0,9.646880026903059,-1.5845227956100283e-06,0.0,0.0,0.0,0.0,-2.1936008445985592e-07,0.0007641207008273166,0.0,0.0,0.0,0.0,0.0,0.0,0.0007641207008273166,0.0,0.0,0.0,0.0,0.0,0.0,4.993773312839096e-07,-1.087350000229545e-37,5.251157703988224e-29,0.0,0.0,0.0,-1.0873500002295443e-37,4.97536706696652e-07,-7.692339151671982e-46,0.0,0.0,0.0,5.251157703988223e-29,8.078752525611997e-46,4.97536706696652e-07,0.0,0.0,0.0,0.0,0.0,0.0,9.999574935074395e-10
161020000000,8040,161020000000,odom,base_link,-0.0005904336274885744,2.731812113964375e-08,0.0,0.0,0.0,-3.189274793139481e-05,0.9999999994914263,8.043438030432242,2.262046851948077e-11,0.0,0.0,0.0,-8.702426918237249e-08,2.262046851948064e-11,8.043438412180606,0.0,0.0,0.0,-0.001422372950544052,0.0,0.0,4.995843713223119e-07,-4.7403039899466137e-29,2.1771924051309993e-20,0.0,0.0,0.0,-4.740303989946614e-29,4.991708037514474e-07,-3.6363293328536504e-37,0.0,0.0,0.0,2.177192405130999e-20,3.6859917087752257e-37,4.991708037514474e-07,0.0,-8.702426918237368e-08,-0.0014223729505440743,0.0,0.0,0.0,9.648080036870233,-1.5846057691837228e-06,0.0,0.0,0.0,0.0,-2.2001391801543966e-07,0.000764120700827868,0.0,0.0,0.0,0.0,0.0,0.0,0.000764120700827868,0.0,0.0,0.0,0.0,0.0,0.0,4.993773312839113e-07,-1.1490623975822342e-37,5.251432672207426e-29,0.0,0.0,0.0,-1.1490623975822335e-37,4.97536706696659e-07,-3.4573052272068e-45,0.0,0.0,0.0,5.251432672207425e-29,3.4573905696778266e-45,4.97536706696659e-07,0.0,0.0,0.0,0.0,0.0,0.0,9.999574935074393e-10
161040000000,8041,161040000000,odom,base_link,-0.0005904653204692167,2.7320142726996892e-08,0.0,0.0,0.0,-3.189433877196439e-05,0.9999999994913755,8.044438455432363,2.2626102640992476e-11,0.0,0.0,0.0,-8.70437742036516e-08,2.2626102640992334e-11,8.044438837270896,0.0,0.0,0.0,-0.0014226787361240679,0.0,0.0,4.995843713223107e-07,-4.754694207290671e-29,2.177306430905007e-20,0.0,0.0,0.0,-4.75469420729067e-29,4.99170803751445e-07,-5.353383864326746e-37,0.0,0.0,0.0,2.1773064309050072e-20,5.403199610186831e-37,4.99170803751445e-07,0.0,-8.70437742036528e-08,-0.0014226787361240902,0.0,0.0,0.0,9.649280046837406,-1.5846887621595509e-06,0.0,0.0,0.0,0.0,2.2865164847020992e-08,0.0007641207008272605,0.0,0.0,0.0,0.0,0.0,0.0,0.0007641207008272605,0.0,0.0,0.0,0.0,0.0,0.0,4.993773312839096e-07,-1.1525506248436812e-37,5.251707704709112e-29,0.0,0.0,0.0,-1.1525506248436812e-37,4.97536706696652e-07,-5.016020971764791e-45,0.0,0.0,0.0,5.251707704709115e-29,5.07596190071605e-45,4.97536706696652e-07,0.0,0.0,0.0,0.0,0.0,0.0,9.999574935074395e-10
161060000000,8042,161060000000,odom,base_link,-0.0005904970151100242,2.732216448259839e-08,0.0,0.0,0.0,-3.1893947680583084e-05,0.9999999994913881,8.045438880432485,2.2631738382857333e-11,0.0,0.0,0.0,-8.706328327429323e-08,2.2631738382857204e-11,8.04543926236121,0.0,0.0,0.0,-0.001422984575754704,0.0,0.0,4.995843713223107e-07,4.985466470335691e-30,2.1774204826211098e-20,0.0,0.0,0.0,4.9854664703356884e-30,4.99170803751445e-07,-1.3937617586414993e-37,0.0,0.0,0.0,2.1774204826211086e-20,1.3885381263951998e-37,4.99170803751445e-07,0.0,-8.706328327429444e-08,-0.0014229845757547264,0.0,0.0,0.0,9.65048005680458,-1.5847717740330696e-06,0.0,0.0,0.0,0.0,8.802583281819833e-08,0.0007641207008272855,0.0,0.0,0.0,0.0,0.0,0.0,0.0007641207008272855,0.0,0.0,0.0,0.0,0.0,0.0,4.993773312839096e-07,1.208490335587872e-38,5.251982799784216e-29,0.0,0.0,0.0,1.208490335587871e-38,4.97536706696652e-07,-1.3222761596569286e-45,0.0,0.0,0.0,5.251982799784218e-29,1.3136617639257624e-45,4.97536706696652e-07,0.0,0.0,0.0,0.0,0.0,0.0,9.999574935074395e-10
161080000000,8043,161080000000,odom,base_link,-0.0005905287114109233,2.7324186308975686e-08,0.0,0.0,0.0,-3.1893069424893136e-05,0.999999999491416,8.046439305432607,2.263737560680269e-11,0.0,0.0,0.0,-8.708279545423236e-08,2.263737560680256e-11,8.046439687451548,0.0,0.0,0.0,-0.0014232904694424895,0.0,0.0,0.0006009984372435888,1.3841169755613805e-23,1.579582188631047e-14,0.0,0.0,0.0,1.384116975561381e-23,0.00030099678226042336,-1.2188938208231272e-31,0.0,0.0,0.0,1.579582188631047e-14,1.2188938208231272e-31,0.00030099678226042336,0.0,-8.708279545423356e-08,-0.0014232904694425118,0.0,0.0,0.0,9.651680076672724,-1.584854793346914e-06,0.0,0.0,0.0,0.0,8.762526875478615e-08,0.0007641207008278379,0.0,0.0,0.0,0.0,0.0,0.0,0.0007641207008278379,0.0,0.0,0.0,0.0,0.0,0.0,0.00040099760867875876,2.3416218512441724e-38,2.634191251729286e-29,0.0,0.0,0.0,2.3416218512441704e-38,0.00010099014754432826,-7.739942555593623e-46,0.0,0.0,0.0,2.634191251729285e-29,7.73993419125552e-46,0.00010099014754432826,0.0,0.0,0.0,0.0,0.0,0.0,0.0003986764834457954
161100000000,8044,161100000000,odom,base_link,-0.0005905604093724274,2.7326208118331475e-08,0.0,0.0,0.0,-3.1890181449258194e-05,0.9999999994915082,8.047439730432725,2.2643014188152858e-11,0.0,0.0,0.0,-8.710230989604687e-08,2.2643014188152748e-11,8.047440112541906,0.0,0.0,0.0,-0.001423596417193731,0.0,0.0,4.995843713223107e-07,6.502261231250537e-29,2.1776486294366172e-20,0.0,0.0,0.0,6.502261231250538e-29,4.99170803751445e-07,1.8899903483598333e-37,0.0,0.0,0.0,2.1776486294366166e-20,-1.9581263600618877e-37,4.99170803751445e-07,0.0,-8.710230989604807e-08,-0.0014235964171937533,0.0,0.0,0.0,9.652880076738928,-1.5849378293140489e-06,0.0,0.0,0.0,0.0,4.2891926807319504e-08,0.0007641207008272311,0.0,0.0,0.0,0.0,0.0,0.0,0.0007641207008272311,0.0,0.0,0.0,0.0,0.0,0.0,4.993773312839096e-07,1.5761655354233686e-37,5.25253309457549e-29,0.0,0.0,0.0,1.5761655354233689e-37,4.97536706696652e-07,1.6098121087035216e-45,0.0,0.0,0.0,5.252533094575489e-29,-1.7378514948113157e-45,4.97536706696652e-07,0.0,0.0,0.0,0.0,0.0,0.0,9.999574935074395e-10
161120000000,8045,161120000000,odom,base_link,-0.0005905921089949031,2.7328229924961628e-08,0.0,0.0,0.0,-3.1890545344616295e-05,0.9999999994914965,8.048440155432848,2.2648654147526537e-11,0.0,0.0,0.0,-8.71218267377024e-08,2.2648654147526427e-11,8.048440537632294,0.0,0.0,0.0,-0.001423902419015714,0.0,0.0,4.995843713223107e-07,9.318725436137313e-30,2.177762738347295e-20,0.0,0.0,0.0,9.318725436137319e-30,4.99170803751445e-07,-5.520874842148099e-38,0.0,0.0,0.0,2.177762738347295e-20,5.42322049820853e-38,4.99170803751445e-07,0.0,-8.712182673770361e-08,-0.0014239024190157363,0.0,0.0,0.0,9.654080086706102,-1.585020882804823e-06,0.0,0.0,0.0,0.0,-2.7518547796281496e-07,0.0007641207008272569,0.0,0.0,0.0,0.0,0.0,0.0,0.0007641207008272569,0.0,0.0,0.0,0.0,0.0,0.0,4.993773312839096e-07,2.2588839284935876e-38,5.252808327605118e-29,0.0,0.0,0.0,2.258883928493588e-38,4.97536706696652e-07,-5.146889148402414e-46,0.0,0.0,0.0,5.252808327605118e-29,5.072284759748713e-46,4.97536706696652e-07,0.0,0.0,0.0,0.0,0.0,0.0,9.999574935074395e-10
161140000000,8046,161140000000,odom,base_link,-0.0005906238102784968,2.7330251911027353e-08,0.0,0.0,0.0,-3.18923940702324e-05,0.9999999994914376,8.049440580432968,2.265429574464873e-11,0.0,0.0,0.0,-8.714134773794966e-08,2.2654295744648617e-11,8.049440962722702,0.0,0.0,0.0,-0.00142420847491531,0.0,0.0,4.995843713223107e-07,-5.949555569587914e-29,2.1778768642454355e-20,0.0,0.0,0.0,-5.949555569587911e-29,4.99170803751445e-07,7.1284719550282774e-37,0.0,0.0,0.0,2.1778768642454358e-20,-7.066121111068451e-37,4.99170803751445e-07,0.0,-8.714134773795087e-08,-0.0014242084749153323,0.0,0.0,0.0,9.655280096673275,-1.5851039486513516e-06,0.0,0.0,0.0,0.0,8.524854962919658e-08,0.0007641207008270721,0.0,0.0,0.0,0.0,0.0,0.0,0.0007641207008270721,0.0,0.0,0.0,0.0,0.0,0.0,4.993773312839096e-07,-1.4421882200603248e-37,5.253083601608509e-29,0.0,0.0,0.0,-1.442188220060325e-37,4.97536706696652e-07,6.800366845892973e-45,0.0,0.0,0.0,5.253083601608509e-29,-6.808864729816607e-45,4.97536706696652e-07,0.0,0.0,0.0,0.0,0.0,0.0,9.999574935074395e-10
161160000000,8047,161160000000,odom,base_link,-0.0005906555132235754,2.7332274063152302e-08,0.0,0.0,0.0,-3.189197260647982e-05,0.999999999491451,8.050441005433088,2.2659938960895062e-11,0.0,0.0,0.0,-8.716087276796553e-08,2.2659938960894965e-11,8.050441387813136,0.0,0.0,0.0,-0.0014245145848991833,0.0,0.0,4.995843713223107e-07,1.848386279768426e-29,2.177991011268612e-20,0.0,0.0,0.0,1.8483862797684254e-29,4.99170803751445e-07,-7.587961365851302e-38,0.0,0.0,0.0,2.1779910112686123e-20,7.394241878759763e-38,4.99170803751445e-07,0.0,-8.716087276796673e-08,-0.0014245145848992057,0.0,0.0,0.0,9.65648010664045,-1.5851870298743885e-06,0.0,0.0,0.0,0.0,-8.734842519846527e-08,0.0007641207008272036,0.0,0.0,0.0,0.0,0.0,0.0,0.0007641207008272036,0.0,0.0,0.0,0.0,0.0,0.0,4.993773312839096e-07,4.480537771401223e-38,5.253358926566332e-29,0.0,0.0,0.0,4.4805377714012246e-38,4.97536706696652e-07,-7.179371670595072e-46,0.0,0.0,0.0,5.253358926566332e-29,7.02962417103235e-46,4.97536706696652e-07,0.0,0.0,0.0,0.0,0.0,0.0,9.999574935074395e-10
161180000000,8048,161180000000,odom,base_link,-0.0005906872178304321,2.7334296321908708e-08,0.0,0.0,0.0,-3.189237110993208e-05,0.9999999994914384,8.051441430433211,2.266558371202382e-11,0.0,0.0,0.0,-8.718040125430666e-08,2.2665583712023724e-11,8.051441812903596,0.0,0.0,0.0,-0.0014248207489742563,0.0,0.0,4.995843713223119e-07,-1.8859746461323373e-29,2.1781051789175833e-20,0.0,0.0,0.0,-1.885974646132338e-29,4.991708037514474e-07,1.754275798395286e-37,0.0,0.0,0.0,2.1781051789175836e-20,-1.7345088701224303e-37,4.991708037514474e-07,0.0,-8.718040125430787e-08,-0.0014248207489742787,0.0,0.0,0.0,9.657680116607624,-1.5852701261139705e-06,0.0,0.0,0.0,0.0,1.0250955002080897e-07,0.0007641207008277833,0.0,0.0,0.0,0.0,0.0,0.0,0.0007641207008277833,0.0,0.0,0.0,0.0,0.0,0.0,4.993773312839113e-07,-4.5716531634952786e-38,5.253634301273771e-29,0.0,0.0,0.0,-4.5716531634952786e-38,4.97536706696659e-07,1.6801309224258352e-45,0.0,0.0,0.0,5.253634301273771e-29,-1.6546141253598468e-45,4.97536706696659e-07,0.0,0.0,0.0,0.0,0.0,0.0,9.999574935074393e-10
161200000000,8049,161200000000,odom,base_link,-0.00059071892409958,2.7336318681864778e-08,0.0,0.0,0.0,-3.189131695405891e-05,0.999999999491472,8.052441855433331,2.267122999065902e-11,0.0,0.0,0.0,-8.719993314464949e-08,2.267122999065891e-11,8.052442237994077,0.0,0.0,0.0,-0.00142512696714794,0.0,0.0,4.995843713223107e-07,2.222073144643991e-29,2.1782193746404724e-20,0.0,0.0,0.0,2.2220731446439888e-29,4.99170803751445e-07,5.051168180296779e-39,0.0,0.0,0.0,2.1782193746404712e-20,-7.380248459072786e-39,4.99170803751445e-07,0.0,-8.71999331446507e-08,-0.0014251269671479623,0.0,0.0,0.0,9.658880126574797,-1.585353242794209e-06,0.0,0.0,0.0,0.0,1.1467211045410262e-07,0.0007641207008271842,0.0,0.0,0.0,0.0,0.0,0.0,0.0007641207008271842,0.0,0.0,0.0,0.0,0.0,0.0,4.993773312839096e-07,5.386364747605894e-38,5.25390974369561e-29,0.0,0.0,0.0,5.386364747605893e-38,4.97536706696652e-07,1.0530859332756043e-47,0.0,0.0,0.0,5.25390974369561e-29,-4.03726096787216e-47,4.97536706696652e-07,0.0,0.0,0.0,0.0,0.0,0.0,9.999574935074395e-10
161220000000,8050,161220000000,odom,base_link,-0.0005907506320308725,2.733834107906125e-08,0.0,0.0,0.0,-3.189079190805251e-05,0.9999999994914887,8.053442280433453,2.267687770603635e-11,0.0,0.0,0.0,-8.72194678217068e-08,2.2676877706036254e-11,8.053442663084583,0.0,0.0,0.0,-0.0014254332394268154,0.0,0.0,4.995843713223107e-07,2.4853767005942717e-29,2.1783335791117828e-20,0.0,0.0,0.0,2.4853767005942717e-29,4.99170803751445e-07,-3.834566102582224e-37,0.0,0.0,0.0,2.1783335791117822e-20,3.808514100876441e-37,4.99170803751445e-07,0.0,-8.721946782170801e-08,-0.0014254332394268378,0.0,0.0,0.0,9.660080136541971,-1.5854363658194626e-06,0.0,0.0,0.0,0.0,-1.3424336332480538e-07,0.0007641207008272127,0.0,0.0,0.0,0.0,0.0,0.0,0.0007641207008272127,0.0,0.0,0.0,0.0,0.0,0.0,4.993773312839096e-07,6.024619625448068e-38,5.254185207219786e-29,0.0,0.0,0.0,6.02461962544807e-38,4.97536706696652e-07,-3.635069649432722e-45,0.0,0.0,0.0,5.254185207219786e-29,3.635112820246274e-45,4.97536706696652e-07,0.0,0.0,0.0,0.0,0.0,0.0,9.999574935074395e-10
161240000000,8051,161240000000,odom,base_link,-0.0005907823416248228,2.734036358847287e-08,0.0,0.0,0.0,-3.189232654446967e-05,0.9999999994914398,8.054442705433573,2.2682526965329604e-11,0.0,0.0,0.0,-8.723900600969022e-08,2.268252696532952e-11,8.054443088175113,0.0,0.0,0.0,-0.0014257395658170378,0.0,0.0,4.995843713223119e-07,-2.901091118492728e-29,2.1784478056978234e-20,0.0,0.0,0.0,-2.9010911184927274e-29,4.991708037514474e-07,1.5390690166843053e-37,0.0,0.0,0.0,2.1784478056978234e-20,-1.5086578544996992e-37,4.991708037514474e-07,0.0,-8.723900600969142e-08,-0.0014257395658170602,0.0,0.0,0.0,9.661280146509146,-1.5855195049484214e-06,0.0,0.0,0.0,0.0,-2.1245845532503528e-07,0.0007641207008277672,0.0,0.0,0.0,0.0,0.0,0.0,0.0007641207008277672,0.0,0.0,0.0,0.0,0.0,0.0,4.993773312839113e-07,-7.032322690580208e-38,5.254460724084615e-29,0.0,0.0,0.0,-7.032322690580208e-38,4.97536706696659e-07,1.463627541440551e-45,0.0,0.0,0.0,5.254460724084615e-29,-1.4337208037273706e-45,4.97536706696659e-07,0.0,0.0,0.0,0.0,0.0,0.0,9.999574935074393e-10
161260000000,8052,161260000000,odom,base_link,-0.0005908140528818711,2.7342386313692367e-08,0.0,0.0,0.0,-3.18936609663753e-05,0.9999999994913972,8.055443130433693,2.2688177916644156e-11,0.0,0.0,0.0,-8.725854870967742e-08,2.2688177916644092e-11,8.055443513265667,0.0,0.0,0.0,-0.0014260459463259993,0.0,0.0,4.995843713223107e-07,-4.5939279373826636e-29,2.178562058547523e-20,0.0,0.0,0.0,-4.593927937382663e-29,4.99170803751445e-07,-3.8052386844484153e-38,0.0,0.0,0.0,2.1785620585475226e-20,4.2868299514263394e-38,4.99170803751445e-07,0.0,-8.725854870967863e-08,-0.0014260459463260216,0.0,0.0,0.0,9.662480156476319,-1.585602663196496e-06,0.0,0.0,0.0,0.0,1.0305706197501968e-07,0.0007641207008271624,0.0,0.0,0.0,0.0,0.0,0.0,0.0007641207008271624,0.0,0.0,0.0,0.0,0.0,0.0,4.993773312839096e-07,-1.113580450115424e-37,5.254736304297529e-29,0.0,0.0,0.0,-1.1135804501154245e-37,4.97536706696652e-07,-3.281034575548412e-46,0.0,0.0,0.0,5.254736304297529e-29,3.2810399655547462e-46,4.97536706696652e-07,0.0,0.0,0.0,0.0,0.0,0.0,9.999574935074395e-10
161280000000,8053,161280000000,odom,base_link,-0.0005908457658019438,2.734440917959591e-08,0.0,0.0,0.0,-3.1892632896746396e-05,0.99999999949143,8.056443555433816,2.269383045333021e-11,0.0,0.0,0.0,-8.727809519646667e-08,2.2693830453330143e-11,8.056443938356248,0.0,0.0,0.0,-0.001426352380960272,0.0,0.0,0.0006009984372418835,1.620823580778579e-23,1.5804104330919364e-14,0.0,0.0,0.0,1.620823580778579e-23,0.00030099678225957075,-1.1547718621320688e-31,0.0,0.0,0.0,1.5804104330919367e-14,1.1547718621320688e-31,0.00030099678225957075,0.0,-8.727809519646787e-08,-0.0014263523809602944,0.0,0.0,0.0,9.663680176344462,-1.5856858289945236e-06,0.0,0.0,0.0,0.0,1.0255684546530821e-07,0.0007641207008271898,0.0,0.0,0.0,0.0,0.0,0.0,0.0007641207008271898,0.0,0.0,0.0,0.0,0.0,0.0,0.0004009976086776219,2.7424313018481164e-38,2.635572391193196e-29,0.0,0.0,0.0,2.7424313018481195e-38,0.00010099014754404407,-5.187242814011509e-46,0.0,0.0,0.0,2.635572391193198e-29,5.187242814534721e-46,0.00010099014754404407,0.0,0.0,0.0,0.0,0.0,0.0,0.0003986764834457879
161300000000,8054,161300000000,odom,base_link,-0.0005908774803859208,2.7346432075812034e-08,0.0,0.0,0.0,-3.1891547777641264e-05,0.9999999994914646,8.05744398043394,2.2699484418286187e-11,0.0,0.0,0.0,-8.729764440344773e-08,2.269948441828611e-11,8.057444363446853,0.0,0.0,0.0,-0.0014266588697270889,0.0,0.0,4.995843713223119e-07,2.9545944455941236e-29,2.1787906207751168e-20,0.0,0.0,0.0,2.954594445594124e-29,4.991708037514474e-07,-3.032373769845684e-37,0.0,0.0,0.0,2.1787906207751174e-20,3.001396876234275e-37,4.991708037514474e-07,0.0,-8.729764440344894e-08,-0.0014266588697271112,0.0,0.0,0.0,9.664880176410668,-1.5857690208369395e-06,0.0,0.0,0.0,0.0,-8.34897429644591e-09,0.0007641207008277442,0.0,0.0,0.0,0.0,0.0,0.0,0.0007641207008277442,0.0,0.0,0.0,0.0,0.0,0.0,4.993773312839113e-07,7.162016011363913e-38,5.255287601071505e-29,0.0,0.0,0.0,7.16201601136391e-38,4.97536706696659e-07,-2.819917798646978e-45,0.0,0.0,0.0,5.255287601071506e-29,2.845274570472297e-45,4.97536706696659e-07,0.0,0.0,0.0,0.0,0.0,0.0,9.999574935074393e-10
161320000000,8055,161320000000,odom,base_link,-0.0005909091966333619,2.734845503758023e-08,0.0,0.0,0.0,-3.18916980822988e-05,0.9999999994914598,8.05844440543406,2.2705139862166905e-11,0.0,0.0,0.0,-8.731719667174243e-08,2.2705139862166827e-11,8.058444788537479,0.0,0.0,0.0,-0.0014269654126331285,0.0,0.0,4.995843713223107e-07,-1.767406388274046e-30,2.178904922128354e-20,0.0,0.0,0.0,-1.7674063882740467e-30,4.99170803751445e-07,-6.258537872936219e-39,0.0,0.0,0.0,2.1789049221283542e-20,6.443848015327945e-39,4.99170803751445e-07,0.0,-8.731719667174363e-08,-0.0014269654126331508,0.0,0.0,0.0,9.66608018637784,-1.585852214357155e-06,0.0,0.0,0.0,0.0,-3.540297845054209e-08,0.00076412070082714,0.0,0.0,0.0,0.0,0.0,0.0,0.00076412070082714,0.0,0.0,0.0,0.0,0.0,0.0,4.993773312839096e-07,-4.284241323704814e-39,5.255563298276483e-29,0.0,0.0,0.0,-4.284241323704816e-39,4.97536706696652e-07,-5.825878080184797e-47,0.0,0.0,0.0,5.255563298276484e-29,5.799587957632489e-47,4.97536706696652e-07,0.0,0.0,0.0,0.0,0.0,0.0,9.999574935074395e-10
161340000000,8056,161340000000,odom,base_link,-0.0005909409145451476,2.7350478119330488e-08,0.0,0.0,0.0,-3.18913105094363e-05,0.9999999994914721,8.05944483043418,2.2710796862934893e-11,0.0,0.0,0.0,-8.733675252725494e-08,2.271079686293481e-11,8.059445213628129,0.0,0.0,0.0,-0.0014272720096847745,0.0,0.0,4.995843713223107e-07,-7.623596609776734e-30,2.1790192551914683e-20,0.0,0.0,0.0,-7.623596609776731e-30,4.99170803751445e-07,8.472047394958832e-38,0.0,0.0,0.0,2.1790192551914674e-20,-8.392110832791181e-38,4.99170803751445e-07,0.0,-8.733675252725614e-08,-0.0014272720096847968,0.0,0.0,0.0,9.667280196345015,-1.5859354309862823e-06,0.0,0.0,0.0,0.0,2.618044226469473e-07,0.000764120700827168,0.0,0.0,0.0,0.0,0.0,0.0,0.000764120700827168,0.0,0.0,0.0,0.0,0.0,0.0,4.993773312839096e-07,-1.847980335464479e-38,5.255839071966211e-29,0.0,0.0,0.0,-1.8479803354644788e-38,4.97536706696652e-07,8.052363214390698e-46,0.0,0.0,0.0,5.255839071966209e-29,-7.913776087438564e-46,4.97536706696652e-07,0.0,0.0,0.0,0.0,0.0,0.0,9.999574935074395e-10
161360000000,8057,161360000000,odom,base_link,-0.0005909726341212773,2.735250123551499e-08,0.0,0.0,0.0,-3.18902999167162e-05,0.9999999994915044,8.060445255434301,2.2716455298886117e-11,0.0,0.0,0.0,-8.735631114342088e-08,2.2716455298886036e-11,8.060445638718805,0.0,0.0,0.0,-0.0014275786608893616,0.0,0.0,4.995843713223119e-07,5.671273074679818e-29,2.1791336039451807e-20,0.0,0.0,0.0,5.671273074679817e-29,4.991708037514474e-07,-1.0084397036839784e-36,0.0,0.0,0.0,2.1791336039451807e-20,1.0024928273521733e-36,4.991708037514474e-07,0.0,-8.735631114342209e-08,-0.001427578660889384,0.0,0.0,0.0,9.66848020631219,-1.5860186590288709e-06,0.0,0.0,0.0,0.0,-3.8175119339020354e-07,0.0007641207008277232,0.0,0.0,0.0,0.0,0.0,0.0,0.0007641207008277232,0.0,0.0,0.0,0.0,0.0,0.0,4.993773312839113e-07,1.3747317795364859e-37,5.256114883502106e-29,0.0,0.0,0.0,1.3747317795364863e-37,4.97536706696659e-07,-9.525193978289424e-45,0.0,0.0,0.0,5.256114883502108e-29,9.516350176447726e-45,4.97536706696659e-07,0.0,0.0,0.0,0.0,0.0,0.0,9.999574935074393e-10
161380000000,8058,161380000000,odom,base_link,-0.0005910043553621912,2.7354524495839455e-08,0.0,0.0,0.0,-3.189307614573923e-05,0.9999999994914158,8.061445680434419,2.2722115326963632e-11,0.0,0.0,0.0,-8.737587358100613e-08,2.2722115326963555e-11,8.061446063809502,0.0,0.0,0.0,-0.0014278853662536074,0.0,0.0,4.995843713223107e-07,-8.260261858356292e-29,2.1792479757479334e-20,0.0,0.0,0.0,-8.260261858356294e-29,4.99170803751445e-07,3.7034458356268806e-37,0.0,0.0,0.0,2.1792479757479334e-20,-3.6168244837634296e-37,4.99170803751445e-07,0.0,-8.737587358100734e-08,-0.0014278853662536297,0.0,0.0,0.0,9.669680216279362,-1.58610190384372e-06,0.0,0.0,0.0,0.0,3.341774784874352e-08,0.0007641207008271193,0.0,0.0,0.0,0.0,0.0,0.0,0.0007641207008271193,0.0,0.0,0.0,0.0,0.0,0.0,4.993773312839096e-07,-2.00230961527752e-37,5.256390750632294e-29,0.0,0.0,0.0,-2.0023096152775204e-37,4.97536706696652e-07,3.706441237901742e-45,0.0,0.0,0.0,5.256390750632296e-29,-3.586644611780527e-45,4.97536706696652e-07,0.0,0.0,0.0,0.0,0.0,0.0,9.999574935074395e-10
161400000000,8059,161400000000,odom,base_link,-0.0005910360782681091,2.735654797264979e-08,0.0,0.0,0.0,-3.189296636044732e-05,0.9999999994914194,8.062446105434535,2.272777705090839e-11,0.0,0.0,0.0,-8.73954405399301e-08,2.27277770509083e-11,8.062446488900221,0.0,0.0,0.0,-0.00142819212578447,0.0,0.0,4.995843713223119e-07,7.274438919719021e-30,2.1793623665703167e-20,0.0,0.0,0.0,7.274438919719022e-30,4.991708037514474e-07,-2.4277891448829506e-38,0.0,0.0,0.0,2.1793623665703173e-20,2.3515016348259186e-38,4.991708037514474e-07,0.0,-8.739544053993131e-08,-0.0014281921257844924,0.0,0.0,0.0,9.670880226246537,-1.5861851625069803e-06,0.0,0.0,0.0,0.0,-5.659809775283649e-08,0.0007641207008277011,0.0,0.0,0.0,0.0,0.0,0.0,0.0007641207008277011,0.0,0.0,0.0,0.0,0.0,0.0,4.993773312839113e-07,1.7633433874277866e-38,5.256666663638872e-29,0.0,0.0,0.0,1.7633433874277874e-38,4.97536706696659e-07,-2.3132909431917954e-46,0.0,0.0,0.0,5.256666663638872e-29,2.238469291901209e-46,4.97536706696659e-07,0.0,0.0,0.0,0.0,0.0,0.0,9.999574935074393e-10
161420000000,8060,161420000000,odom,base_link,-0.000591067802839251,2.7358571562990993e-08,0.0,0.0,0.0,-3.189345850210783e-05,0.9999999994914036,8.063446530434653,2.2733440324127812e-11,0.0,0.0,0.0,-8.741501102507118e-08,2.2733440324127728e-11,8.063446913990965,0.0,0.0,0.0,-0.0014284989394884825,0.0,0.0,4.995843713223107e-07,-1.2214054077746323e-29,2.179476774434812e-20,0.0,0.0,0.0,-1.2214054077746324e-29,4.99170803751445e-07,1.7906102371065207e-37,0.0,0.0,0.0,2.1794767744348127e-20,-1.7778006075365214e-37,4.99170803751445e-07,0.0,-8.741501102507238e-08,-0.0014284989394885048,0.0,0.0,0.0,9.67208023621371,-1.5862684335570263e-06,0.0,0.0,0.0,0.0,-2.7524892793766938e-08,0.0007641207008271041,0.0,0.0,0.0,0.0,0.0,0.0,0.0007641207008271041,0.0,0.0,0.0,0.0,0.0,0.0,4.993773312839096e-07,-2.960719524435843e-38,5.256942617750858e-29,0.0,0.0,0.0,-2.960719524435845e-38,4.97536706696652e-07,1.717464167982304e-45,0.0,0.0,0.0,5.256942617750858e-29,-1.7174641652010073e-45,4.97536706696652e-07,0.0,0.0,0.0,0.0,0.0,0.0,9.999574935074395e-10
161440000000,8061,161440000000,odom,base_link,-0.0005910995290762037,2.7360595286203465e-08,0.0,0.0,0.0,-3.189332534218037e-05,0.9999999994914079,8.064446955434775,2.27391051746181e-11,0.0,0.0,0.0,-8.743458522360798e-08,2.2739105174618e-11,8.06444733908174,0.0,0.0,0.0,-0.0014288058073728684,0.0,0.0,4.995843713223107e-07,-5.9198756125620544e-30,2.1795912111092983e-20,0.0,0.0,0.0,-5.919875612562052e-30,4.99170803751445e-07,1.078593192819515e-37,0.0,0.0,0.0,2.179591211109299e-20,-1.0723843292184065e-37,4.99170803751445e-07,0.0,-8.743458522360919e-08,-0.0014288058073728908,0.0,0.0,0.0,9.673280246180884,-1.5863517255987293e-06,0.0,0.0,0.0,0.0,1.3601467846082384e-07,0.0007641207008271347,0.0,0.0,0.0,0.0,0.0,0.0,0.0007641207008271347,0.0,0.0,0.0,0.0,0.0,0.0,4.993773312839096e-07,-1.4349938017147932e-38,5.2572186413534e-29,0.0,0.0,0.0,-1.4349938017147918e-38,4.97536706696652e-07,1.0226003688587893e-45,0.0,0.0,0.0,5.257218641353404e-29,-1.022600313389428e-45,4.97536706696652e-07,0.0,0.0,0.0,0.0,0.0,0.0,9.999574935074395e-10
161460000000,8062,161460000000,odom,base_link,-0.0005911312569789669,2.7362619081279395e-08,0.0,0.0,0.0,-3.189218956160025e-05,0.9999999994914441,8.065447380434899,2.274477151562202e-11,0.0,0.0,0.0,-8.745416254587982e-08,2.2744771515621935e-11,8.06544776417254,0.0,0.0,0.0,-0.0014291127294446609,0.0,0.0,4.995843713223119e-07,2.949064974560517e-29,2.1797056620281868e-20,0.0,0.0,0.0,2.9490649745605166e-29,4.991708037514474e-07,-6.137842084003749e-38,0.0,0.0,0.0,2.1797056620281868e-20,5.828523021906697e-38,4.991708037514474e-07,0.0,-8.745416254588103e-08,-0.0014291127294446832,0.0,0.0,0.0,9.674480256148058,-1.5864350279980438e-06,0.0,0.0,0.0,0.0,4.669335423698107e-08,0.0007641207008276911,0.0,0.0,0.0,0.0,0.0,0.0,0.0007641207008276911,0.0,0.0,0.0,0.0,0.0,0.0,4.993773312839113e-07,7.148612423107163e-38,5.257494699313826e-29,0.0,0.0,0.0,7.148612423107163e-38,4.97536706696659e-07,-5.8670519367965366e-46,0.0,0.0,0.0,5.257494699313821e-29,5.5226983830523446e-46,4.97536706696659e-07,0.0,0.0,0.0,0.0,0.0,0.0,9.999574935074393e-10
161480000000,8063,161480000000,odom,base_link,-0.0005911629865479073,2.736464292472932e-08,0.0,0.0,0.0,-3.189212331681285e-05,0.9999999994914462,8.066447805435018,2.2750439313892402e-11,0.0,0.0,0.0,-8.747374276474385e-08,2.2750439313892324e-11,8.066448189263358,0.0,0.0,0.0,-0.001429419705710249,0.0,0.0,4.995843713223107e-07,1.0150644295026634e-29,2.1798201327134295e-20,0.0,0.0,0.0,1.0150644295026631e-29,4.99170803751445e-07,-1.7315140448351107e-37,0.0,0.0,0.0,2.179820132713429e-20,1.7208667628208053e-37,4.99170803751445e-07,0.0,-8.747374276474506e-08,-0.0014294197057102714,0.0,0.0,0.0,9.675680266115231,-1.586518344773049e-06,0.0,0.0,0.0,0.0,-1.1398696887297284e-07,0.0007641207008270882,0.0,0.0,0.0,0.0,0.0,0.0,0.0007641207008270882,0.0,0.0,0.0,0.0,0.0,0.0,4.993773312839096e-07,2.4605432859896703e-38,5.257770804950682e-29,0.0,0.0,0.0,2.4605432859896713e-38,4.97536706696652e-07,-1.657181574036593e-45,0.0,0.0,0.0,5.257770804950679e-29,1.6496998064634456e-45,4.97536706696652e-07,0.0,0.0,0.0,0.0,0.0,0.0,9.999574935074395e-10
161500000000,8064,161500000000,odom,base_link,-0.0005911947177833181,2.736666689576271e-08,0.0,0.0,0.0,-3.189336988677058e-05,0.9999999994914065,8.067448230435138,2.27561086829988e-11,0.0,0.0,0.0,-8.749332664674765e-08,2.2756108682998734e-11,8.067448614354202,0.0,0.0,0.0,-0.0014297267361764283,0.0,0.0,4.995843713223107e-07,-2.464421178424282e-29,2.1799346233404065e-20,0.0,0.0,0.0,-2.4644211784242817e-29,4.99170803751445e-07,5.071282039281397e-37,0.0,0.0,0.0,2.179934623340406e-20,-5.045430709273696e-37,4.99170803751445e-07,0.0,-8.749332664674885e-08,-0.0014297267361764506,0.0,0.0,0.0,9.676880276082406,-1.5866016760652591e-06,0.0,0.0,0.0,0.0,-1.5775218220505023e-07,0.0007641207008271174,0.0,0.0,0.0,0.0,0.0,0.0,0.0007641207008271174,0.0,0.0,0.0,0.0,0.0,0.0,4.993773312839096e-07,-5.97382305709781e-38,5.258046958687937e-29,0.0,0.0,0.0,-5.973823057097809e-38,4.97536706696652e-07,4.79427853261249e-45,0.0,0.0,0.0,5.258046958687936e-29,-4.7941918600858565e-45,4.97536706696652e-07,0.0,0.0,0.0,0.0,0.0,0.0,9.999574935074395e-10
161520000000,8065,161520000000,odom,base_link,-0.0005912264506855662,2.7368691059173536e-08,0.0,0.0,0.0,-3.1894941274234375e-05,0.9999999994913563,8.068448655435256,2.2761779715990093e-11,0.0,0.0,0.0,-8.751291481917862e-08,2.276177971599003e-11,8.068449039445069,0.0,0.0,0.0,-0.0014300338208501947,0.0,0.0,0.0006009984372435888,-2.4753078851753907e-23,1.5814062720711355e-14,0.0,0.0,0.0,-2.4753078851753915e-23,0.00030099678226042336,-4.342222426539377e-32,0.0,0.0,0.0,1.5814062720711358e-14,4.342222426539377e-32,0.00030099678226042336,0.0,-8.751291481917982e-08,-0.001430033820850217,0.0,0.0,0.0,9.678080295950549,-1.5866850238141805e-06,0.0,0.0,0.0,0.0,-1.565253055821355e-07,0.0007641207008276737,0.0,0.0,0.0,0.0,0.0,0.0,0.0007641207008276737,0.0,0.0,0.0,0.0,0.0,0.0,0.00040099760867875876,-4.201441177305028e-38,2.6372329928292285e-29,0.0,0.0,0.0,-4.201441177305027e-38,0.00010099014754432826,2.0534516066264164e-45,0.0,0.0,0.0,2.637232992829227e-29,-2.045694717963974e-45,0.00010099014754432826,0.0,0.0,0.0,0.0,0.0,0.0,0.0003986764834457954
161540000000,8066,161540000000,odom,base_link,-0.0005912581852547977,2.7370715381330017e-08,0.0,0.0,0.0,-3.189488915414838e-05,0.999999999491358,8.069449080435376,2.2767452365227875e-11,0.0,0.0,0.0,-8.753250695707208e-08,2.2767452365227817e-11,8.069449464535962,0.0,0.0,0.0,-0.0014303409597382865,0.0,0.0,4.995843713223107e-07,-1.6444291882907602e-30,2.1801636660595462e-20,0.0,0.0,0.0,-1.644429188290758e-30,4.99170803751445e-07,1.0738793054470529e-38,0.0,0.0,0.0,2.1801636660595462e-20,-1.0566277299857696e-38,4.99170803751445e-07,0.0,-8.753250695707329e-08,-0.0014303409597383088,0.0,0.0,0.0,9.679280296016753,-1.5867683833851802e-06,0.0,0.0,0.0,0.0,-1.0463454046761518e-07,0.0007641207008270711,0.0,0.0,0.0,0.0,0.0,0.0,0.0007641207008270711,0.0,0.0,0.0,0.0,0.0,0.0,4.993773312839096e-07,-3.986141348139456e-39,5.258599414416987e-29,0.0,0.0,0.0,-3.986141348139458e-39,4.97536706696652e-07,1.0431002535249194e-46,0.0,0.0,0.0,5.258599414416984e-29,-1.040363681014511e-46,4.97536706696652e-07,0.0,0.0,0.0,0.0,0.0,0.0,9.999574935074395e-10
161560000000,8067,161560000000,odom,base_link,-0.0005912899214915997,2.737273984544652e-08,0.0,0.0,0.0,-3.1895777970723824e-05,0.9999999994913297,8.070449505435498,2.2773126607100807e-11,0.0,0.0,0.0,-8.755210289818117e-08,2.2773126607100765e-11,8.07044988962688,0.0,0.0,0.0,-0.001430648152847852,0.0,0.0,4.995843713223107e-07,-2.2622511965172034e-29,2.180278223981523e-20,0.0,0.0,0.0,-2.2622511965172017e-29,4.99170803751445e-07,1.1666012178452957e-37,0.0,0.0,0.0,2.1802782239815223e-20,-1.1428668737192095e-37,4.99170803751445e-07,0.0,-8.755210289818237e-08,-0.0014306481528478744,0.0,0.0,0.0,9.680480305983927,-1.586851763669055e-06,0.0,0.0,0.0,0.0,-4.229456455056145e-08,0.000764120700827101,0.0,0.0,0.0,0.0,0.0,0.0,0.000764120700827101,0.0,0.0,0.0,0.0,0.0,0.0,4.993773312839096e-07,-5.483757605062504e-38,5.258875730470966e-29,0.0,0.0,0.0,-5.483757605062504e-38,4.97536706696652e-07,1.1043717009909892e-45,0.0,0.0,0.0,5.25887573047097e-29,-1.0745518037288954e-45,4.97536706696652e-07,0.0,0.0,0.0,0.0,0.0,0.0,9.999574935074395e-10
161580000000,8068,161580000000,odom,base_link,-0.0005913216593959719,2.7374764462463323e-08,0.0,0.0,0.0,-3.1895969347415994e-05,0.9999999994913236,8.071449930435621,2.2778802457702386e-11,0.0,0.0,0.0,-8.757170274894075e-08,2.2778802457702334e-11,8.071450314717824,0.0,0.0,0.0,-0.0014309554001858903,0.0,0.0,4.995843713223119e-07,-9.121119584920318e-30,2.1803927959533148e-20,0.0,0.0,0.0,-9.121119584920318e-30,4.991708037514474e-07,1.5883536587305002e-37,0.0,0.0,0.0,2.1803927959533145e-20,-1.578783759192642e-37,4.991708037514474e-07,0.0,-8.757170274894196e-08,-0.0014309554001859127,0.0,0.0,0.0,9.681680315951102,-1.5869351541685223e-06,0.0,0.0,0.0,0.0,5.0175651461001265e-08,0.0007641207008276577,0.0,0.0,0.0,0.0,0.0,0.0,0.0007641207008276577,0.0,0.0,0.0,0.0,0.0,0.0,4.993773312839113e-07,-2.2109839187438045e-38,5.25915208041348e-29,0.0,0.0,0.0,-2.2109839187438038e-38,4.97536706696659e-07,1.5000091229653778e-45,0.0,0.0,0.0,5.259152080413481e-29,-1.492516455068008e-45,4.97536706696659e-07,0.0,0.0,0.0,0.0,0.0,0.0,9.999574935074393e-10
161600000000,8069,161600000000,odom,base_link,-0.0005913533989683542,2.7376789183358956e-08,0.0,0.0,0.0,-3.1895468341734866e-05,0.9999999994913396,8.072450355435741,2.2784479847270114e-11,0.0,0.0,0.0,-8.759130603498183e-08,2.2784479847270053e-11,8.07245073980879,0.0,0.0,0.0,-0.0014312627017589563,0.0,0.0,0.0006009984372418835,7.912744495398233e-24,1.581738688925468e-14,0.0,0.0,0.0,7.912744495398234e-24,0.0003009967822595707,-3.1481876002522944e-32,0.0,0.0,0.0,1.581738688925468e-14,3.1481876002522944e-32,0.0003009967822595707,0.0,-8.759130603498303e-08,-0.0014312627017589786,0.0,0.0,0.0,9.682880335819243,-1.587018560840149e-06,0.0,0.0,0.0,0.0,5.002547289567302e-08,0.0007641207008270555,0.0,0.0,0.0,0.0,0.0,0.0,0.0007641207008270555,0.0,0.0,0.0,0.0,0.0,0.0,0.0004009976086776219,1.3364599274339561e-38,2.637787314251787e-29,0.0,0.0,0.0,1.3364599274339564e-38,0.00010099014754404405,5.9202909206687854e-46,0.0,0.0,0.0,2.6377873142517847e-29,-5.920283647470229e-46,0.00010099014754404405,0.0,0.0,0.0,0.0,0.0,0.0,0.00039867648344522693
161620000000,8070,161620000000,odom,base_link,-0.0005913851402088934,2.7378814015983482e-08,0.0,0.0,0.0,-3.1896941364326904e-05,0.9999999994912926,8.07345078043586,2.279015878742624e-11,0.0,0.0,0.0,-8.761091283265728e-08,2.2790158787426177e-11,8.073451164899778,0.0,0.0,0.0,-0.0014315700575737525,0.0,0.0,4.995843713223107e-07,-1.4481452229571877e-29,2.1806220004091078e-20,0.0,0.0,0.0,-1.4481452229571877e-29,4.99170803751445e-07,-1.4039151730027298e-38,0.0,0.0,0.0,2.180622000409108e-20,1.5558708729608972e-38,4.99170803751445e-07,0.0,-8.761091283265848e-08,-0.0014315700575737748,0.0,0.0,0.0,9.684080335885449,-1.5871019791937328e-06,0.0,0.0,0.0,0.0,-2.7273839444557887e-07,0.0007641207008270857,0.0,0.0,0.0,0.0,0.0,0.0,0.0007641207008270857,0.0,0.0,0.0,0.0,0.0,0.0,4.993773312839096e-07,-3.5103429113052137e-38,5.259704926254901e-29,0.0,0.0,0.0,-3.5103429113052127e-38,4.97536706696652e-07,-1.4732862888012788e-46,0.0,0.0,0.0,5.2597049262549e-29,1.4732862971940047e-46,4.97536706696652e-07,0.0,0.0,0.0,0.0,0.0,0.0,9.999574935074395e-10
161640000000,8071,161640000000,odom,base_link,-0.0005914168831181025,2.738083906270167e-08,0.0,0.0,0.0,-3.189868006528701e-05,0.9999999994912371,8.074451205435981,2.279583942510868e-11,0.0,0.0,0.0,-8.763052413345747e-08,2.2795839425108635e-11,8.074451589990794,0.0,0.0,0.0,-0.0014318774676372289,0.0,0.0,4.995843713223107e-07,-5.904362610415602e-29,2.1807366364428652e-20,0.0,0.0,0.0,-5.904362610415603e-29,4.99170803751445e-07,8.454291568328962e-37,0.0,0.0,0.0,2.1807366364428646e-20,-8.39233309151167e-37,4.99170803751445e-07,0.0,-8.763052413345868e-08,-0.0014318774676372512,0.0,0.0,0.0,9.685280345852622,-1.5871854163201224e-06,0.0,0.0,0.0,0.0,1.220476464715982e-07,0.0007641207008269053,0.0,0.0,0.0,0.0,0.0,0.0,0.0007641207008269053,0.0,0.0,0.0,0.0,0.0,0.0,4.993773312839096e-07,-1.431233325861362e-37,5.259981430715645e-29,0.0,0.0,0.0,-1.4312333258613627e-37,4.97536706696652e-07,8.107746931131325e-45,0.0,0.0,0.0,5.259981430715645e-29,-8.047632202093278e-45,4.97536706696652e-07,0.0,0.0,0.0,0.0,0.0,0.0,9.999574935074395e-10
161660000000,8072,161660000000,odom,base_link,-0.000591448627696055,2.7382864263604423e-08,0.0,0.0,0.0,-3.189778922366477e-05,0.9999999994912655,8.075451630436104,2.2801521675011838e-11,0.0,0.0,0.0,-8.765013935774292e-08,2.28015216750118e-11,8.075452015081835,0.0,0.0,0.0,-0.0014321849319562882,0.0,0.0,4.995843713223107e-07,2.648028815979062e-29,2.1808512877640655e-20,0.0,0.0,0.0,2.648028815979064e-29,4.99170803751445e-07,-6.0325726348881035e-37,0.0,0.0,0.0,2.1808512877640652e-20,6.004783613779532e-37,4.99170803751445e-07,0.0,-8.765013935774412e-08,-0.0014321849319563105,0.0,0.0,0.0,9.686480355819796,-1.5872688645612103e-06,0.0,0.0,0.0,0.0,-9.61418594063716e-09,0.0007641207008270409,0.0,0.0,0.0,0.0,0.0,0.0,0.0007641207008270409,0.0,0.0,0.0,0.0,0.0,0.0,4.993773312839096e-07,6.418892704511447e-38,5.260257972050761e-29,0.0,0.0,0.0,6.418892704511445e-38,4.97536706696652e-07,-5.758253695403018e-45,0.0,0.0,0.0,5.260257972050761e-29,5.758167753408163e-45,4.97536706696652e-07,0.0,0.0,0.0,0.0,0.0,0.0,9.999574935074395e-10
161680000000,8073,161680000000,odom,base_link,-0.0005914803739431908,2.7384889535333188e-08,0.0,0.0,0.0,-3.189856650101796e-05,0.9999999994912407,8.076452055436226,2.2807205418129846e-11,0.0,0.0,0.0,-8.766975769833558e-08,2.2807205418129827e-11,8.076452440172899,0.0,0.0,0.0,-0.0014324924505376203,0.0,0.0,4.995843713223119e-07,-2.04323204006946e-30,2.1809659619096235e-20,0.0,0.0,0.0,-2.0432320400694592e-30,4.991708037514474e-07,1.4305640782104374e-39,0.0,0.0,0.0,2.1809659619096226e-20,-1.2161313516036134e-39,4.991708037514474e-07,0.0,-8.766975769833679e-08,-0.0014324924505376426,0.0,0.0,0.0,9.68768036578697,-1.587352329424152e-06,0.0,0.0,0.0,0.0,-2.8322124454960514e-07,0.0007641207008276247,0.0,0.0,0.0,0.0,0.0,0.0,0.0007641207008276247,0.0,0.0,0.0,0.0,0.0,0.0,4.993773312839113e-07,-4.952850096422759e-39,5.260534568438296e-29,0.0,0.0,0.0,-4.952850096422758e-39,4.97536706696659e-07,1.2593530492147572e-47,0.0,0.0,0.0,5.260534568438296e-29,-1.0713626943068182e-47,4.97536706696659e-07,0.0,0.0,0.0,0.0,0.0,0.0,9.999574935074393e-10
161700000000,8074,161700000000,odom,base_link,-0.000591512121860023,2.7386915006367297e-08,0.0,0.0,0.0,-3.190007106571225e-05,0.9999999994911928,8.07745248043634,2.281289083888773e-11,0.0,0.0,0.0,-8.768938040004139e-08,2.2812890838887704e-11,8.07745286526398,0.0,0.0,0.0,-0.001432800023388898,0.0,0.0,4.995843713223107e-07,-6.132420646749074e-29,2.1810806652297196e-20,0.0,0.0,0.0,-6.132420646749075e-29,4.99170803751445e-07,4.3165279454989063e-38,0.0,0.0,0.0,2.18108066522972e-20,-3.67290998670012e-38,4.99170803751445e-07,0.0,-8.76893804000426e-08,-0.0014328000233889203,0.0,0.0,0.0,9.688880375754144,-1.5874358155313917e-06,0.0,0.0,0.0,0.0,2.4753127018267313e-07,0.0007641207008270297,0.0,0.0,0.0,0.0,0.0,0.0,0.0007641207008270297,0.0,0.0,0.0,0.0,0.0,0.0,4.993773312839096e-07,-1.486515204815284e-37,5.26081123519497e-29,0.0,0.0,0.0,-1.4865152048152833e-37,4.97536706696652e-07,4.611169927949478e-46,0.0,0.0,0.0,5.260811235194968e-29,-3.504652314191575e-46,4.97536706696652e-07,0.0,0.0,0.0,0.0,0.0,0.0,9.999574935074395e-10
161720000000,8075,161720000000,odom,base_link,-0.0005915438714461851,2.7388940595184468e-08,0.0,0.0,0.0,-3.189807566520178e-05,0.9999999994912564,8.07845290543646,2.2818577820963763e-11,0.0,0.0,0.0,-8.770900667376977e-08,2.2818577820963747e-11,8.07845329035509,0.0,0.0,0.0,-0.0014331076505163039,0.0,0.0,4.995843713223107e-07,5.367370247755975e-29,2.181195370171746e-20,0.0,0.0,0.0,5.367370247755971e-29,4.99170803751445e-07,-8.046759657409678e-37,0.0,0.0,0.0,2.1811953701717466e-20,7.990424357118558e-37,4.99170803751445e-07,0.0,-8.770900667377097e-08,-0.0014331076505163262,0.0,0.0,0.0,9.690080385721318,-1.587519302780942e-06,0.0,0.0,0.0,0.0,5.639523952969026e-08,0.000764120700827062,0.0,0.0,0.0,0.0,0.0,0.0,0.000764120700827062,0.0,0.0,0.0,0.0,0.0,0.0,4.993773312839096e-07,1.3010649195850191e-37,5.261087905864926e-29,0.0,0.0,0.0,1.3010649195850191e-37,4.97536706696652e-07,-7.56107441867032e-45,0.0,0.0,0.0,5.261087905864928e-29,7.561072969964987e-45,4.97536706696652e-07,0.0,0.0,0.0,0.0,0.0,0.0,9.999574935074395e-10
161740000000,8076,161740000000,odom,base_link,-0.0005915756227026305,2.7390966194195326e-08,0.0,0.0,0.0,-3.189751266999605e-05,0.9999999994912744,8.079453330436582,2.2824266210459204e-11,0.0,0.0,0.0,-8.772863547683348e-08,2.2824266210459194e-11,8.079453715446228,0.0,0.0,0.0,-0.0014334153319263433,0.0,0.0,0.0006009984372435888,8.893269230427819e-24,1.582320980696e-14,0.0,0.0,0.0,8.893269230427822e-24,0.00030099678226042336,-3.647189773539904e-32,0.0,0.0,0.0,1.582320980696e-14,3.647189773539904e-32,0.00030099678226042336,0.0,-8.772863547683469e-08,-0.0014334153319263657,0.0,0.0,0.0,9.691280405589461,-1.5876028147429136e-06,0.0,0.0,0.0,0.0,5.6203796258721574e-08,0.0007641207008276202,0.0,0.0,0.0,0.0,0.0,0.0,0.0007641207008276202,0.0,0.0,0.0,0.0,0.0,0.0,0.00040099760867875876,1.503270153784044e-38,2.638758310712039e-29,0.0,0.0,0.0,1.5032701537840435e-38,0.00010099014754432826,-6.638211309222277e-46,0.0,0.0,0.0,2.63875831071204e-29,6.7370615840292745e-46,0.00010099014754432826,0.0,0.0,0.0,0.0,0.0,0.0,0.0003986764834457954
161760000000,8077,161760000000,odom,base_link,-0.0005916073756292853,2.7392991976475255e-08,0.0,0.0,0.0,-3.19009414421494e-05,0.9999999994911649,8.080453755436702,2.2829956255847533e-11,0.0,0.0,0.0,-8.77482684868984e-08,2.2829956255847533e-11,8.080454140537388,0.0,0.0,0.0,-0.0014337230676264262,0.0,0.0,4.995843713223107e-07,-6.464244300381941e-29,2.1814248621155484e-20,0.0,0.0,0.0,-6.464244300381938e-29,4.99170803751445e-07,1.0530464437888833e-36,0.0,0.0,0.0,2.1814248621155475e-20,-1.0462609335567591e-36,4.99170803751445e-07,0.0,-8.774826848689961e-08,-0.0014337230676264485,0.0,0.0,0.0,9.692480405655665,-1.5876863370515283e-06,0.0,0.0,0.0,0.0,-1.2411122450705013e-07,0.000764120700827019,0.0,0.0,0.0,0.0,0.0,0.0,0.000764120700827019,0.0,0.0,0.0,0.0,0.0,0.0,4.993773312839096e-07,-1.56695014741266e-37,5.261641445132853e-29,0.0,0.0,0.0,-1.56695014741266e-37,4.97536706696652e-07,1.0204283891720474e-44,0.0,0.0,0.0,5.261641445132854e-29,-1.0084530876679973e-44,4.97536706696652e-07,0.0,0.0,0.0,0.0,0.0,0.0,9.999574935074395e-10
161780000000,8078,161780000000,odom,base_link,-0.00059163913022659,2.7395017999282094e-08,0.0,0.0,0.0,-3.190224207841409e-05,0.9999999994911235,8.081454180436825,2.2835648039667863e-11,0.0,0.0,0.0,-8.77679062592609e-08,2.283564803966786e-11,8.081454565628576,0.0,0.0,0.0,-0.001434030857623137,0.0,0.0,4.995843713223107e-07,-2.685641499948588e-29,2.181539637510751e-20,0.0,0.0,0.0,-2.685641499948587e-29,4.99170803751445e-07,-1.2596746361733514e-37,0.0,0.0,0.0,2.181539637510751e-20,1.2878672691360307e-37,4.99170803751445e-07,0.0,-8.77679062592621e-08,-0.0014340308576231593,0.0,0.0,0.0,9.69368041562284,-1.5877698755987326e-06,0.0,0.0,0.0,0.0,-1.4901061729809508e-07,0.0007641207008270501,0.0,0.0,0.0,0.0,0.0,0.0,0.0007641207008270501,0.0,0.0,0.0,0.0,0.0,0.0,4.993773312839096e-07,-6.510067049885293e-38,5.261918285736845e-29,0.0,0.0,0.0,-6.510067049885296e-38,4.97536706696652e-07,-1.1951797349533677e-45,0.0,0.0,0.0,5.261918285736849e-29,1.2293138521911951e-45,4.97536706696652e-07,0.0,0.0,0.0,0.0,0.0,0.0,9.999574935074395e-10
161800000000,8079,161800000000,odom,base_link,-0.0005916708864948375,2.739704421525951e-08,0.0,0.0,0.0,-3.190357780860653e-05,0.9999999994910809,8.082454605436947,2.2841341494499993e-11,0.0,0.0,0.0,-8.778754833545033e-08,2.2841341494499974e-11,8.082454990719786,0.0,0.0,0.0,-0.001434338701923557,0.0,0.0,4.995843713223119e-07,-3.2254057703199286e-29,2.1816544341253324e-20,0.0,0.0,0.0,-3.225405770319928e-29,4.991708037514474e-07,3.052673243507107e-38,0.0,0.0,0.0,2.1816544341253324e-20,-2.714067117338119e-38,4.991708037514474e-07,0.0,-8.778754833545154e-08,-0.0014343387019235794,0.0,0.0,0.0,9.694880425590014,-1.5878534295959925e-06,0.0,0.0,0.0,0.0,-8.823162831176924e-08,0.000764120700827608,0.0,0.0,0.0,0.0,0.0,0.0,0.000764120700827608,0.0,0.0,0.0,0.0,0.0,0.0,4.993773312839113e-07,-7.818470100381188e-38,5.262195177522211e-29,0.0,0.0,0.0,-7.818470100381186e-38,4.97536706696659e-07,3.0573110235518156e-46,0.0,0.0,0.0,5.262195177522211e-29,-2.45703813321701e-46,4.97536706696659e-07,0.0,0.0,0.0,0.0,0.0,0.0,9.999574935074393e-10
161820000000,8080,161820000000,odom,base_link,-0.0005917026444343212,2.7399070613059453e-08,0.0,0.0,0.0,-3.190445629344651e-05,0.9999999994910528,8.083455030437065,2.284703660452243e-11,0.0,0.0,0.0,-8.780719460591091e-08,2.2847036604522406e-11,8.083455415811017,0.0,0.0,0.0,-0.0014346466005346538,0.0,0.0,0.0006009984372418835,-1.3842772105966675e-23,1.582654042306809e-14,0.0,0.0,0.0,-1.3842772105966677e-23,0.0003009967822595707,4.4423697697836355e-32,0.0,0.0,0.0,1.5826540423068093e-14,-4.4423697697836355e-32,0.0003009967822595707,0.0,-8.780719460591212e-08,-0.0014346466005346762,0.0,0.0,0.0,9.696080445458156,-1.5879369986476404e-06,0.0,0.0,0.0,0.0,-8.746531582707574e-08,0.0007641207008270073,0.0,0.0,0.0,0.0,0.0,0.0,0.0007641207008270073,0.0,0.0,0.0,0.0,0.0,0.0,0.0004009976086776219,-2.351913945581609e-38,2.639313710375966e-29,0.0,0.0,0.0,-2.351913945581608e-38,0.00010099014754404405,8.69646530836154e-46,0.0,0.0,0.0,2.639313710375965e-29,-8.696407048962833e-46,0.00010099014754404405,0.0,0.0,0.0,0.0,0.0,0.0,0.00039867648344522693
161840000000,8081,161840000000,odom,base_link,-0.0005917344040451144,2.7401097264053346e-08,0.0,0.0,0.0,-3.190731233751297e-05,0.9999999994909617,8.084455455437189,2.285273347260824e-11,0.0,0.0,0.0,-8.782684576324836e-08,2.2852733472608207e-11,8.084455840902278,0.0,0.0,0.0,-0.001434954553462798,0.0,0.0,4.995843713223107e-07,-8.10368509155257e-29,2.1818840814815533e-20,0.0,0.0,0.0,-8.103685091552575e-29,4.99170803751445e-07,-2.2726022639663586e-37,0.0,0.0,0.0,2.1818840814815524e-20,2.3576844657717173e-37,4.99170803751445e-07,0.0,-8.782684576324956e-08,-0.0014349545534628203,0.0,0.0,0.0,9.697280445524362,-1.5880205769552113e-06,0.0,0.0,0.0,0.0,2.6487961047209947e-07,0.0007641207008270386,0.0,0.0,0.0,0.0,0.0,0.0,0.0007641207008270386,0.0,0.0,0.0,0.0,0.0,0.0,4.993773312839096e-07,-1.9643549880983385e-37,5.262749091648637e-29,0.0,0.0,0.0,-1.964354988098339e-37,4.97536706696652e-07,-2.2251423584346462e-45,0.0,0.0,0.0,5.262749091648641e-29,2.3445093412110634e-45,4.97536706696652e-07,0.0,0.0,0.0,0.0,0.0,0.0,9.999574935074395e-10
